[
  {
    "name": "若井",
    "name_en": "Wakai",
    "lat": 33.1880575,
    "lng": 133.1059971,
    "category": "station",
    "prefecture": "kochi",
    "osm_id": 265002975,
    "spot_type": "data_spot",
    "data_source": "osm"
  },
  {
    "name": "真土",
    "name_en": "Matsuchi",
    "lat": 33.2240858,
    "lng": 132.7453372,
    "category": "station",
    "prefecture": "kochi",
    "osm_id": 265003238,
    "spot_type": "data_spot",
    "data_source": "osm"
  },
  {
    "name": "十川",
    "name_en": "Tōkawa",
    "lat": 33.2347403,
    "lng": 132.8557833,
    "category": "station",
    "prefecture": "kochi",
    "osm_id": 265003515,
    "spot_type": "data_spot",
    "data_source": "osm"
  },
  {
    "name": "半家",
    "name_en": "Hage",
    "lat": 33.2015364,
    "lng": 132.7915311,
    "category": "station",
    "prefecture": "kochi",
    "osm_id": 265004152,
    "spot_type": "data_spot",
    "data_source": "osm"
  },
  {
    "name": "西ヶ方",
    "name_en": "Nishigahō",
    "lat": 33.1872335,
    "lng": 132.7672444,
    "category": "station",
    "prefecture": "kochi",
    "osm_id": 265004228,
    "spot_type": "data_spot",
    "data_source": "osm"
  },
  {
    "name": "土佐昭和",
    "name_en": "Tosa-Shōwa",
    "lat": 33.220106,
    "lng": 132.8971802,
    "category": "station",
    "prefecture": "kochi",
    "osm_id": 265005008,
    "spot_type": "data_spot",
    "data_source": "osm"
  },
  {
    "name": "吉野生",
    "name_en": "Yoshinobu",
    "lat": 33.2245719,
    "lng": 132.7290605,
    "category": "station",
    "prefecture": "kochi",
    "osm_id": 265005223,
    "spot_type": "data_spot",
    "data_source": "osm"
  },
  {
    "name": "深田",
    "name_en": "Fukata",
    "lat": 33.2676636,
    "lng": 132.6603709,
    "category": "station",
    "prefecture": "kochi",
    "osm_id": 265005657,
    "spot_type": "data_spot",
    "data_source": "osm"
  },
  {
    "name": "伊予宮野下",
    "name_en": "Iyo-Miyanoshita",
    "lat": 33.2888721,
    "lng": 132.6057654,
    "category": "station",
    "prefecture": "kochi",
    "osm_id": 265005713,
    "spot_type": "data_spot",
    "data_source": "osm"
  },
  {
    "name": "務田",
    "name_en": "Muden",
    "lat": 33.2828238,
    "lng": 132.6002142,
    "category": "station",
    "prefecture": "kochi",
    "osm_id": 265005779,
    "spot_type": "data_spot",
    "data_source": "osm"
  },
  {
    "name": "近永",
    "name_en": "Chikanaga",
    "lat": 33.2556258,
    "lng": 132.676551,
    "category": "station",
    "prefecture": "kochi",
    "osm_id": 265005938,
    "spot_type": "data_spot",
    "data_source": "osm"
  },
  {
    "name": "二名",
    "name_en": "Futana",
    "lat": 33.2915304,
    "lng": 132.6290749,
    "category": "station",
    "prefecture": "kochi",
    "osm_id": 265005942,
    "spot_type": "data_spot",
    "data_source": "osm"
  },
  {
    "name": "大内",
    "name_en": "Ōuchi",
    "lat": 33.2869174,
    "lng": 132.642351,
    "category": "station",
    "prefecture": "kochi",
    "osm_id": 265006131,
    "spot_type": "data_spot",
    "data_source": "osm"
  },
  {
    "name": "宿毛",
    "name_en": "Sukumo",
    "lat": 32.9325416,
    "lng": 132.713119,
    "category": "station",
    "prefecture": "kochi",
    "osm_id": 265019964,
    "spot_type": "data_spot",
    "data_source": "osm"
  },
  {
    "name": "唐浜",
    "name_en": "Tōnohama",
    "lat": 33.4460634,
    "lng": 133.9657079,
    "category": "station",
    "prefecture": "kochi",
    "osm_id": 265020404,
    "spot_type": "data_spot",
    "data_source": "osm"
  },
  {
    "name": "奈半利",
    "name_en": "Nahari",
    "lat": 33.4250589,
    "lng": 134.0181116,
    "category": "station",
    "prefecture": "kochi",
    "osm_id": 265020421,
    "spot_type": "data_spot",
    "data_source": "osm"
  },
  {
    "name": "安田",
    "name_en": "Yasuda",
    "lat": 33.4433864,
    "lng": 133.9841267,
    "category": "station",
    "prefecture": "kochi",
    "osm_id": 265020423,
    "spot_type": "data_spot",
    "data_source": "osm"
  },
  {
    "name": "田野",
    "name_en": "Tano",
    "lat": 33.4302838,
    "lng": 134.0081722,
    "category": "station",
    "prefecture": "kochi",
    "osm_id": 265020465,
    "spot_type": "data_spot",
    "data_source": "osm"
  },
  {
    "name": "夜須",
    "name_en": "Yasu",
    "lat": 33.5344491,
    "lng": 133.7542596,
    "category": "station",
    "prefecture": "kochi",
    "osm_id": 265020572,
    "spot_type": "data_spot",
    "data_source": "osm"
  },
  {
    "name": "穴内",
    "name_en": "Ananai",
    "lat": 33.5061809,
    "lng": 133.8639131,
    "category": "station",
    "prefecture": "kochi",
    "osm_id": 265020573,
    "spot_type": "data_spot",
    "data_source": "osm"
  },
  {
    "name": "立田",
    "name_en": "Tateda",
    "lat": 33.5707451,
    "lng": 133.6705406,
    "category": "station",
    "prefecture": "kochi",
    "osm_id": 265020583,
    "spot_type": "data_spot",
    "data_source": "osm"
  },
  {
    "name": "安芸",
    "name_en": "Aki",
    "lat": 33.5046582,
    "lng": 133.9064534,
    "category": "station",
    "prefecture": "kochi",
    "osm_id": 265020708,
    "spot_type": "data_spot",
    "data_source": "osm"
  },
  {
    "name": "和食",
    "name_en": "Wajiki",
    "lat": 33.5178986,
    "lng": 133.8092126,
    "category": "station",
    "prefecture": "kochi",
    "osm_id": 265020711,
    "spot_type": "data_spot",
    "data_source": "osm"
  },
  {
    "name": "後免町",
    "name_en": "Gomenmachi",
    "lat": 33.5745988,
    "lng": 133.6514074,
    "category": "station",
    "prefecture": "kochi",
    "osm_id": 265020714,
    "spot_type": "data_spot",
    "data_source": "osm"
  },
  {
    "name": "赤野",
    "name_en": "Akano",
    "lat": 33.5160147,
    "lng": 133.825034,
    "category": "station",
    "prefecture": "kochi",
    "osm_id": 265020809,
    "spot_type": "data_spot",
    "data_source": "osm"
  },
  {
    "name": "西分",
    "name_en": "Nishibun",
    "lat": 33.5177184,
    "lng": 133.790302,
    "category": "station",
    "prefecture": "kochi",
    "osm_id": 265020811,
    "spot_type": "data_spot",
    "data_source": "osm"
  },
  {
    "name": "伊尾木",
    "name_en": "Ioki",
    "lat": 33.4909458,
    "lng": 133.929092,
    "category": "station",
    "prefecture": "kochi",
    "osm_id": 265020826,
    "spot_type": "data_spot",
    "data_source": "osm"
  },
  {
    "name": "球場前",
    "name_en": "Kyūjōmae",
    "lat": 33.5026276,
    "lng": 133.8912761,
    "category": "station",
    "prefecture": "kochi",
    "osm_id": 265020971,
    "spot_type": "data_spot",
    "data_source": "osm"
  },
  {
    "name": "のいち",
    "name_en": "Noichi",
    "lat": 33.5619089,
    "lng": 133.6979873,
    "category": "station",
    "prefecture": "kochi",
    "osm_id": 265021149,
    "spot_type": "data_spot",
    "data_source": "osm"
  },
  {
    "name": "下山",
    "name_en": "Shimoyama",
    "lat": 33.4582931,
    "lng": 133.9481018,
    "category": "station",
    "prefecture": "kochi",
    "osm_id": 265021209,
    "spot_type": "data_spot",
    "data_source": "osm"
  },
  {
    "name": "あかおか",
    "name_en": "Akaoka",
    "lat": 33.5398659,
    "lng": 133.7221029,
    "category": "station",
    "prefecture": "kochi",
    "osm_id": 265021250,
    "spot_type": "data_spot",
    "data_source": "osm"
  },
  {
    "name": "よしかわ",
    "name_en": "Yoshikawa",
    "lat": 33.5461153,
    "lng": 133.7101274,
    "category": "station",
    "prefecture": "kochi",
    "osm_id": 265021294,
    "spot_type": "data_spot",
    "data_source": "osm"
  },
  {
    "name": "香我美",
    "name_en": "Kagami",
    "lat": 33.5393136,
    "lng": 133.7374319,
    "category": "station",
    "prefecture": "kochi",
    "osm_id": 265021295,
    "spot_type": "data_spot",
    "data_source": "osm"
  },
  {
    "name": "牛渕",
    "name_en": "Ushibuchi",
    "lat": 33.7952114,
    "lng": 132.8561079,
    "category": "station",
    "prefecture": "kochi",
    "osm_id": 265040980,
    "spot_type": "data_spot",
    "data_source": "osm"
  },
  {
    "name": "田窪",
    "name_en": "Tanokubo",
    "lat": 33.7929531,
    "lng": 132.8654144,
    "category": "station",
    "prefecture": "kochi",
    "osm_id": 265041001,
    "spot_type": "data_spot",
    "data_source": "osm"
  },
  {
    "name": "土橋",
    "name_en": "Dobashi",
    "lat": 33.8327068,
    "lng": 132.7562758,
    "category": "station",
    "prefecture": "kochi",
    "osm_id": 265041162,
    "spot_type": "data_spot",
    "data_source": "osm"
  },
  {
    "name": "新川",
    "name_en": "Shinkawa",
    "lat": 33.7718784,
    "lng": 132.7041423,
    "category": "station",
    "prefecture": "kochi",
    "osm_id": 265041175,
    "spot_type": "data_spot",
    "data_source": "osm"
  },
  {
    "name": "松前",
    "name_en": "Masaki",
    "lat": 33.7861048,
    "lng": 132.7050016,
    "category": "station",
    "prefecture": "kochi",
    "osm_id": 265041184,
    "spot_type": "data_spot",
    "data_source": "osm"
  },
  {
    "name": "地蔵町",
    "name_en": "Jizomachi",
    "lat": 33.779555,
    "lng": 132.7041954,
    "category": "station",
    "prefecture": "kochi",
    "osm_id": 265041210,
    "spot_type": "data_spot",
    "data_source": "osm"
  },
  {
    "name": "大手町",
    "name_en": "Otemachi",
    "lat": 33.8399141,
    "lng": 132.7553103,
    "category": "station",
    "prefecture": "kochi",
    "osm_id": 265041261,
    "spot_type": "data_spot",
    "data_source": "osm"
  },
  {
    "name": "港山",
    "name_en": "Minatoyama",
    "lat": 33.8695183,
    "lng": 132.7132546,
    "category": "station",
    "prefecture": "kochi",
    "osm_id": 265041263,
    "spot_type": "data_spot",
    "data_source": "osm"
  },
  {
    "name": "名称不明",
    "name_en": "",
    "lat": 33.8532812,
    "lng": 134.0221122,
    "category": "shrine",
    "prefecture": "kochi",
    "osm_id": 278098573,
    "spot_type": "data_spot",
    "data_source": "osm"
  },
  {
    "name": "第26番札所 金剛頂寺 (Kongōchōji)",
    "name_en": "26 Kongōchō-ji",
    "lat": 33.3070734,
    "lng": 134.1228508,
    "category": "temple",
    "prefecture": "kochi",
    "osm_id": 331437020,
    "spot_type": "data_spot",
    "data_source": "osm"
  },
  {
    "name": "第25番札所 津照寺 (Shinsho-ji)",
    "name_en": "25 Shinsho-ji",
    "lat": 33.2882369,
    "lng": 134.1482763,
    "category": "temple",
    "prefecture": "kochi",
    "osm_id": 331437344,
    "spot_type": "data_spot",
    "data_source": "osm"
  },
  {
    "name": "第24番札所 最御崎寺",
    "name_en": "24 Hotsumisaki-ji",
    "lat": 33.2490846,
    "lng": 134.1759439,
    "category": "temple",
    "prefecture": "kochi",
    "osm_id": 331438826,
    "spot_type": "data_spot",
    "data_source": "osm"
  },
  {
    "name": "釼尾神社",
    "name_en": "",
    "lat": 33.5332927,
    "lng": 133.6336017,
    "category": "shrine",
    "prefecture": "kochi",
    "osm_id": 394709198,
    "spot_type": "data_spot",
    "data_source": "osm"
  },
  {
    "name": "神峯神社",
    "name_en": "",
    "lat": 33.4686967,
    "lng": 133.9752755,
    "category": "shrine",
    "prefecture": "kochi",
    "osm_id": 408839221,
    "spot_type": "data_spot",
    "data_source": "osm"
  },
  {
    "name": "第27番札所 神峯寺 (Konomine-ji)",
    "name_en": "27 Kōnomine-ji",
    "lat": 33.4675303,
    "lng": 133.9749882,
    "category": "temple",
    "prefecture": "kochi",
    "osm_id": 408839421,
    "spot_type": "data_spot",
    "data_source": "osm"
  },
  {
    "name": "第60番札所 横峰寺",
    "name_en": "60 Yokomine-ji",
    "lat": 33.8376181,
    "lng": 133.1110909,
    "category": "temple",
    "prefecture": "kochi",
    "osm_id": 412335511,
    "spot_type": "data_spot",
    "data_source": "osm"
  },
  {
    "name": "名称不明",
    "name_en": "",
    "lat": 33.5040961,
    "lng": 133.5581136,
    "category": "lighthouse",
    "prefecture": "kochi",
    "osm_id": 564443271,
    "spot_type": "data_spot",
    "data_source": "osm"
  },
  {
    "name": "甲浦八幡宮",
    "name_en": "",
    "lat": 33.5472871,
    "lng": 134.2877081,
    "category": "shrine",
    "prefecture": "kochi",
    "osm_id": 601359579,
    "spot_type": "data_spot",
    "data_source": "osm"
  },
  {
    "name": "第50番札所 繁多寺 (Hanta-ji)",
    "name_en": "Hantaji Temple (Temple 50)",
    "lat": 33.827983,
    "lng": 132.8042637,
    "category": "temple",
    "prefecture": "kochi",
    "osm_id": 608287974,
    "spot_type": "data_spot",
    "data_source": "osm"
  },
  {
    "name": "東雲神社",
    "name_en": "Shinonome Shrine",
    "lat": 33.8449143,
    "lng": 132.7707693,
    "category": "shrine",
    "prefecture": "kochi",
    "osm_id": 608402737,
    "spot_type": "data_spot",
    "data_source": "osm"
  },
  {
    "name": "松山城",
    "name_en": "Matsuyama Castle",
    "lat": 33.845651,
    "lng": 132.7657463,
    "category": "castle",
    "prefecture": "kochi",
    "osm_id": 611661255,
    "spot_type": "data_spot",
    "data_source": "osm"
  },
  {
    "name": "第33番札所 雪渓寺 (Sekkei-ji)",
    "name_en": "33 Sekkei-ji",
    "lat": 33.5008563,
    "lng": 133.5431302,
    "category": "temple",
    "prefecture": "kochi",
    "osm_id": 725217819,
    "spot_type": "data_spot",
    "data_source": "osm"
  },
  {
    "name": "名称不明",
    "name_en": "",
    "lat": 33.4919049,
    "lng": 133.4874553,
    "category": "shrine",
    "prefecture": "kochi",
    "osm_id": 770247700,
    "spot_type": "data_spot",
    "data_source": "osm"
  },
  {
    "name": "第34番札所 種間寺 (Tanema-ji)",
    "name_en": "34 Tanema-ji",
    "lat": 33.4917044,
    "lng": 133.4876666,
    "category": "temple",
    "prefecture": "kochi",
    "osm_id": 770247808,
    "spot_type": "data_spot",
    "data_source": "osm"
  },
  {
    "name": "第41番札所 龍光寺 (Ryuko-ji)",
    "name_en": "41 Ryuko-ji",
    "lat": 33.2952023,
    "lng": 132.5986435,
    "category": "temple",
    "prefecture": "kochi",
    "osm_id": 811018694,
    "spot_type": "data_spot",
    "data_source": "osm"
  },
  {
    "name": "第42番札所 佛木寺 仏木寺 (Butsumoku-ji)",
    "name_en": "42 Butsumoku-ji",
    "lat": 33.3105599,
    "lng": 132.5814592,
    "category": "temple",
    "prefecture": "kochi",
    "osm_id": 811018827,
    "spot_type": "data_spot",
    "data_source": "osm"
  },
  {
    "name": "第43番札所 明石寺 (Meiseki-ji)",
    "name_en": "43 Meiseki-ji",
    "lat": 33.3692339,
    "lng": 132.5190216,
    "category": "temple",
    "prefecture": "kochi",
    "osm_id": 811019635,
    "spot_type": "data_spot",
    "data_source": "osm"
  },
  {
    "name": "宍喰",
    "name_en": "Shishikui",
    "lat": 33.566853,
    "lng": 134.3007168,
    "category": "station",
    "prefecture": "kochi",
    "osm_id": 822932927,
    "spot_type": "data_spot",
    "data_source": "osm"
  },
  {
    "name": "名称不明",
    "name_en": "",
    "lat": 33.7970867,
    "lng": 132.8401186,
    "category": "rest_area",
    "prefecture": "kochi",
    "osm_id": 1025003132,
    "spot_type": "data_spot",
    "data_source": "osm"
  },
  {
    "name": "第32番札所 禅師峰寺(Zenjibu-ji)",
    "name_en": "32 Zenjibu-ji",
    "lat": 33.5267092,
    "lng": 133.6113941,
    "category": "temple",
    "prefecture": "kochi",
    "osm_id": 1078632741,
    "spot_type": "data_spot",
    "data_source": "osm"
  },
  {
    "name": "新宮神社",
    "name_en": "",
    "lat": 33.5317387,
    "lng": 133.6203944,
    "category": "shrine",
    "prefecture": "kochi",
    "osm_id": 1078633742,
    "spot_type": "data_spot",
    "data_source": "osm"
  },
  {
    "name": "琴平神社",
    "name_en": "",
    "lat": 33.5361486,
    "lng": 133.6373312,
    "category": "shrine",
    "prefecture": "kochi",
    "osm_id": 1080353654,
    "spot_type": "data_spot",
    "data_source": "osm"
  },
  {
    "name": "石土神社",
    "name_en": "",
    "lat": 33.5259474,
    "lng": 133.6052605,
    "category": "shrine",
    "prefecture": "kochi",
    "osm_id": 1085588477,
    "spot_type": "data_spot",
    "data_source": "osm"
  },
  {
    "name": "上母神社",
    "name_en": "",
    "lat": 33.4525933,
    "lng": 133.444202,
    "category": "shrine",
    "prefecture": "kochi",
    "osm_id": 1272063051,
    "spot_type": "data_spot",
    "data_source": "osm"
  },
  {
    "name": "足摺岬灯台",
    "name_en": "",
    "lat": 32.7240332,
    "lng": 133.0202873,
    "category": "lighthouse",
    "prefecture": "kochi",
    "osm_id": 1275225566,
    "spot_type": "data_spot",
    "data_source": "osm"
  },
  {
    "name": "龍宮厳",
    "name_en": "",
    "lat": 33.2463855,
    "lng": 134.1777284,
    "category": "shrine",
    "prefecture": "kochi",
    "osm_id": 1275277197,
    "spot_type": "data_spot",
    "data_source": "osm"
  },
  {
    "name": "臼碆灯台",
    "name_en": "",
    "lat": 32.731722,
    "lng": 132.965137,
    "category": "lighthouse",
    "prefecture": "kochi",
    "osm_id": 1331979329,
    "spot_type": "data_spot",
    "data_source": "osm"
  },
  {
    "name": "若宮八幡宮",
    "name_en": "",
    "lat": 33.5619995,
    "lng": 133.5226681,
    "category": "shrine",
    "prefecture": "kochi",
    "osm_id": 1347334401,
    "spot_type": "data_spot",
    "data_source": "osm"
  },
  {
    "name": "那賀町木沢歴史民俗資料館",
    "name_en": "",
    "lat": 33.830047,
    "lng": 134.297128,
    "category": "museum",
    "prefecture": "kochi",
    "osm_id": 1423661158,
    "spot_type": "data_spot",
    "data_source": "osm"
  },
  {
    "name": "上黒岩岩陰遺跡考古館",
    "name_en": "",
    "lat": 33.6178272,
    "lng": 132.9603091,
    "category": "museum",
    "prefecture": "kochi",
    "osm_id": 1423707002,
    "spot_type": "data_spot",
    "data_source": "osm"
  },
  {
    "name": "中岡慎太郎館",
    "name_en": "",
    "lat": 33.456357,
    "lng": 134.057308,
    "category": "museum",
    "prefecture": "kochi",
    "osm_id": 1423707178,
    "spot_type": "data_spot",
    "data_source": "osm"
  },
  {
    "name": "久万美術館",
    "name_en": "",
    "lat": 33.662004,
    "lng": 132.906867,
    "category": "museum",
    "prefecture": "kochi",
    "osm_id": 1423707323,
    "spot_type": "data_spot",
    "data_source": "osm"
  },
  {
    "name": "久万高原ふるさと旅行村内久万町立山村歴史館",
    "name_en": "",
    "lat": 33.672986,
    "lng": 132.937985,
    "category": "museum",
    "prefecture": "kochi",
    "osm_id": 1423707325,
    "spot_type": "data_spot",
    "data_source": "osm"
  },
  {
    "name": "乗松巖記念館「エスパス２１」",
    "name_en": "",
    "lat": 33.833246,
    "lng": 132.780479,
    "category": "museum",
    "prefecture": "kochi",
    "osm_id": 1423707362,
    "spot_type": "data_spot",
    "data_source": "osm"
  },
  {
    "name": "五十崎凧博物館",
    "name_en": "",
    "lat": 33.539742,
    "lng": 132.656661,
    "category": "museum",
    "prefecture": "kochi",
    "osm_id": 1423729711,
    "spot_type": "data_spot",
    "data_source": "osm"
  },
  {
    "name": "五十崎歴史民俗資料館",
    "name_en": "",
    "lat": 33.544166,
    "lng": 132.656871,
    "category": "museum",
    "prefecture": "kochi",
    "osm_id": 1423729724,
    "spot_type": "data_spot",
    "data_source": "osm"
  },
  {
    "name": "佐川町立青山文庫",
    "name_en": "",
    "lat": 33.4977846,
    "lng": 133.2887416,
    "category": "museum",
    "prefecture": "kochi",
    "osm_id": 1423730636,
    "spot_type": "data_spot",
    "data_source": "osm"
  },
  {
    "name": "四万十市立郷土資料館",
    "name_en": "",
    "lat": 32.9969402,
    "lng": 132.930622,
    "category": "museum",
    "prefecture": "kochi",
    "osm_id": 1423731922,
    "spot_type": "data_spot",
    "data_source": "osm"
  },
  {
    "name": "土佐山内家宝物資料館",
    "name_en": "",
    "lat": 33.5553684,
    "lng": 133.5312644,
    "category": "museum",
    "prefecture": "kochi",
    "osm_id": 1423732303,
    "spot_type": "data_spot",
    "data_source": "osm"
  },
  {
    "name": "土佐足摺サンゴ博物館",
    "name_en": "",
    "lat": 32.789603,
    "lng": 132.866171,
    "category": "museum",
    "prefecture": "kochi",
    "osm_id": 1423732454,
    "spot_type": "data_spot",
    "data_source": "osm"
  },
  {
    "name": "大洲市河辺歴史民俗資料館",
    "name_en": "",
    "lat": 33.5109546,
    "lng": 132.7951415,
    "category": "museum",
    "prefecture": "kochi",
    "osm_id": 1423733302,
    "spot_type": "data_spot",
    "data_source": "osm"
  },
  {
    "name": "大洲市立博物館",
    "name_en": "",
    "lat": 33.5137327,
    "lng": 132.546179,
    "category": "museum",
    "prefecture": "kochi",
    "osm_id": 1423733305,
    "spot_type": "data_spot",
    "data_source": "osm"
  },
  {
    "name": "大豊町立民俗資料館",
    "name_en": "",
    "lat": 33.792532,
    "lng": 133.769492,
    "category": "museum",
    "prefecture": "kochi",
    "osm_id": 1423733491,
    "spot_type": "data_spot",
    "data_source": "osm"
  },
  {
    "name": "宇和先哲記念館",
    "name_en": "",
    "lat": 33.362861,
    "lng": 132.515465,
    "category": "museum",
    "prefecture": "kochi",
    "osm_id": 1423733658,
    "spot_type": "data_spot",
    "data_source": "osm"
  },
  {
    "name": "宇和島市立歴史資料館",
    "name_en": "",
    "lat": 33.226452,
    "lng": 132.554664,
    "category": "museum",
    "prefecture": "kochi",
    "osm_id": 1423733742,
    "spot_type": "data_spot",
    "data_source": "osm"
  },
  {
    "name": "宇和歴史民俗資料館",
    "name_en": "",
    "lat": 33.364209,
    "lng": 132.513604,
    "category": "museum",
    "prefecture": "kochi",
    "osm_id": 1423733857,
    "spot_type": "data_spot",
    "data_source": "osm"
  },
  {
    "name": "宇和民具館",
    "name_en": "",
    "lat": 33.363916,
    "lng": 132.513942,
    "category": "museum",
    "prefecture": "kochi",
    "osm_id": 1423733858,
    "spot_type": "data_spot",
    "data_source": "osm"
  },
  {
    "name": "宇和米博物館",
    "name_en": "",
    "lat": 33.368208,
    "lng": 132.512223,
    "category": "museum",
    "prefecture": "kochi",
    "osm_id": 1423733874,
    "spot_type": "data_spot",
    "data_source": "osm"
  },
  {
    "name": "安芸市立書道美術館",
    "name_en": "",
    "lat": 33.5195295,
    "lng": 133.9132501,
    "category": "museum",
    "prefecture": "kochi",
    "osm_id": 1423733994,
    "spot_type": "data_spot",
    "data_source": "osm"
  },
  {
    "name": "安芸市立歴史民俗資料館",
    "name_en": "",
    "lat": 33.5192065,
    "lng": 133.9132474,
    "category": "museum",
    "prefecture": "kochi",
    "osm_id": 1423733998,
    "spot_type": "data_spot",
    "data_source": "osm"
  },
  {
    "name": "宿毛市立宿毛歴史館",
    "name_en": "",
    "lat": 32.938777,
    "lng": 132.730371,
    "category": "museum",
    "prefecture": "kochi",
    "osm_id": 1423734251,
    "spot_type": "data_spot",
    "data_source": "osm"
  },
  {
    "name": "愛媛県歴史文化博物館",
    "name_en": "",
    "lat": 33.363945,
    "lng": 132.518216,
    "category": "museum",
    "prefecture": "kochi",
    "osm_id": 1423737734,
    "spot_type": "data_spot",
    "data_source": "osm"
  },
  {
    "name": "春野町立郷土資料館",
    "name_en": "",
    "lat": 33.4997193,
    "lng": 133.4885182,
    "category": "museum",
    "prefecture": "kochi",
    "osm_id": 1423738402,
    "spot_type": "data_spot",
    "data_source": "osm"
  },
  {
    "name": "松山城",
    "name_en": "",
    "lat": 33.8455983,
    "lng": 132.7659376,
    "category": "museum",
    "prefecture": "kochi",
    "osm_id": 1423739161,
    "spot_type": "data_spot",
    "data_source": "osm"
  },
  {
    "name": "松山市立子規記念博物館",
    "name_en": "Shiki Memorial Museum",
    "lat": 33.849701,
    "lng": 132.787045,
    "category": "museum",
    "prefecture": "kochi",
    "osm_id": 1423739411,
    "spot_type": "data_spot",
    "data_source": "osm"
  },
  {
    "name": "梅山古陶資料館",
    "name_en": "",
    "lat": 33.729903,
    "lng": 132.786681,
    "category": "museum",
    "prefecture": "kochi",
    "osm_id": 1423739774,
    "spot_type": "data_spot",
    "data_source": "osm"
  },
  {
    "name": "檮原町立歴史民俗資料館",
    "name_en": "",
    "lat": 33.391313,
    "lng": 132.927127,
    "category": "museum",
    "prefecture": "kochi",
    "osm_id": 1423739942,
    "spot_type": "data_spot",
    "data_source": "osm"
  },
  {
    "name": "湯築城資料館",
    "name_en": "Yuzuji-jo Museum",
    "lat": 33.848147,
    "lng": 132.785669,
    "category": "museum",
    "prefecture": "kochi",
    "osm_id": 1423740447,
    "spot_type": "data_spot",
    "data_source": "osm"
  },
  {
    "name": "竜串貝類展示館海のギャラリー",
    "name_en": "",
    "lat": 32.788672,
    "lng": 132.865787,
    "category": "museum",
    "prefecture": "kochi",
    "osm_id": 1423743074,
    "spot_type": "data_spot",
    "data_source": "osm"
  },
  {
    "name": "肱川風の博物館・歌麿館",
    "name_en": "",
    "lat": 33.447215,
    "lng": 132.693317,
    "category": "museum",
    "prefecture": "kochi",
    "osm_id": 1423743413,
    "spot_type": "data_spot",
    "data_source": "osm"
  },
  {
    "name": "芝不器男記念館",
    "name_en": "",
    "lat": 33.227147,
    "lng": 132.708182,
    "category": "museum",
    "prefecture": "kochi",
    "osm_id": 1423743470,
    "spot_type": "data_spot",
    "data_source": "osm"
  },
  {
    "name": "虹の森公園四万十川学習センターおさかな館",
    "name_en": "",
    "lat": 33.2293438,
    "lng": 132.7104239,
    "category": "zoo",
    "prefecture": "kochi",
    "osm_id": 1423743648,
    "spot_type": "data_spot",
    "data_source": "osm"
  },
  {
    "name": "西予市立ギャラリーしろかわ",
    "name_en": "",
    "lat": 33.379411,
    "lng": 132.751639,
    "category": "museum",
    "prefecture": "kochi",
    "osm_id": 1423743690,
    "spot_type": "data_spot",
    "data_source": "osm"
  },
  {
    "name": "西予市立城川歴史民俗資料館",
    "name_en": "",
    "lat": 33.380208,
    "lng": 132.751546,
    "category": "museum",
    "prefecture": "kochi",
    "osm_id": 1423743693,
    "spot_type": "data_spot",
    "data_source": "osm"
  },
  {
    "name": "足摺海底館",
    "name_en": "",
    "lat": 32.785949,
    "lng": 132.8601351,
    "category": "zoo",
    "prefecture": "kochi",
    "osm_id": 1423744371,
    "spot_type": "data_spot",
    "data_source": "osm"
  },
  {
    "name": "開明学校",
    "name_en": "",
    "lat": 33.36446,
    "lng": 132.513825,
    "category": "museum",
    "prefecture": "kochi",
    "osm_id": 1423744734,
    "spot_type": "data_spot",
    "data_source": "osm"
  },
  {
    "name": "香南市立赤岡町絵金蔵",
    "name_en": "",
    "lat": 33.541673,
    "lng": 133.724606,
    "category": "museum",
    "prefecture": "kochi",
    "osm_id": 1423744981,
    "spot_type": "data_spot",
    "data_source": "osm"
  },
  {
    "name": "香美市立やなせたかし記念館・アンパンマンミュージアム",
    "name_en": "Yanase Takashi Memorial Hall & Anpanman Museum",
    "lat": 33.64756,
    "lng": 133.783432,
    "category": "museum",
    "prefecture": "kochi",
    "osm_id": 1423745458,
    "spot_type": "data_spot",
    "data_source": "osm"
  },
  {
    "name": "香美市立やなせたかし記念館・詩とメルヘン絵本館",
    "name_en": "",
    "lat": 33.647367,
    "lng": 133.784658,
    "category": "museum",
    "prefecture": "kochi",
    "osm_id": 1423745463,
    "spot_type": "data_spot",
    "data_source": "osm"
  },
  {
    "name": "香美市立吉井勇記念館",
    "name_en": "",
    "lat": 33.706263,
    "lng": 133.856334,
    "category": "museum",
    "prefecture": "kochi",
    "osm_id": 1423745469,
    "spot_type": "data_spot",
    "data_source": "osm"
  },
  {
    "name": "香美市立美術館",
    "name_en": "",
    "lat": 33.610802,
    "lng": 133.6876568,
    "category": "museum",
    "prefecture": "kochi",
    "osm_id": 1423745473,
    "spot_type": "data_spot",
    "data_source": "osm"
  },
  {
    "name": "高知市立龍馬の生まれたまち記念館",
    "name_en": "",
    "lat": 33.556407,
    "lng": 133.524589,
    "category": "museum",
    "prefecture": "kochi",
    "osm_id": 1423747784,
    "spot_type": "data_spot",
    "data_source": "osm"
  },
  {
    "name": "高知県懐徳館",
    "name_en": "",
    "lat": 33.5606603,
    "lng": 133.531502,
    "category": "museum",
    "prefecture": "kochi",
    "osm_id": 1423748051,
    "spot_type": "data_spot",
    "data_source": "osm"
  },
  {
    "name": "高知県立歴史民俗資料館",
    "name_en": "",
    "lat": 33.5960448,
    "lng": 133.6234897,
    "category": "museum",
    "prefecture": "kochi",
    "osm_id": 1423748112,
    "spot_type": "data_spot",
    "data_source": "osm"
  },
  {
    "name": "鬼北町歴史民俗資料館",
    "name_en": "",
    "lat": 33.335175,
    "lng": 132.798039,
    "category": "museum",
    "prefecture": "kochi",
    "osm_id": 1423748456,
    "spot_type": "data_spot",
    "data_source": "osm"
  },
  {
    "name": "龍河洞博物館",
    "name_en": "",
    "lat": 33.603835,
    "lng": 133.745039,
    "category": "museum",
    "prefecture": "kochi",
    "osm_id": 1423748617,
    "spot_type": "data_spot",
    "data_source": "osm"
  },
  {
    "name": "Regional Museum",
    "name_en": "",
    "lat": 33.3063131,
    "lng": 134.1101919,
    "category": "museum",
    "prefecture": "kochi",
    "osm_id": 1493125453,
    "spot_type": "data_spot",
    "data_source": "osm"
  },
  {
    "name": "大川美良布神社",
    "name_en": "",
    "lat": 33.6499789,
    "lng": 133.7838082,
    "category": "shrine",
    "prefecture": "kochi",
    "osm_id": 1614754653,
    "spot_type": "data_spot",
    "data_source": "osm"
  },
  {
    "name": "名称不明",
    "name_en": "",
    "lat": 33.5643095,
    "lng": 133.5179012,
    "category": "shrine",
    "prefecture": "kochi",
    "osm_id": 1617346634,
    "spot_type": "data_spot",
    "data_source": "osm"
  },
  {
    "name": "観音寺",
    "name_en": "",
    "lat": 33.5597084,
    "lng": 133.5127043,
    "category": "temple",
    "prefecture": "kochi",
    "osm_id": 1626243415,
    "spot_type": "data_spot",
    "data_source": "osm"
  },
  {
    "name": "秋葉神社 (Akiba Shrine)",
    "name_en": "",
    "lat": 33.6057674,
    "lng": 133.757874,
    "category": "shrine",
    "prefecture": "kochi",
    "osm_id": 1710827746,
    "spot_type": "data_spot",
    "data_source": "osm"
  },
  {
    "name": "海洋堂ホビー館四万十",
    "name_en": "Kayodo Hobby Museum",
    "lat": 33.1530096,
    "lng": 133.0449105,
    "category": "museum",
    "prefecture": "kochi",
    "osm_id": 1746665094,
    "spot_type": "data_spot",
    "data_source": "osm"
  },
  {
    "name": "弁天座",
    "name_en": "",
    "lat": 33.5417882,
    "lng": 133.7247491,
    "category": "museum",
    "prefecture": "kochi",
    "osm_id": 1747355585,
    "spot_type": "data_spot",
    "data_source": "osm"
  },
  {
    "name": "神母ノ木神社",
    "name_en": "",
    "lat": 33.6138147,
    "lng": 133.7150388,
    "category": "shrine",
    "prefecture": "kochi",
    "osm_id": 1812186876,
    "spot_type": "data_spot",
    "data_source": "osm"
  },
  {
    "name": "名称不明",
    "name_en": "",
    "lat": 33.8134155,
    "lng": 134.3039878,
    "category": "shrine",
    "prefecture": "kochi",
    "osm_id": 1916258995,
    "spot_type": "data_spot",
    "data_source": "osm"
  },
  {
    "name": "安城寺",
    "name_en": "",
    "lat": 33.8454814,
    "lng": 132.7452217,
    "category": "temple",
    "prefecture": "kochi",
    "osm_id": 2232558769,
    "spot_type": "data_spot",
    "data_source": "osm"
  },
  {
    "name": "宝塔寺",
    "name_en": "",
    "lat": 33.8463241,
    "lng": 132.744167,
    "category": "temple",
    "prefecture": "kochi",
    "osm_id": 2232558770,
    "spot_type": "data_spot",
    "data_source": "osm"
  },
  {
    "name": "山内神社",
    "name_en": "",
    "lat": 33.841729,
    "lng": 132.7437579,
    "category": "shrine",
    "prefecture": "kochi",
    "osm_id": 2232558771,
    "spot_type": "data_spot",
    "data_source": "osm"
  },
  {
    "name": "朝日八幡神社",
    "name_en": "",
    "lat": 33.8421269,
    "lng": 132.7431501,
    "category": "shrine",
    "prefecture": "kochi",
    "osm_id": 2232558772,
    "spot_type": "data_spot",
    "data_source": "osm"
  },
  {
    "name": "真光寺",
    "name_en": "",
    "lat": 33.8461312,
    "lng": 132.7451335,
    "category": "temple",
    "prefecture": "kochi",
    "osm_id": 2232558773,
    "spot_type": "data_spot",
    "data_source": "osm"
  },
  {
    "name": "名称不明",
    "name_en": "",
    "lat": 33.543661,
    "lng": 133.6902541,
    "category": "shrine",
    "prefecture": "kochi",
    "osm_id": 2243156824,
    "spot_type": "data_spot",
    "data_source": "osm"
  },
  {
    "name": "御所谷八幡神社",
    "name_en": "",
    "lat": 33.7896507,
    "lng": 134.2960362,
    "category": "shrine",
    "prefecture": "kochi",
    "osm_id": 2252092782,
    "spot_type": "data_spot",
    "data_source": "osm"
  },
  {
    "name": "大殿八幡神社",
    "name_en": "",
    "lat": 33.7927834,
    "lng": 134.2989171,
    "category": "shrine",
    "prefecture": "kochi",
    "osm_id": 2252092785,
    "spot_type": "data_spot",
    "data_source": "osm"
  },
  {
    "name": "平谷八幡神社",
    "name_en": "",
    "lat": 33.791626,
    "lng": 134.3034062,
    "category": "shrine",
    "prefecture": "kochi",
    "osm_id": 2252092791,
    "spot_type": "data_spot",
    "data_source": "osm"
  },
  {
    "name": "庚申庵",
    "name_en": "",
    "lat": 33.843634,
    "lng": 132.754876,
    "category": "museum",
    "prefecture": "kochi",
    "osm_id": 2305741706,
    "spot_type": "data_spot",
    "data_source": "osm"
  },
  {
    "name": "浄土宗 大林寺",
    "name_en": "",
    "lat": 33.84522,
    "lng": 132.75475,
    "category": "temple",
    "prefecture": "kochi",
    "osm_id": 2305791301,
    "spot_type": "data_spot",
    "data_source": "osm"
  },
  {
    "name": "一草庵",
    "name_en": "Issōan",
    "lat": 33.853954,
    "lng": 132.771832,
    "category": "museum",
    "prefecture": "kochi",
    "osm_id": 2306291341,
    "spot_type": "data_spot",
    "data_source": "osm"
  },
  {
    "name": "華厳寺",
    "name_en": "",
    "lat": 33.7699711,
    "lng": 132.7233904,
    "category": "temple",
    "prefecture": "kochi",
    "osm_id": 2374292479,
    "spot_type": "data_spot",
    "data_source": "osm"
  },
  {
    "name": "伊豫豆比古命神社",
    "name_en": "",
    "lat": 33.8092853,
    "lng": 132.7707522,
    "category": "shrine",
    "prefecture": "kochi",
    "osm_id": 2385779306,
    "spot_type": "data_spot",
    "data_source": "osm"
  },
  {
    "name": "日招八幡大神社",
    "name_en": "",
    "lat": 33.817371,
    "lng": 132.7456353,
    "category": "shrine",
    "prefecture": "kochi",
    "osm_id": 2386987839,
    "spot_type": "data_spot",
    "data_source": "osm"
  },
  {
    "name": "不動院石仙寺",
    "name_en": "",
    "lat": 33.8088682,
    "lng": 132.7683087,
    "category": "temple",
    "prefecture": "kochi",
    "osm_id": 2387012162,
    "spot_type": "data_spot",
    "data_source": "osm"
  },
  {
    "name": "第46番札所 浄瑠璃寺 (Joruri-ji)",
    "name_en": "Joruriji Temple (Temple 46)",
    "lat": 33.7536525,
    "lng": 132.8191575,
    "category": "temple",
    "prefecture": "kochi",
    "osm_id": 2387948456,
    "spot_type": "data_spot",
    "data_source": "osm"
  },
  {
    "name": "第48番札所 清滝山 西林寺 (Sairin-ji)",
    "name_en": "Sairinji Temple (Temple 48)",
    "lat": 33.7935638,
    "lng": 132.8138601,
    "category": "temple",
    "prefecture": "kochi",
    "osm_id": 2387950625,
    "spot_type": "data_spot",
    "data_source": "osm"
  },
  {
    "name": "第49番札所 浄土寺",
    "name_en": "Jodoji Temple (Temple 49)",
    "lat": 33.8166202,
    "lng": 132.8083106,
    "category": "temple",
    "prefecture": "kochi",
    "osm_id": 2387958055,
    "spot_type": "data_spot",
    "data_source": "osm"
  },
  {
    "name": "薬師寺",
    "name_en": "",
    "lat": 33.8321951,
    "lng": 132.7662149,
    "category": "temple",
    "prefecture": "kochi",
    "osm_id": 2395226930,
    "spot_type": "data_spot",
    "data_source": "osm"
  },
  {
    "name": "湯築城",
    "name_en": "Yuzuki  Castle",
    "lat": 33.8480881,
    "lng": 132.7867746,
    "category": "castle",
    "prefecture": "kochi",
    "osm_id": 2460130038,
    "spot_type": "data_spot",
    "data_source": "osm"
  },
  {
    "name": "石鎚神社 成就社",
    "name_en": "",
    "lat": 33.7900456,
    "lng": 133.1290434,
    "category": "shrine",
    "prefecture": "kochi",
    "osm_id": 2483309092,
    "spot_type": "data_spot",
    "data_source": "osm"
  },
  {
    "name": "秋葉神社",
    "name_en": "",
    "lat": 33.5572723,
    "lng": 133.5057644,
    "category": "shrine",
    "prefecture": "kochi",
    "osm_id": 2582213006,
    "spot_type": "data_spot",
    "data_source": "osm"
  },
  {
    "name": "宝珠寺",
    "name_en": "",
    "lat": 33.7450266,
    "lng": 132.7285922,
    "category": "temple",
    "prefecture": "kochi",
    "osm_id": 2627879245,
    "spot_type": "data_spot",
    "data_source": "osm"
  },
  {
    "name": "八坂神社",
    "name_en": "",
    "lat": 33.1525071,
    "lng": 132.7552915,
    "category": "shrine",
    "prefecture": "kochi",
    "osm_id": 2713500555,
    "spot_type": "data_spot",
    "data_source": "osm"
  },
  {
    "name": "名称不明",
    "name_en": "",
    "lat": 33.8045828,
    "lng": 132.8877313,
    "category": "shrine",
    "prefecture": "kochi",
    "osm_id": 2970854430,
    "spot_type": "data_spot",
    "data_source": "osm"
  },
  {
    "name": "名称不明",
    "name_en": "",
    "lat": 33.7972116,
    "lng": 132.8922913,
    "category": "shrine",
    "prefecture": "kochi",
    "osm_id": 2970854431,
    "spot_type": "data_spot",
    "data_source": "osm"
  },
  {
    "name": "名称不明",
    "name_en": "",
    "lat": 33.7959969,
    "lng": 132.9016936,
    "category": "shrine",
    "prefecture": "kochi",
    "osm_id": 2970854432,
    "spot_type": "data_spot",
    "data_source": "osm"
  },
  {
    "name": "名称不明",
    "name_en": "",
    "lat": 33.7976516,
    "lng": 132.9009081,
    "category": "temple",
    "prefecture": "kochi",
    "osm_id": 2970864133,
    "spot_type": "data_spot",
    "data_source": "osm"
  },
  {
    "name": "名称不明",
    "name_en": "",
    "lat": 33.7984286,
    "lng": 132.9055527,
    "category": "shrine",
    "prefecture": "kochi",
    "osm_id": 2970864134,
    "spot_type": "data_spot",
    "data_source": "osm"
  },
  {
    "name": "名称不明",
    "name_en": "",
    "lat": 33.7994665,
    "lng": 132.8973152,
    "category": "shrine",
    "prefecture": "kochi",
    "osm_id": 2970864135,
    "spot_type": "data_spot",
    "data_source": "osm"
  },
  {
    "name": "名称不明",
    "name_en": "",
    "lat": 33.7941723,
    "lng": 132.9150065,
    "category": "shrine",
    "prefecture": "kochi",
    "osm_id": 2970864136,
    "spot_type": "data_spot",
    "data_source": "osm"
  },
  {
    "name": "名称不明",
    "name_en": "",
    "lat": 33.7986319,
    "lng": 132.9159703,
    "category": "temple",
    "prefecture": "kochi",
    "osm_id": 2970864137,
    "spot_type": "data_spot",
    "data_source": "osm"
  },
  {
    "name": "川上神社",
    "name_en": "",
    "lat": 33.8000302,
    "lng": 132.9140048,
    "category": "shrine",
    "prefecture": "kochi",
    "osm_id": 2970864138,
    "spot_type": "data_spot",
    "data_source": "osm"
  },
  {
    "name": "名称不明",
    "name_en": "",
    "lat": 33.804905,
    "lng": 132.9126009,
    "category": "shrine",
    "prefecture": "kochi",
    "osm_id": 2970864139,
    "spot_type": "data_spot",
    "data_source": "osm"
  },
  {
    "name": "名称不明",
    "name_en": "",
    "lat": 33.8080345,
    "lng": 132.9166651,
    "category": "temple",
    "prefecture": "kochi",
    "osm_id": 2970864140,
    "spot_type": "data_spot",
    "data_source": "osm"
  },
  {
    "name": "名称不明",
    "name_en": "",
    "lat": 33.80744,
    "lng": 132.9149553,
    "category": "temple",
    "prefecture": "kochi",
    "osm_id": 2970864141,
    "spot_type": "data_spot",
    "data_source": "osm"
  },
  {
    "name": "名称不明",
    "name_en": "",
    "lat": 33.8071725,
    "lng": 132.9094919,
    "category": "temple",
    "prefecture": "kochi",
    "osm_id": 2970864142,
    "spot_type": "data_spot",
    "data_source": "osm"
  },
  {
    "name": "名称不明",
    "name_en": "",
    "lat": 33.8076799,
    "lng": 132.9085752,
    "category": "temple",
    "prefecture": "kochi",
    "osm_id": 2970864143,
    "spot_type": "data_spot",
    "data_source": "osm"
  },
  {
    "name": "名称不明",
    "name_en": "",
    "lat": 33.8132818,
    "lng": 132.9044578,
    "category": "temple",
    "prefecture": "kochi",
    "osm_id": 2970878093,
    "spot_type": "data_spot",
    "data_source": "osm"
  },
  {
    "name": "名称不明",
    "name_en": "",
    "lat": 33.8202751,
    "lng": 132.9012358,
    "category": "shrine",
    "prefecture": "kochi",
    "osm_id": 2970878094,
    "spot_type": "data_spot",
    "data_source": "osm"
  },
  {
    "name": "名称不明",
    "name_en": "",
    "lat": 33.8135506,
    "lng": 132.8898779,
    "category": "shrine",
    "prefecture": "kochi",
    "osm_id": 2970878095,
    "spot_type": "data_spot",
    "data_source": "osm"
  },
  {
    "name": "名称不明",
    "name_en": "",
    "lat": 33.8125718,
    "lng": 132.8869149,
    "category": "shrine",
    "prefecture": "kochi",
    "osm_id": 2970878096,
    "spot_type": "data_spot",
    "data_source": "osm"
  },
  {
    "name": "名称不明",
    "name_en": "",
    "lat": 33.8147991,
    "lng": 132.8939588,
    "category": "shrine",
    "prefecture": "kochi",
    "osm_id": 2970878097,
    "spot_type": "data_spot",
    "data_source": "osm"
  },
  {
    "name": "名称不明",
    "name_en": "",
    "lat": 33.8113536,
    "lng": 132.8860361,
    "category": "shrine",
    "prefecture": "kochi",
    "osm_id": 2970878098,
    "spot_type": "data_spot",
    "data_source": "osm"
  },
  {
    "name": "名称不明",
    "name_en": "",
    "lat": 33.8110798,
    "lng": 132.8839851,
    "category": "temple",
    "prefecture": "kochi",
    "osm_id": 2970878099,
    "spot_type": "data_spot",
    "data_source": "osm"
  },
  {
    "name": "名称不明",
    "name_en": "",
    "lat": 33.8089265,
    "lng": 132.8789368,
    "category": "shrine",
    "prefecture": "kochi",
    "osm_id": 2970878100,
    "spot_type": "data_spot",
    "data_source": "osm"
  },
  {
    "name": "名称不明",
    "name_en": "",
    "lat": 33.8075499,
    "lng": 132.8746676,
    "category": "shrine",
    "prefecture": "kochi",
    "osm_id": 2970878101,
    "spot_type": "data_spot",
    "data_source": "osm"
  },
  {
    "name": "名称不明",
    "name_en": "",
    "lat": 33.807316,
    "lng": 132.873848,
    "category": "temple",
    "prefecture": "kochi",
    "osm_id": 2970878102,
    "spot_type": "data_spot",
    "data_source": "osm"
  },
  {
    "name": "名称不明",
    "name_en": "",
    "lat": 33.8066741,
    "lng": 132.8696043,
    "category": "shrine",
    "prefecture": "kochi",
    "osm_id": 2970878103,
    "spot_type": "data_spot",
    "data_source": "osm"
  },
  {
    "name": "名称不明",
    "name_en": "",
    "lat": 33.8053582,
    "lng": 132.8687404,
    "category": "temple",
    "prefecture": "kochi",
    "osm_id": 2970878104,
    "spot_type": "data_spot",
    "data_source": "osm"
  },
  {
    "name": "名称不明",
    "name_en": "",
    "lat": 33.8054757,
    "lng": 132.8678079,
    "category": "temple",
    "prefecture": "kochi",
    "osm_id": 2970878105,
    "spot_type": "data_spot",
    "data_source": "osm"
  },
  {
    "name": "名称不明",
    "name_en": "",
    "lat": 33.8039931,
    "lng": 132.8726318,
    "category": "shrine",
    "prefecture": "kochi",
    "osm_id": 2970878106,
    "spot_type": "data_spot",
    "data_source": "osm"
  },
  {
    "name": "名称不明",
    "name_en": "",
    "lat": 33.7934412,
    "lng": 132.8775641,
    "category": "shrine",
    "prefecture": "kochi",
    "osm_id": 2970878107,
    "spot_type": "data_spot",
    "data_source": "osm"
  },
  {
    "name": "名称不明",
    "name_en": "",
    "lat": 33.7923453,
    "lng": 132.921737,
    "category": "temple",
    "prefecture": "kochi",
    "osm_id": 2970878108,
    "spot_type": "data_spot",
    "data_source": "osm"
  },
  {
    "name": "氏之宮三嶋神社",
    "name_en": "",
    "lat": 33.7943524,
    "lng": 132.9388899,
    "category": "shrine",
    "prefecture": "kochi",
    "osm_id": 2970878109,
    "spot_type": "data_spot",
    "data_source": "osm"
  },
  {
    "name": "名称不明",
    "name_en": "",
    "lat": 33.7922777,
    "lng": 132.9563299,
    "category": "temple",
    "prefecture": "kochi",
    "osm_id": 2970878110,
    "spot_type": "data_spot",
    "data_source": "osm"
  },
  {
    "name": "名称不明",
    "name_en": "",
    "lat": 33.7850451,
    "lng": 132.9604077,
    "category": "shrine",
    "prefecture": "kochi",
    "osm_id": 2970878111,
    "spot_type": "data_spot",
    "data_source": "osm"
  },
  {
    "name": "名称不明",
    "name_en": "",
    "lat": 33.7845568,
    "lng": 132.9602695,
    "category": "temple",
    "prefecture": "kochi",
    "osm_id": 2970878112,
    "spot_type": "data_spot",
    "data_source": "osm"
  },
  {
    "name": "名称不明",
    "name_en": "",
    "lat": 33.762677,
    "lng": 132.9223628,
    "category": "shrine",
    "prefecture": "kochi",
    "osm_id": 2970878113,
    "spot_type": "data_spot",
    "data_source": "osm"
  },
  {
    "name": "名称不明",
    "name_en": "",
    "lat": 33.7575249,
    "lng": 132.9204883,
    "category": "shrine",
    "prefecture": "kochi",
    "osm_id": 2970878114,
    "spot_type": "data_spot",
    "data_source": "osm"
  },
  {
    "name": "名称不明",
    "name_en": "",
    "lat": 33.7531387,
    "lng": 132.9313269,
    "category": "temple",
    "prefecture": "kochi",
    "osm_id": 2970878115,
    "spot_type": "data_spot",
    "data_source": "osm"
  },
  {
    "name": "名称不明",
    "name_en": "",
    "lat": 33.754354,
    "lng": 132.8880459,
    "category": "temple",
    "prefecture": "kochi",
    "osm_id": 2970878116,
    "spot_type": "data_spot",
    "data_source": "osm"
  },
  {
    "name": "名称不明",
    "name_en": "",
    "lat": 33.7573447,
    "lng": 132.8830251,
    "category": "temple",
    "prefecture": "kochi",
    "osm_id": 2970878117,
    "spot_type": "data_spot",
    "data_source": "osm"
  },
  {
    "name": "名称不明",
    "name_en": "",
    "lat": 33.7569833,
    "lng": 132.890699,
    "category": "shrine",
    "prefecture": "kochi",
    "osm_id": 2970878118,
    "spot_type": "data_spot",
    "data_source": "osm"
  },
  {
    "name": "名称不明",
    "name_en": "",
    "lat": 33.7702565,
    "lng": 132.8842198,
    "category": "shrine",
    "prefecture": "kochi",
    "osm_id": 2970878119,
    "spot_type": "data_spot",
    "data_source": "osm"
  },
  {
    "name": "名称不明",
    "name_en": "",
    "lat": 33.774312,
    "lng": 132.8833804,
    "category": "shrine",
    "prefecture": "kochi",
    "osm_id": 2970878120,
    "spot_type": "data_spot",
    "data_source": "osm"
  },
  {
    "name": "名称不明",
    "name_en": "",
    "lat": 33.7778406,
    "lng": 132.8799742,
    "category": "temple",
    "prefecture": "kochi",
    "osm_id": 2970878121,
    "spot_type": "data_spot",
    "data_source": "osm"
  },
  {
    "name": "Jodo Temple",
    "name_en": "",
    "lat": 33.7793203,
    "lng": 132.8748639,
    "category": "temple",
    "prefecture": "kochi",
    "osm_id": 2970878122,
    "spot_type": "data_spot",
    "data_source": "osm"
  },
  {
    "name": "名称不明",
    "name_en": "",
    "lat": 33.7762117,
    "lng": 132.8716131,
    "category": "shrine",
    "prefecture": "kochi",
    "osm_id": 2970878123,
    "spot_type": "data_spot",
    "data_source": "osm"
  },
  {
    "name": "名称不明",
    "name_en": "",
    "lat": 33.7760497,
    "lng": 132.8623689,
    "category": "shrine",
    "prefecture": "kochi",
    "osm_id": 2970878124,
    "spot_type": "data_spot",
    "data_source": "osm"
  },
  {
    "name": "名称不明",
    "name_en": "",
    "lat": 33.7746608,
    "lng": 132.8573799,
    "category": "shrine",
    "prefecture": "kochi",
    "osm_id": 2970878125,
    "spot_type": "data_spot",
    "data_source": "osm"
  },
  {
    "name": "名称不明",
    "name_en": "",
    "lat": 33.7736132,
    "lng": 132.8509168,
    "category": "temple",
    "prefecture": "kochi",
    "osm_id": 2970878126,
    "spot_type": "data_spot",
    "data_source": "osm"
  },
  {
    "name": "名称不明",
    "name_en": "",
    "lat": 33.7739697,
    "lng": 132.8494803,
    "category": "shrine",
    "prefecture": "kochi",
    "osm_id": 2970878127,
    "spot_type": "data_spot",
    "data_source": "osm"
  },
  {
    "name": "名称不明",
    "name_en": "",
    "lat": 33.7713017,
    "lng": 132.8469213,
    "category": "temple",
    "prefecture": "kochi",
    "osm_id": 2970878128,
    "spot_type": "data_spot",
    "data_source": "osm"
  },
  {
    "name": "名称不明",
    "name_en": "",
    "lat": 33.7719697,
    "lng": 132.8407407,
    "category": "shrine",
    "prefecture": "kochi",
    "osm_id": 2970878129,
    "spot_type": "data_spot",
    "data_source": "osm"
  },
  {
    "name": "名称不明",
    "name_en": "",
    "lat": 33.7686354,
    "lng": 132.8363802,
    "category": "temple",
    "prefecture": "kochi",
    "osm_id": 2970879433,
    "spot_type": "data_spot",
    "data_source": "osm"
  },
  {
    "name": "名称不明",
    "name_en": "",
    "lat": 33.7689985,
    "lng": 132.8354487,
    "category": "temple",
    "prefecture": "kochi",
    "osm_id": 2970879434,
    "spot_type": "data_spot",
    "data_source": "osm"
  },
  {
    "name": "名称不明",
    "name_en": "",
    "lat": 33.7769718,
    "lng": 132.8260754,
    "category": "temple",
    "prefecture": "kochi",
    "osm_id": 2970879435,
    "spot_type": "data_spot",
    "data_source": "osm"
  },
  {
    "name": "名称不明",
    "name_en": "",
    "lat": 33.7789871,
    "lng": 132.8282792,
    "category": "shrine",
    "prefecture": "kochi",
    "osm_id": 2970879436,
    "spot_type": "data_spot",
    "data_source": "osm"
  },
  {
    "name": "三奈良神社",
    "name_en": "",
    "lat": 33.7844418,
    "lng": 132.879638,
    "category": "shrine",
    "prefecture": "kochi",
    "osm_id": 2970879437,
    "spot_type": "data_spot",
    "data_source": "osm"
  },
  {
    "name": "名称不明",
    "name_en": "",
    "lat": 33.7977663,
    "lng": 132.8674083,
    "category": "shrine",
    "prefecture": "kochi",
    "osm_id": 2970879439,
    "spot_type": "data_spot",
    "data_source": "osm"
  },
  {
    "name": "名称不明",
    "name_en": "",
    "lat": 33.7922898,
    "lng": 132.8640236,
    "category": "temple",
    "prefecture": "kochi",
    "osm_id": 2970879440,
    "spot_type": "data_spot",
    "data_source": "osm"
  },
  {
    "name": "名称不明",
    "name_en": "",
    "lat": 33.7921585,
    "lng": 132.8606087,
    "category": "shrine",
    "prefecture": "kochi",
    "osm_id": 2970879441,
    "spot_type": "data_spot",
    "data_source": "osm"
  },
  {
    "name": "名称不明",
    "name_en": "",
    "lat": 33.789816,
    "lng": 132.8505871,
    "category": "shrine",
    "prefecture": "kochi",
    "osm_id": 2970879442,
    "spot_type": "data_spot",
    "data_source": "osm"
  },
  {
    "name": "名称不明",
    "name_en": "",
    "lat": 33.7931594,
    "lng": 132.8509773,
    "category": "temple",
    "prefecture": "kochi",
    "osm_id": 2970879443,
    "spot_type": "data_spot",
    "data_source": "osm"
  },
  {
    "name": "名称不明",
    "name_en": "",
    "lat": 33.7939601,
    "lng": 132.8477456,
    "category": "temple",
    "prefecture": "kochi",
    "osm_id": 2970879444,
    "spot_type": "data_spot",
    "data_source": "osm"
  },
  {
    "name": "名称不明",
    "name_en": "",
    "lat": 33.804437,
    "lng": 132.8476478,
    "category": "shrine",
    "prefecture": "kochi",
    "osm_id": 2970879445,
    "spot_type": "data_spot",
    "data_source": "osm"
  },
  {
    "name": "名称不明",
    "name_en": "",
    "lat": 33.802385,
    "lng": 132.8468316,
    "category": "shrine",
    "prefecture": "kochi",
    "osm_id": 2970879446,
    "spot_type": "data_spot",
    "data_source": "osm"
  },
  {
    "name": "名称不明",
    "name_en": "",
    "lat": 33.8027285,
    "lng": 132.8571999,
    "category": "shrine",
    "prefecture": "kochi",
    "osm_id": 2970879447,
    "spot_type": "data_spot",
    "data_source": "osm"
  },
  {
    "name": "名称不明",
    "name_en": "",
    "lat": 33.810489,
    "lng": 132.850556,
    "category": "shrine",
    "prefecture": "kochi",
    "osm_id": 2970879448,
    "spot_type": "data_spot",
    "data_source": "osm"
  },
  {
    "name": "名称不明",
    "name_en": "",
    "lat": 33.8106041,
    "lng": 132.843883,
    "category": "temple",
    "prefecture": "kochi",
    "osm_id": 2970879449,
    "spot_type": "data_spot",
    "data_source": "osm"
  },
  {
    "name": "名称不明",
    "name_en": "",
    "lat": 33.7948994,
    "lng": 132.8401975,
    "category": "shrine",
    "prefecture": "kochi",
    "osm_id": 2970886616,
    "spot_type": "data_spot",
    "data_source": "osm"
  },
  {
    "name": "名称不明",
    "name_en": "",
    "lat": 33.7899321,
    "lng": 132.8391955,
    "category": "temple",
    "prefecture": "kochi",
    "osm_id": 2970886617,
    "spot_type": "data_spot",
    "data_source": "osm"
  },
  {
    "name": "名称不明",
    "name_en": "",
    "lat": 33.7884815,
    "lng": 132.8351435,
    "category": "shrine",
    "prefecture": "kochi",
    "osm_id": 2970886618,
    "spot_type": "data_spot",
    "data_source": "osm"
  },
  {
    "name": "名称不明",
    "name_en": "",
    "lat": 33.7982536,
    "lng": 132.8310009,
    "category": "shrine",
    "prefecture": "kochi",
    "osm_id": 2970886619,
    "spot_type": "data_spot",
    "data_source": "osm"
  },
  {
    "name": "名称不明",
    "name_en": "",
    "lat": 33.8039089,
    "lng": 132.8308467,
    "category": "shrine",
    "prefecture": "kochi",
    "osm_id": 2970886620,
    "spot_type": "data_spot",
    "data_source": "osm"
  },
  {
    "name": "名称不明",
    "name_en": "",
    "lat": 33.8069245,
    "lng": 132.8305391,
    "category": "shrine",
    "prefecture": "kochi",
    "osm_id": 2970886621,
    "spot_type": "data_spot",
    "data_source": "osm"
  },
  {
    "name": "名称不明",
    "name_en": "",
    "lat": 33.8184786,
    "lng": 132.8350282,
    "category": "temple",
    "prefecture": "kochi",
    "osm_id": 2971105384,
    "spot_type": "data_spot",
    "data_source": "osm"
  },
  {
    "name": "名称不明",
    "name_en": "",
    "lat": 33.8172889,
    "lng": 132.8292866,
    "category": "shrine",
    "prefecture": "kochi",
    "osm_id": 2971105385,
    "spot_type": "data_spot",
    "data_source": "osm"
  },
  {
    "name": "名称不明",
    "name_en": "",
    "lat": 33.814492,
    "lng": 132.8225611,
    "category": "temple",
    "prefecture": "kochi",
    "osm_id": 2971105386,
    "spot_type": "data_spot",
    "data_source": "osm"
  },
  {
    "name": "素鵞神社",
    "name_en": "",
    "lat": 33.8172431,
    "lng": 132.8150843,
    "category": "shrine",
    "prefecture": "kochi",
    "osm_id": 2971105387,
    "spot_type": "data_spot",
    "data_source": "osm"
  },
  {
    "name": "極楽寺",
    "name_en": "",
    "lat": 33.8159549,
    "lng": 132.8107222,
    "category": "temple",
    "prefecture": "kochi",
    "osm_id": 2971105388,
    "spot_type": "data_spot",
    "data_source": "osm"
  },
  {
    "name": "日尾八幡社",
    "name_en": "Hiohachiman Shrine",
    "lat": 33.8174301,
    "lng": 132.8062713,
    "category": "shrine",
    "prefecture": "kochi",
    "osm_id": 2971105389,
    "spot_type": "data_spot",
    "data_source": "osm"
  },
  {
    "name": "名称不明",
    "name_en": "",
    "lat": 33.8107613,
    "lng": 132.827258,
    "category": "temple",
    "prefecture": "kochi",
    "osm_id": 2971105390,
    "spot_type": "data_spot",
    "data_source": "osm"
  },
  {
    "name": "名称不明",
    "name_en": "",
    "lat": 33.8113884,
    "lng": 132.830917,
    "category": "temple",
    "prefecture": "kochi",
    "osm_id": 2971105391,
    "spot_type": "data_spot",
    "data_source": "osm"
  },
  {
    "name": "名称不明",
    "name_en": "",
    "lat": 33.8086939,
    "lng": 132.826175,
    "category": "temple",
    "prefecture": "kochi",
    "osm_id": 2971105392,
    "spot_type": "data_spot",
    "data_source": "osm"
  },
  {
    "name": "名称不明",
    "name_en": "",
    "lat": 33.8084792,
    "lng": 132.8266192,
    "category": "shrine",
    "prefecture": "kochi",
    "osm_id": 2971105393,
    "spot_type": "data_spot",
    "data_source": "osm"
  },
  {
    "name": "名称不明",
    "name_en": "",
    "lat": 33.8115124,
    "lng": 132.8242984,
    "category": "shrine",
    "prefecture": "kochi",
    "osm_id": 2971105394,
    "spot_type": "data_spot",
    "data_source": "osm"
  },
  {
    "name": "名称不明",
    "name_en": "",
    "lat": 33.7989976,
    "lng": 132.8172492,
    "category": "shrine",
    "prefecture": "kochi",
    "osm_id": 2971105395,
    "spot_type": "data_spot",
    "data_source": "osm"
  },
  {
    "name": "名称不明",
    "name_en": "",
    "lat": 33.7968648,
    "lng": 132.815712,
    "category": "temple",
    "prefecture": "kochi",
    "osm_id": 2971105396,
    "spot_type": "data_spot",
    "data_source": "osm"
  },
  {
    "name": "名称不明",
    "name_en": "",
    "lat": 33.791779,
    "lng": 132.8165932,
    "category": "shrine",
    "prefecture": "kochi",
    "osm_id": 2971105397,
    "spot_type": "data_spot",
    "data_source": "osm"
  },
  {
    "name": "名称不明",
    "name_en": "",
    "lat": 33.78199,
    "lng": 132.8152756,
    "category": "shrine",
    "prefecture": "kochi",
    "osm_id": 2971105398,
    "spot_type": "data_spot",
    "data_source": "osm"
  },
  {
    "name": "名称不明",
    "name_en": "",
    "lat": 33.7779606,
    "lng": 132.8141518,
    "category": "shrine",
    "prefecture": "kochi",
    "osm_id": 2971105399,
    "spot_type": "data_spot",
    "data_source": "osm"
  },
  {
    "name": "名称不明",
    "name_en": "",
    "lat": 33.7776793,
    "lng": 132.8126892,
    "category": "temple",
    "prefecture": "kochi",
    "osm_id": 2971105400,
    "spot_type": "data_spot",
    "data_source": "osm"
  },
  {
    "name": "名称不明",
    "name_en": "",
    "lat": 33.7677706,
    "lng": 132.8166538,
    "category": "temple",
    "prefecture": "kochi",
    "osm_id": 2971105401,
    "spot_type": "data_spot",
    "data_source": "osm"
  },
  {
    "name": "名称不明",
    "name_en": "",
    "lat": 33.7665556,
    "lng": 132.8181714,
    "category": "shrine",
    "prefecture": "kochi",
    "osm_id": 2971105402,
    "spot_type": "data_spot",
    "data_source": "osm"
  },
  {
    "name": "名称不明",
    "name_en": "",
    "lat": 33.7502872,
    "lng": 132.8197517,
    "category": "temple",
    "prefecture": "kochi",
    "osm_id": 2971105403,
    "spot_type": "data_spot",
    "data_source": "osm"
  },
  {
    "name": "名称不明",
    "name_en": "",
    "lat": 33.7453236,
    "lng": 132.8235756,
    "category": "shrine",
    "prefecture": "kochi",
    "osm_id": 2971105404,
    "spot_type": "data_spot",
    "data_source": "osm"
  },
  {
    "name": "名称不明",
    "name_en": "",
    "lat": 33.7467921,
    "lng": 132.8278702,
    "category": "temple",
    "prefecture": "kochi",
    "osm_id": 2971105405,
    "spot_type": "data_spot",
    "data_source": "osm"
  },
  {
    "name": "名称不明",
    "name_en": "",
    "lat": 33.7401219,
    "lng": 132.8322274,
    "category": "shrine",
    "prefecture": "kochi",
    "osm_id": 2971105406,
    "spot_type": "data_spot",
    "data_source": "osm"
  },
  {
    "name": "名称不明",
    "name_en": "",
    "lat": 33.7356801,
    "lng": 132.8311936,
    "category": "shrine",
    "prefecture": "kochi",
    "osm_id": 2971105407,
    "spot_type": "data_spot",
    "data_source": "osm"
  },
  {
    "name": "名称不明",
    "name_en": "",
    "lat": 33.7244392,
    "lng": 132.8334606,
    "category": "temple",
    "prefecture": "kochi",
    "osm_id": 2971105408,
    "spot_type": "data_spot",
    "data_source": "osm"
  },
  {
    "name": "名称不明",
    "name_en": "",
    "lat": 33.7205873,
    "lng": 132.8378526,
    "category": "shrine",
    "prefecture": "kochi",
    "osm_id": 2971105409,
    "spot_type": "data_spot",
    "data_source": "osm"
  },
  {
    "name": "名称不明",
    "name_en": "",
    "lat": 33.7384187,
    "lng": 132.8534158,
    "category": "shrine",
    "prefecture": "kochi",
    "osm_id": 2971105418,
    "spot_type": "data_spot",
    "data_source": "osm"
  },
  {
    "name": "第47番札所 八坂寺 (Yasaka-ji)",
    "name_en": "Yasakaji Temple (Temple 47)",
    "lat": 33.757975,
    "lng": 132.8128077,
    "category": "temple",
    "prefecture": "kochi",
    "osm_id": 2980855411,
    "spot_type": "data_spot",
    "data_source": "osm"
  },
  {
    "name": "海津見神社 (龍王宮)",
    "name_en": "",
    "lat": 33.4955971,
    "lng": 133.5746399,
    "category": "shrine",
    "prefecture": "kochi",
    "osm_id": 3074312433,
    "spot_type": "data_spot",
    "data_source": "osm"
  },
  {
    "name": "劔神社",
    "name_en": "",
    "lat": 33.8684303,
    "lng": 134.0903278,
    "category": "shrine",
    "prefecture": "kochi",
    "osm_id": 3183950941,
    "spot_type": "data_spot",
    "data_source": "osm"
  },
  {
    "name": "中組地蔵堂",
    "name_en": "Nakagumi Jizodo Temple",
    "lat": 33.8330725,
    "lng": 132.7522266,
    "category": "temple",
    "prefecture": "kochi",
    "osm_id": 3234622384,
    "spot_type": "data_spot",
    "data_source": "osm"
  },
  {
    "name": "松山市",
    "name_en": "Matsuyama City",
    "lat": 33.8356333,
    "lng": 132.7615666,
    "category": "station",
    "prefecture": "kochi",
    "osm_id": 3598694803,
    "spot_type": "data_spot",
    "data_source": "osm"
  },
  {
    "name": "道後温泉",
    "name_en": "Dogo Onsen",
    "lat": 33.8504258,
    "lng": 132.7850817,
    "category": "station",
    "prefecture": "kochi",
    "osm_id": 3631894947,
    "spot_type": "data_spot",
    "data_source": "osm"
  },
  {
    "name": "いよ立花",
    "name_en": "Iyo-Tachibana",
    "lat": 33.8275199,
    "lng": 132.7734245,
    "category": "station",
    "prefecture": "kochi",
    "osm_id": 3634551862,
    "spot_type": "data_spot",
    "data_source": "osm"
  },
  {
    "name": "三津",
    "name_en": "Mitsu",
    "lat": 33.8638379,
    "lng": 132.7197282,
    "category": "station",
    "prefecture": "kochi",
    "osm_id": 3634554436,
    "spot_type": "data_spot",
    "data_source": "osm"
  },
  {
    "name": "久米",
    "name_en": "Kume",
    "lat": 33.8160825,
    "lng": 132.8045267,
    "category": "station",
    "prefecture": "kochi",
    "osm_id": 3634554437,
    "spot_type": "data_spot",
    "data_source": "osm"
  },
  {
    "name": "北久米",
    "name_en": "Kita-Kume",
    "lat": 33.8192662,
    "lng": 132.7987052,
    "category": "station",
    "prefecture": "kochi",
    "osm_id": 3634554438,
    "spot_type": "data_spot",
    "data_source": "osm"
  },
  {
    "name": "古町",
    "name_en": "Komachi",
    "lat": 33.847224,
    "lng": 132.755097,
    "category": "station",
    "prefecture": "kochi",
    "osm_id": 3634554439,
    "spot_type": "data_spot",
    "data_source": "osm"
  },
  {
    "name": "山西",
    "name_en": "Yamanishi",
    "lat": 33.855332,
    "lng": 132.7243161,
    "category": "station",
    "prefecture": "kochi",
    "osm_id": 3634554440,
    "spot_type": "data_spot",
    "data_source": "osm"
  },
  {
    "name": "平井",
    "name_en": "Hirai",
    "lat": 33.8085405,
    "lng": 132.8289599,
    "category": "station",
    "prefecture": "kochi",
    "osm_id": 3634554441,
    "spot_type": "data_spot",
    "data_source": "osm"
  },
  {
    "name": "愛大医学部南口",
    "name_en": "Ehime Univ. Hospital",
    "lat": 33.7983407,
    "lng": 132.8791635,
    "category": "station",
    "prefecture": "kochi",
    "osm_id": 3634554442,
    "spot_type": "data_spot",
    "data_source": "osm"
  },
  {
    "name": "梅本",
    "name_en": "Umenomoto",
    "lat": 33.8013391,
    "lng": 132.8387599,
    "category": "station",
    "prefecture": "kochi",
    "osm_id": 3634554443,
    "spot_type": "data_spot",
    "data_source": "osm"
  },
  {
    "name": "梅津寺",
    "name_en": "Baishinji",
    "lat": 33.8749701,
    "lng": 132.7074802,
    "category": "station",
    "prefecture": "kochi",
    "osm_id": 3634554444,
    "spot_type": "data_spot",
    "data_source": "osm"
  },
  {
    "name": "横河原",
    "name_en": "Yokogawara",
    "lat": 33.8033319,
    "lng": 132.8842865,
    "category": "station",
    "prefecture": "kochi",
    "osm_id": 3634554445,
    "spot_type": "data_spot",
    "data_source": "osm"
  },
  {
    "name": "牛渕団地前",
    "name_en": "Ushibuchi-Danchi",
    "lat": 33.7977433,
    "lng": 132.846049,
    "category": "station",
    "prefecture": "kochi",
    "osm_id": 3634554446,
    "spot_type": "data_spot",
    "data_source": "osm"
  },
  {
    "name": "石手川公園",
    "name_en": "Ishitegawa Park",
    "lat": 33.8309855,
    "lng": 132.7695935,
    "category": "station",
    "prefecture": "kochi",
    "osm_id": 3634554447,
    "spot_type": "data_spot",
    "data_source": "osm"
  },
  {
    "name": "福音寺",
    "name_en": "Fukuonji",
    "lat": 33.8227261,
    "lng": 132.7882293,
    "category": "station",
    "prefecture": "kochi",
    "osm_id": 3634554448,
    "spot_type": "data_spot",
    "data_source": "osm"
  },
  {
    "name": "衣山",
    "name_en": "Kinuyama",
    "lat": 33.8522426,
    "lng": 132.7441944,
    "category": "station",
    "prefecture": "kochi",
    "osm_id": 3634554449,
    "spot_type": "data_spot",
    "data_source": "osm"
  },
  {
    "name": "西衣山",
    "name_en": "Nishi-Kinuyama",
    "lat": 33.8501712,
    "lng": 132.7340067,
    "category": "station",
    "prefecture": "kochi",
    "osm_id": 3634554450,
    "spot_type": "data_spot",
    "data_source": "osm"
  },
  {
    "name": "見奈良",
    "name_en": "Minara",
    "lat": 33.7927396,
    "lng": 132.8733774,
    "category": "station",
    "prefecture": "kochi",
    "osm_id": 3634554451,
    "spot_type": "data_spot",
    "data_source": "osm"
  },
  {
    "name": "鷹ノ子",
    "name_en": "Takanoko",
    "lat": 33.8126501,
    "lng": 132.8149172,
    "category": "station",
    "prefecture": "kochi",
    "osm_id": 3634554452,
    "spot_type": "data_spot",
    "data_source": "osm"
  },
  {
    "name": "余戸",
    "name_en": "Yogo",
    "lat": 33.8160352,
    "lng": 132.7336634,
    "category": "station",
    "prefecture": "kochi",
    "osm_id": 3637536523,
    "spot_type": "data_spot",
    "data_source": "osm"
  },
  {
    "name": "古泉",
    "name_en": "Koizumi",
    "lat": 33.7926256,
    "lng": 132.7172912,
    "category": "station",
    "prefecture": "kochi",
    "osm_id": 3637536524,
    "spot_type": "data_spot",
    "data_source": "osm"
  },
  {
    "name": "土居田",
    "name_en": "Doida",
    "lat": 33.8241385,
    "lng": 132.7441374,
    "category": "station",
    "prefecture": "kochi",
    "osm_id": 3637536525,
    "spot_type": "data_spot",
    "data_source": "osm"
  },
  {
    "name": "岡田",
    "name_en": "Okada",
    "lat": 33.7991278,
    "lng": 132.7241135,
    "category": "station",
    "prefecture": "kochi",
    "osm_id": 3637536526,
    "spot_type": "data_spot",
    "data_source": "osm"
  },
  {
    "name": "郡中",
    "name_en": "Gunchu",
    "lat": 33.7606162,
    "lng": 132.7039005,
    "category": "station",
    "prefecture": "kochi",
    "osm_id": 3637536527,
    "spot_type": "data_spot",
    "data_source": "osm"
  },
  {
    "name": "郡中港",
    "name_en": "Gunchu Port",
    "lat": 33.756067,
    "lng": 132.7021151,
    "category": "station",
    "prefecture": "kochi",
    "osm_id": 3637536528,
    "spot_type": "data_spot",
    "data_source": "osm"
  },
  {
    "name": "鎌田",
    "name_en": "Kamata",
    "lat": 33.8104328,
    "lng": 132.729925,
    "category": "station",
    "prefecture": "kochi",
    "osm_id": 3637536529,
    "spot_type": "data_spot",
    "data_source": "osm"
  },
  {
    "name": "名称不明",
    "name_en": "",
    "lat": 33.7397721,
    "lng": 132.7923901,
    "category": "shrine",
    "prefecture": "kochi",
    "osm_id": 3706167696,
    "spot_type": "data_spot",
    "data_source": "osm"
  },
  {
    "name": "東祖谷歴史民俗資料館",
    "name_en": "Higashi-Iya Museum of Local History and Folklore",
    "lat": 33.8681591,
    "lng": 133.906376,
    "category": "museum",
    "prefecture": "kochi",
    "osm_id": 3717934209,
    "spot_type": "data_spot",
    "data_source": "osm"
  },
  {
    "name": "名称不明",
    "name_en": "",
    "lat": 33.3954412,
    "lng": 132.9257231,
    "category": "temple",
    "prefecture": "kochi",
    "osm_id": 3733872054,
    "spot_type": "data_spot",
    "data_source": "osm"
  },
  {
    "name": "佐川",
    "name_en": "Sakawa",
    "lat": 33.5001983,
    "lng": 133.2925174,
    "category": "station",
    "prefecture": "kochi",
    "osm_id": 3915866253,
    "spot_type": "data_spot",
    "data_source": "osm"
  },
  {
    "name": "西佐川",
    "name_en": "Nishi-Sakawa",
    "lat": 33.5126227,
    "lng": 133.2867657,
    "category": "station",
    "prefecture": "kochi",
    "osm_id": 3915866254,
    "spot_type": "data_spot",
    "data_source": "osm"
  },
  {
    "name": "龍馬神社",
    "name_en": "",
    "lat": 33.4571737,
    "lng": 133.27235,
    "category": "shrine",
    "prefecture": "kochi",
    "osm_id": 3916311724,
    "spot_type": "data_spot",
    "data_source": "osm"
  },
  {
    "name": "十二所神社",
    "name_en": "",
    "lat": 33.4903321,
    "lng": 133.3806972,
    "category": "shrine",
    "prefecture": "kochi",
    "osm_id": 3916688939,
    "spot_type": "data_spot",
    "data_source": "osm"
  },
  {
    "name": "第35番札所 清滝寺 (Kiyotaki-ji)",
    "name_en": "35 Kiyotaki-ji",
    "lat": 33.5124748,
    "lng": 133.409532,
    "category": "temple",
    "prefecture": "kochi",
    "osm_id": 3919866480,
    "spot_type": "data_spot",
    "data_source": "osm"
  },
  {
    "name": "杉原神社",
    "name_en": "",
    "lat": 33.5365953,
    "lng": 133.2090804,
    "category": "shrine",
    "prefecture": "kochi",
    "osm_id": 3920902038,
    "spot_type": "data_spot",
    "data_source": "osm"
  },
  {
    "name": "名称不明",
    "name_en": "",
    "lat": 33.4912142,
    "lng": 133.388537,
    "category": "shrine",
    "prefecture": "kochi",
    "osm_id": 3922937417,
    "spot_type": "data_spot",
    "data_source": "osm"
  },
  {
    "name": "叶崎灯台",
    "name_en": "Kanaezaki Lighthouse",
    "lat": 32.7474873,
    "lng": 132.8024168,
    "category": "lighthouse",
    "prefecture": "kochi",
    "osm_id": 3925534371,
    "spot_type": "data_spot",
    "data_source": "osm"
  },
  {
    "name": "名称不明",
    "name_en": "",
    "lat": 32.7542689,
    "lng": 132.5455716,
    "category": "lighthouse",
    "prefecture": "kochi",
    "osm_id": 3928356736,
    "spot_type": "data_spot",
    "data_source": "osm"
  },
  {
    "name": "名称不明",
    "name_en": "",
    "lat": 32.7674111,
    "lng": 132.6208444,
    "category": "lighthouse",
    "prefecture": "kochi",
    "osm_id": 3928356746,
    "spot_type": "data_spot",
    "data_source": "osm"
  },
  {
    "name": "名称不明",
    "name_en": "",
    "lat": 32.7730951,
    "lng": 132.6288878,
    "category": "lighthouse",
    "prefecture": "kochi",
    "osm_id": 3928356747,
    "spot_type": "data_spot",
    "data_source": "osm"
  },
  {
    "name": "名称不明",
    "name_en": "",
    "lat": 32.7699239,
    "lng": 132.9550975,
    "category": "lighthouse",
    "prefecture": "kochi",
    "osm_id": 3928790308,
    "spot_type": "data_spot",
    "data_source": "osm"
  },
  {
    "name": "名称不明",
    "name_en": "",
    "lat": 32.8021339,
    "lng": 132.9664225,
    "category": "lighthouse",
    "prefecture": "kochi",
    "osm_id": 3928791839,
    "spot_type": "data_spot",
    "data_source": "osm"
  },
  {
    "name": "布崎灯台",
    "name_en": "",
    "lat": 32.8631249,
    "lng": 132.9930108,
    "category": "lighthouse",
    "prefecture": "kochi",
    "osm_id": 3930787591,
    "spot_type": "data_spot",
    "data_source": "osm"
  },
  {
    "name": "宗安寺",
    "name_en": "",
    "lat": 33.5713181,
    "lng": 133.478385,
    "category": "temple",
    "prefecture": "kochi",
    "osm_id": 3946233340,
    "spot_type": "data_spot",
    "data_source": "osm"
  },
  {
    "name": "名称不明",
    "name_en": "",
    "lat": 33.4432612,
    "lng": 133.4569824,
    "category": "lighthouse",
    "prefecture": "kochi",
    "osm_id": 3950127800,
    "spot_type": "data_spot",
    "data_source": "osm"
  },
  {
    "name": "石鎚神社",
    "name_en": "",
    "lat": 33.4677051,
    "lng": 133.4043006,
    "category": "shrine",
    "prefecture": "kochi",
    "osm_id": 3951439164,
    "spot_type": "data_spot",
    "data_source": "osm"
  },
  {
    "name": "青龍寺奥の院",
    "name_en": "",
    "lat": 33.4233721,
    "lng": 133.4551044,
    "category": "temple",
    "prefecture": "kochi",
    "osm_id": 3952504720,
    "spot_type": "data_spot",
    "data_source": "osm"
  },
  {
    "name": "名称不明",
    "name_en": "",
    "lat": 33.4440978,
    "lng": 133.4548868,
    "category": "lighthouse",
    "prefecture": "kochi",
    "osm_id": 3954003290,
    "spot_type": "data_spot",
    "data_source": "osm"
  },
  {
    "name": "名称不明",
    "name_en": "",
    "lat": 33.4456333,
    "lng": 133.43695,
    "category": "shrine",
    "prefecture": "kochi",
    "osm_id": 3954003372,
    "spot_type": "data_spot",
    "data_source": "osm"
  },
  {
    "name": "白ノ鼻燈台",
    "name_en": "",
    "lat": 33.4304222,
    "lng": 133.4618491,
    "category": "lighthouse",
    "prefecture": "kochi",
    "osm_id": 3957029655,
    "spot_type": "data_spot",
    "data_source": "osm"
  },
  {
    "name": "大山祇神社",
    "name_en": "",
    "lat": 33.8089631,
    "lng": 132.7841448,
    "category": "shrine",
    "prefecture": "kochi",
    "osm_id": 3960731297,
    "spot_type": "data_spot",
    "data_source": "osm"
  },
  {
    "name": "名称不明",
    "name_en": "",
    "lat": 33.5009906,
    "lng": 133.5831189,
    "category": "lighthouse",
    "prefecture": "kochi",
    "osm_id": 3968913333,
    "spot_type": "data_spot",
    "data_source": "osm"
  },
  {
    "name": "若宮八幡宮",
    "name_en": "",
    "lat": 33.494949,
    "lng": 133.5437238,
    "category": "shrine",
    "prefecture": "kochi",
    "osm_id": 3968917096,
    "spot_type": "data_spot",
    "data_source": "osm"
  },
  {
    "name": "高知灯台",
    "name_en": "",
    "lat": 33.4961593,
    "lng": 133.572982,
    "category": "lighthouse",
    "prefecture": "kochi",
    "osm_id": 3968917098,
    "spot_type": "data_spot",
    "data_source": "osm"
  },
  {
    "name": "伊野",
    "name_en": "Ino",
    "lat": 33.5474113,
    "lng": 133.4304885,
    "category": "station",
    "prefecture": "kochi",
    "osm_id": 3976328248,
    "spot_type": "data_spot",
    "data_source": "osm"
  },
  {
    "name": "朝倉",
    "name_en": "Asakura",
    "lat": 33.551573,
    "lng": 133.4853416,
    "category": "station",
    "prefecture": "kochi",
    "osm_id": 3976328251,
    "spot_type": "data_spot",
    "data_source": "osm"
  },
  {
    "name": "椙本神社",
    "name_en": "",
    "lat": 33.5506495,
    "lng": 133.4210396,
    "category": "shrine",
    "prefecture": "kochi",
    "osm_id": 3976328253,
    "spot_type": "data_spot",
    "data_source": "osm"
  },
  {
    "name": "名称不明",
    "name_en": "",
    "lat": 33.8732796,
    "lng": 133.4710836,
    "category": "museum",
    "prefecture": "kochi",
    "osm_id": 4080906120,
    "spot_type": "data_spot",
    "data_source": "osm"
  },
  {
    "name": "Hotel Riviera et Onsen",
    "name_en": "",
    "lat": 33.5686763,
    "lng": 134.3071333,
    "category": "onsen",
    "prefecture": "kochi",
    "osm_id": 4082044769,
    "spot_type": "data_spot",
    "data_source": "osm"
  },
  {
    "name": "Ebisu Shrine",
    "name_en": "",
    "lat": 33.2247378,
    "lng": 132.5323154,
    "category": "shrine",
    "prefecture": "kochi",
    "osm_id": 4099487634,
    "spot_type": "data_spot",
    "data_source": "osm"
  },
  {
    "name": "Ganjoji",
    "name_en": "",
    "lat": 33.2335136,
    "lng": 132.5262056,
    "category": "shrine",
    "prefecture": "kochi",
    "osm_id": 4099487635,
    "spot_type": "data_spot",
    "data_source": "osm"
  },
  {
    "name": "Honkoji",
    "name_en": "",
    "lat": 33.2242163,
    "lng": 132.5226734,
    "category": "temple",
    "prefecture": "kochi",
    "osm_id": 4099487637,
    "spot_type": "data_spot",
    "data_source": "osm"
  },
  {
    "name": "Jorakuji",
    "name_en": "",
    "lat": 33.2238691,
    "lng": 132.5277006,
    "category": "temple",
    "prefecture": "kochi",
    "osm_id": 4099487642,
    "spot_type": "data_spot",
    "data_source": "osm"
  },
  {
    "name": "Shirao Shrine",
    "name_en": "",
    "lat": 33.2238919,
    "lng": 132.5273762,
    "category": "shrine",
    "prefecture": "kochi",
    "osm_id": 4099487644,
    "spot_type": "data_spot",
    "data_source": "osm"
  },
  {
    "name": "Sumiyoshi Shrine",
    "name_en": "",
    "lat": 33.2222543,
    "lng": 132.5217598,
    "category": "shrine",
    "prefecture": "kochi",
    "osm_id": 4099487645,
    "spot_type": "data_spot",
    "data_source": "osm"
  },
  {
    "name": "Tenman Shrine",
    "name_en": "",
    "lat": 33.2257665,
    "lng": 132.528435,
    "category": "shrine",
    "prefecture": "kochi",
    "osm_id": 4099487646,
    "spot_type": "data_spot",
    "data_source": "osm"
  },
  {
    "name": "名称不明",
    "name_en": "",
    "lat": 33.2234152,
    "lng": 132.5226448,
    "category": "temple",
    "prefecture": "kochi",
    "osm_id": 4099489088,
    "spot_type": "data_spot",
    "data_source": "osm"
  },
  {
    "name": "別格6番 臨海山龍光院",
    "name_en": "Ryukouin Temple",
    "lat": 33.2249875,
    "lng": 132.5692336,
    "category": "temple",
    "prefecture": "kochi",
    "osm_id": 4104885415,
    "spot_type": "data_spot",
    "data_source": "osm"
  },
  {
    "name": "名称不明",
    "name_en": "",
    "lat": 33.2193598,
    "lng": 132.5161701,
    "category": "shrine",
    "prefecture": "kochi",
    "osm_id": 4114264884,
    "spot_type": "data_spot",
    "data_source": "osm"
  },
  {
    "name": "室戸世界ジオパークセンター",
    "name_en": "",
    "lat": 33.2992155,
    "lng": 134.1865065,
    "category": "museum",
    "prefecture": "kochi",
    "osm_id": 4142770228,
    "spot_type": "data_spot",
    "data_source": "osm"
  },
  {
    "name": "名称不明",
    "name_en": "",
    "lat": 33.3060114,
    "lng": 134.1712836,
    "category": "shrine",
    "prefecture": "kochi",
    "osm_id": 4165897904,
    "spot_type": "data_spot",
    "data_source": "osm"
  },
  {
    "name": "名称不明",
    "name_en": "",
    "lat": 33.3460594,
    "lng": 134.1530925,
    "category": "shrine",
    "prefecture": "kochi",
    "osm_id": 4165906393,
    "spot_type": "data_spot",
    "data_source": "osm"
  },
  {
    "name": "總東風神社",
    "name_en": "",
    "lat": 33.8422947,
    "lng": 132.8976733,
    "category": "shrine",
    "prefecture": "kochi",
    "osm_id": 4211736689,
    "spot_type": "data_spot",
    "data_source": "osm"
  },
  {
    "name": "名称不明",
    "name_en": "",
    "lat": 33.8453836,
    "lng": 132.532342,
    "category": "lighthouse",
    "prefecture": "kochi",
    "osm_id": 4375291398,
    "spot_type": "data_spot",
    "data_source": "osm"
  },
  {
    "name": "第28番札所 大日寺 (Dainichi-ji)",
    "name_en": "28 Dainichi-ji",
    "lat": 33.5776597,
    "lng": 133.7051958,
    "category": "temple",
    "prefecture": "kochi",
    "osm_id": 4434022193,
    "spot_type": "data_spot",
    "data_source": "osm"
  },
  {
    "name": "第29番札所 土佐国分寺 (Tosa Kokubun-ji)",
    "name_en": "29 Kokubun-ji",
    "lat": 33.5987846,
    "lng": 133.6404629,
    "category": "temple",
    "prefecture": "kochi",
    "osm_id": 4434078589,
    "spot_type": "data_spot",
    "data_source": "osm"
  },
  {
    "name": "第37番札所 岩本寺 (Iwamoto-ji)",
    "name_en": "37 Iwamoto-ji",
    "lat": 33.2080031,
    "lng": 133.1346448,
    "category": "temple",
    "prefecture": "kochi",
    "osm_id": 4434078789,
    "spot_type": "data_spot",
    "data_source": "osm"
  },
  {
    "name": "第39番札所 延光寺",
    "name_en": "39 Enko-ji",
    "lat": 32.9613141,
    "lng": 132.7740727,
    "category": "temple",
    "prefecture": "kochi",
    "osm_id": 4434097289,
    "spot_type": "data_spot",
    "data_source": "osm"
  },
  {
    "name": "第45番札所 岩屋寺 (Iwaya-ji)",
    "name_en": "45 Iwaya-ji",
    "lat": 33.6587706,
    "lng": 132.9808992,
    "category": "temple",
    "prefecture": "kochi",
    "osm_id": 4435482997,
    "spot_type": "data_spot",
    "data_source": "osm"
  },
  {
    "name": "第44番札所 大宝寺 (Daihō-ji)",
    "name_en": "44 Daihō-ji",
    "lat": 33.6612356,
    "lng": 132.9115866,
    "category": "temple",
    "prefecture": "kochi",
    "osm_id": 4435493592,
    "spot_type": "data_spot",
    "data_source": "osm"
  },
  {
    "name": "鵜来島灯台",
    "name_en": "",
    "lat": 32.8038551,
    "lng": 132.4979096,
    "category": "lighthouse",
    "prefecture": "kochi",
    "osm_id": 4501855252,
    "spot_type": "data_spot",
    "data_source": "osm"
  },
  {
    "name": "愛媛大学ミュージアム",
    "name_en": "",
    "lat": 33.8499023,
    "lng": 132.7714711,
    "category": "museum",
    "prefecture": "kochi",
    "osm_id": 4523600452,
    "spot_type": "data_spot",
    "data_source": "osm"
  },
  {
    "name": "若一王子神社",
    "name_en": "",
    "lat": 33.5147304,
    "lng": 133.5088968,
    "category": "shrine",
    "prefecture": "kochi",
    "osm_id": 4602352281,
    "spot_type": "data_spot",
    "data_source": "osm"
  },
  {
    "name": "竃戸神社",
    "name_en": "",
    "lat": 33.5129909,
    "lng": 133.5106304,
    "category": "shrine",
    "prefecture": "kochi",
    "osm_id": 4602352288,
    "spot_type": "data_spot",
    "data_source": "osm"
  },
  {
    "name": "高知県指定有形文化財土佐西国第２２番札所",
    "name_en": "",
    "lat": 33.5140493,
    "lng": 133.5102276,
    "category": "temple",
    "prefecture": "kochi",
    "osm_id": 4602358594,
    "spot_type": "data_spot",
    "data_source": "osm"
  },
  {
    "name": "金峰神社",
    "name_en": "",
    "lat": 33.5149304,
    "lng": 133.4961992,
    "category": "shrine",
    "prefecture": "kochi",
    "osm_id": 4648751186,
    "spot_type": "data_spot",
    "data_source": "osm"
  },
  {
    "name": "秋葉神社",
    "name_en": "",
    "lat": 33.5042082,
    "lng": 133.4954761,
    "category": "shrine",
    "prefecture": "kochi",
    "osm_id": 4648751553,
    "spot_type": "data_spot",
    "data_source": "osm"
  },
  {
    "name": "若宮八幡神社",
    "name_en": "",
    "lat": 33.5074644,
    "lng": 133.4917008,
    "category": "shrine",
    "prefecture": "kochi",
    "osm_id": 4648751654,
    "spot_type": "data_spot",
    "data_source": "osm"
  },
  {
    "name": "伊勢神宮",
    "name_en": "",
    "lat": 33.5119494,
    "lng": 133.4859746,
    "category": "shrine",
    "prefecture": "kochi",
    "osm_id": 4648751683,
    "spot_type": "data_spot",
    "data_source": "osm"
  },
  {
    "name": "若宮八幡宮",
    "name_en": "",
    "lat": 33.5106077,
    "lng": 133.4817794,
    "category": "shrine",
    "prefecture": "kochi",
    "osm_id": 4648751705,
    "spot_type": "data_spot",
    "data_source": "osm"
  },
  {
    "name": "三方神社",
    "name_en": "",
    "lat": 33.5070999,
    "lng": 133.4772198,
    "category": "shrine",
    "prefecture": "kochi",
    "osm_id": 4648751749,
    "spot_type": "data_spot",
    "data_source": "osm"
  },
  {
    "name": "六條八幡宮",
    "name_en": "",
    "lat": 33.4982362,
    "lng": 133.4903788,
    "category": "shrine",
    "prefecture": "kochi",
    "osm_id": 4648832750,
    "spot_type": "data_spot",
    "data_source": "osm"
  },
  {
    "name": "秋葉山神社",
    "name_en": "",
    "lat": 33.4971665,
    "lng": 133.4927967,
    "category": "shrine",
    "prefecture": "kochi",
    "osm_id": 4648832787,
    "spot_type": "data_spot",
    "data_source": "osm"
  },
  {
    "name": "伊勢大神宮",
    "name_en": "",
    "lat": 33.5002032,
    "lng": 133.4907727,
    "category": "shrine",
    "prefecture": "kochi",
    "osm_id": 4648857244,
    "spot_type": "data_spot",
    "data_source": "osm"
  },
  {
    "name": "吉良神社",
    "name_en": "",
    "lat": 33.495962,
    "lng": 133.4927904,
    "category": "shrine",
    "prefecture": "kochi",
    "osm_id": 4648857265,
    "spot_type": "data_spot",
    "data_source": "osm"
  },
  {
    "name": "山之神神社",
    "name_en": "",
    "lat": 33.5146378,
    "lng": 133.5198589,
    "category": "shrine",
    "prefecture": "kochi",
    "osm_id": 4653801768,
    "spot_type": "data_spot",
    "data_source": "osm"
  },
  {
    "name": "熊野神社",
    "name_en": "",
    "lat": 33.3105182,
    "lng": 132.5781389,
    "category": "shrine",
    "prefecture": "kochi",
    "osm_id": 4727755217,
    "spot_type": "data_spot",
    "data_source": "osm"
  },
  {
    "name": "中山寺",
    "name_en": "",
    "lat": 33.7995212,
    "lng": 132.9154698,
    "category": "temple",
    "prefecture": "kochi",
    "osm_id": 4783976521,
    "spot_type": "data_spot",
    "data_source": "osm"
  },
  {
    "name": "第36番札所 青龍寺 (Seiryu-ji)",
    "name_en": "36 Shōryū-ji",
    "lat": 33.4260649,
    "lng": 133.45095,
    "category": "temple",
    "prefecture": "kochi",
    "osm_id": 4834644228,
    "spot_type": "data_spot",
    "data_source": "osm"
  },
  {
    "name": "福城寺",
    "name_en": "",
    "lat": 33.6364124,
    "lng": 132.8620155,
    "category": "temple",
    "prefecture": "kochi",
    "osm_id": 4857660589,
    "spot_type": "data_spot",
    "data_source": "osm"
  },
  {
    "name": "青島神社",
    "name_en": "",
    "lat": 33.7365694,
    "lng": 132.48675,
    "category": "shrine",
    "prefecture": "kochi",
    "osm_id": 4864161706,
    "spot_type": "data_spot",
    "data_source": "osm"
  },
  {
    "name": "名称不明",
    "name_en": "",
    "lat": 33.7370545,
    "lng": 132.4881139,
    "category": "temple",
    "prefecture": "kochi",
    "osm_id": 4864161707,
    "spot_type": "data_spot",
    "data_source": "osm"
  },
  {
    "name": "名称不明",
    "name_en": "",
    "lat": 33.7357898,
    "lng": 132.4771759,
    "category": "lighthouse",
    "prefecture": "kochi",
    "osm_id": 4864161712,
    "spot_type": "data_spot",
    "data_source": "osm"
  },
  {
    "name": "施法寺",
    "name_en": "",
    "lat": 33.5510781,
    "lng": 132.6588697,
    "category": "temple",
    "prefecture": "kochi",
    "osm_id": 4946449423,
    "spot_type": "data_spot",
    "data_source": "osm"
  },
  {
    "name": "別格8番 永徳寺十夜ヶ橋",
    "name_en": "Bekkaku 8 Toyogabashi bridge",
    "lat": 33.5318441,
    "lng": 132.5747077,
    "category": "temple",
    "prefecture": "kochi",
    "osm_id": 4946449425,
    "spot_type": "data_spot",
    "data_source": "osm"
  },
  {
    "name": "法華寺",
    "name_en": "",
    "lat": 33.5052292,
    "lng": 132.5463076,
    "category": "temple",
    "prefecture": "kochi",
    "osm_id": 4947996623,
    "spot_type": "data_spot",
    "data_source": "osm"
  },
  {
    "name": "宇和文化会館",
    "name_en": "",
    "lat": 33.361599,
    "lng": 132.5118487,
    "category": "museum",
    "prefecture": "kochi",
    "osm_id": 4957749321,
    "spot_type": "data_spot",
    "data_source": "osm"
  },
  {
    "name": "素鷲神社",
    "name_en": "",
    "lat": 33.8007357,
    "lng": 132.7538013,
    "category": "shrine",
    "prefecture": "kochi",
    "osm_id": 4957770142,
    "spot_type": "data_spot",
    "data_source": "osm"
  },
  {
    "name": "宗金寺",
    "name_en": "",
    "lat": 33.8006332,
    "lng": 132.7541178,
    "category": "temple",
    "prefecture": "kochi",
    "osm_id": 4957770143,
    "spot_type": "data_spot",
    "data_source": "osm"
  },
  {
    "name": "来迎寺",
    "name_en": "Raikokuji",
    "lat": 33.8560156,
    "lng": 132.7660815,
    "category": "temple",
    "prefecture": "kochi",
    "osm_id": 4969378921,
    "spot_type": "data_spot",
    "data_source": "osm"
  },
  {
    "name": "竜宮神社",
    "name_en": "Ryugu Shrine",
    "lat": 32.7302855,
    "lng": 132.9664495,
    "category": "shrine",
    "prefecture": "kochi",
    "osm_id": 4984012723,
    "spot_type": "data_spot",
    "data_source": "osm"
  },
  {
    "name": "海中天然ミュージアム 足摺海底館",
    "name_en": "",
    "lat": 32.7900394,
    "lng": 132.8602918,
    "category": "museum",
    "prefecture": "kochi",
    "osm_id": 4984013431,
    "spot_type": "data_spot",
    "data_source": "osm"
  },
  {
    "name": "民芸伊予かすり会館",
    "name_en": "",
    "lat": 33.8566882,
    "lng": 132.7437328,
    "category": "museum",
    "prefecture": "kochi",
    "osm_id": 4987455021,
    "spot_type": "data_spot",
    "data_source": "osm"
  },
  {
    "name": "名称不明",
    "name_en": "Kochi Yosakoi Info exchange center",
    "lat": 33.5599764,
    "lng": 133.5448927,
    "category": "museum",
    "prefecture": "kochi",
    "osm_id": 5099545222,
    "spot_type": "data_spot",
    "data_source": "osm"
  },
  {
    "name": "江川崎",
    "name_en": "Ekawasaki",
    "lat": 33.178334,
    "lng": 132.7830794,
    "category": "station",
    "prefecture": "kochi",
    "osm_id": 5151491154,
    "spot_type": "data_spot",
    "data_source": "osm"
  },
  {
    "name": "小山神社",
    "name_en": "",
    "lat": 33.5780231,
    "lng": 133.5362559,
    "category": "shrine",
    "prefecture": "kochi",
    "osm_id": 5298629320,
    "spot_type": "data_spot",
    "data_source": "osm"
  },
  {
    "name": "名称不明",
    "name_en": "",
    "lat": 33.5559778,
    "lng": 133.5063815,
    "category": "shrine",
    "prefecture": "kochi",
    "osm_id": 5321844507,
    "spot_type": "data_spot",
    "data_source": "osm"
  },
  {
    "name": "一宮鹽竈神社",
    "name_en": "",
    "lat": 32.925461,
    "lng": 132.701772,
    "category": "shrine",
    "prefecture": "kochi",
    "osm_id": 5343910559,
    "spot_type": "data_spot",
    "data_source": "osm"
  },
  {
    "name": "朝倉城址",
    "name_en": "",
    "lat": 33.5492768,
    "lng": 133.4800237,
    "category": "castle",
    "prefecture": "kochi",
    "osm_id": 5348708708,
    "spot_type": "data_spot",
    "data_source": "osm"
  },
  {
    "name": "三所神社",
    "name_en": "",
    "lat": 33.5426924,
    "lng": 133.5069818,
    "category": "shrine",
    "prefecture": "kochi",
    "osm_id": 5348708709,
    "spot_type": "data_spot",
    "data_source": "osm"
  },
  {
    "name": "倉稲魂神社",
    "name_en": "",
    "lat": 33.5426181,
    "lng": 133.5102052,
    "category": "shrine",
    "prefecture": "kochi",
    "osm_id": 5348709125,
    "spot_type": "data_spot",
    "data_source": "osm"
  },
  {
    "name": "名称不明",
    "name_en": "",
    "lat": 33.5440856,
    "lng": 133.5132886,
    "category": "shrine",
    "prefecture": "kochi",
    "osm_id": 5348709126,
    "spot_type": "data_spot",
    "data_source": "osm"
  },
  {
    "name": "大的神社",
    "name_en": "",
    "lat": 33.544386,
    "lng": 133.5142126,
    "category": "shrine",
    "prefecture": "kochi",
    "osm_id": 5348709127,
    "spot_type": "data_spot",
    "data_source": "osm"
  },
  {
    "name": "廣田神社",
    "name_en": "",
    "lat": 33.5469514,
    "lng": 133.5110571,
    "category": "shrine",
    "prefecture": "kochi",
    "osm_id": 5348709128,
    "spot_type": "data_spot",
    "data_source": "osm"
  },
  {
    "name": "天神宮",
    "name_en": "",
    "lat": 33.5483701,
    "lng": 133.5091469,
    "category": "shrine",
    "prefecture": "kochi",
    "osm_id": 5353399992,
    "spot_type": "data_spot",
    "data_source": "osm"
  },
  {
    "name": "名称不明",
    "name_en": "",
    "lat": 33.548248,
    "lng": 133.5200857,
    "category": "shrine",
    "prefecture": "kochi",
    "osm_id": 5354032994,
    "spot_type": "data_spot",
    "data_source": "osm"
  },
  {
    "name": "金刀比羅大権現",
    "name_en": "",
    "lat": 33.5545856,
    "lng": 133.4635606,
    "category": "shrine",
    "prefecture": "kochi",
    "osm_id": 5354033006,
    "spot_type": "data_spot",
    "data_source": "osm"
  },
  {
    "name": "甲藤神社",
    "name_en": "",
    "lat": 33.5442856,
    "lng": 133.5059175,
    "category": "shrine",
    "prefecture": "kochi",
    "osm_id": 5354049340,
    "spot_type": "data_spot",
    "data_source": "osm"
  },
  {
    "name": "岩之上神社",
    "name_en": "",
    "lat": 33.5457345,
    "lng": 133.4992931,
    "category": "shrine",
    "prefecture": "kochi",
    "osm_id": 5355782669,
    "spot_type": "data_spot",
    "data_source": "osm"
  },
  {
    "name": "石本神社",
    "name_en": "",
    "lat": 33.5379054,
    "lng": 133.4933458,
    "category": "shrine",
    "prefecture": "kochi",
    "osm_id": 5356084319,
    "spot_type": "data_spot",
    "data_source": "osm"
  },
  {
    "name": "八幡宮大神",
    "name_en": "",
    "lat": 33.5467549,
    "lng": 133.4995268,
    "category": "shrine",
    "prefecture": "kochi",
    "osm_id": 5360021968,
    "spot_type": "data_spot",
    "data_source": "osm"
  },
  {
    "name": "お天狗様",
    "name_en": "",
    "lat": 33.5467717,
    "lng": 133.4963666,
    "category": "shrine",
    "prefecture": "kochi",
    "osm_id": 5360043740,
    "spot_type": "data_spot",
    "data_source": "osm"
  },
  {
    "name": "石南神社",
    "name_en": "",
    "lat": 33.5467529,
    "lng": 133.4961894,
    "category": "shrine",
    "prefecture": "kochi",
    "osm_id": 5360043741,
    "spot_type": "data_spot",
    "data_source": "osm"
  },
  {
    "name": "厳島神社",
    "name_en": "",
    "lat": 33.5440834,
    "lng": 133.508171,
    "category": "shrine",
    "prefecture": "kochi",
    "osm_id": 5360043750,
    "spot_type": "data_spot",
    "data_source": "osm"
  },
  {
    "name": "八坂神社",
    "name_en": "",
    "lat": 33.550084,
    "lng": 133.5140052,
    "category": "shrine",
    "prefecture": "kochi",
    "osm_id": 5360059463,
    "spot_type": "data_spot",
    "data_source": "osm"
  },
  {
    "name": "若宮八幡宮",
    "name_en": "",
    "lat": 33.5313944,
    "lng": 133.4961595,
    "category": "shrine",
    "prefecture": "kochi",
    "osm_id": 5362441524,
    "spot_type": "data_spot",
    "data_source": "osm"
  },
  {
    "name": "熱田神社",
    "name_en": "",
    "lat": 33.5320876,
    "lng": 133.4898288,
    "category": "shrine",
    "prefecture": "kochi",
    "osm_id": 5362441540,
    "spot_type": "data_spot",
    "data_source": "osm"
  },
  {
    "name": "名称不明",
    "name_en": "",
    "lat": 33.5015922,
    "lng": 133.5427953,
    "category": "shrine",
    "prefecture": "kochi",
    "osm_id": 5362777719,
    "spot_type": "data_spot",
    "data_source": "osm"
  },
  {
    "name": "七淵神社",
    "name_en": "",
    "lat": 33.6125501,
    "lng": 133.537437,
    "category": "shrine",
    "prefecture": "kochi",
    "osm_id": 5362777721,
    "spot_type": "data_spot",
    "data_source": "osm"
  },
  {
    "name": "多流神社",
    "name_en": "",
    "lat": 33.661432,
    "lng": 133.5213603,
    "category": "shrine",
    "prefecture": "kochi",
    "osm_id": 5362777722,
    "spot_type": "data_spot",
    "data_source": "osm"
  },
  {
    "name": "名称不明",
    "name_en": "",
    "lat": 33.548514,
    "lng": 133.4947596,
    "category": "shrine",
    "prefecture": "kochi",
    "osm_id": 5362958834,
    "spot_type": "data_spot",
    "data_source": "osm"
  },
  {
    "name": "徳法寺",
    "name_en": "",
    "lat": 33.5339014,
    "lng": 133.4924561,
    "category": "temple",
    "prefecture": "kochi",
    "osm_id": 5362958842,
    "spot_type": "data_spot",
    "data_source": "osm"
  },
  {
    "name": "巖島神社",
    "name_en": "",
    "lat": 33.5456916,
    "lng": 133.4908444,
    "category": "shrine",
    "prefecture": "kochi",
    "osm_id": 5362959883,
    "spot_type": "data_spot",
    "data_source": "osm"
  },
  {
    "name": "伊野部神社",
    "name_en": "",
    "lat": 33.5457484,
    "lng": 133.4906746,
    "category": "shrine",
    "prefecture": "kochi",
    "osm_id": 5362959884,
    "spot_type": "data_spot",
    "data_source": "osm"
  },
  {
    "name": "名称不明",
    "name_en": "",
    "lat": 33.5470499,
    "lng": 133.4891214,
    "category": "temple",
    "prefecture": "kochi",
    "osm_id": 5362959893,
    "spot_type": "data_spot",
    "data_source": "osm"
  },
  {
    "name": "名称不明",
    "name_en": "",
    "lat": 33.5355161,
    "lng": 133.4958916,
    "category": "shrine",
    "prefecture": "kochi",
    "osm_id": 5365055829,
    "spot_type": "data_spot",
    "data_source": "osm"
  },
  {
    "name": "石立八幡宮",
    "name_en": "",
    "lat": 33.5536475,
    "lng": 133.5175973,
    "category": "shrine",
    "prefecture": "kochi",
    "osm_id": 5365055903,
    "spot_type": "data_spot",
    "data_source": "osm"
  },
  {
    "name": "若草稲荷",
    "name_en": "",
    "lat": 33.5437634,
    "lng": 133.4868342,
    "category": "shrine",
    "prefecture": "kochi",
    "osm_id": 5367446501,
    "spot_type": "data_spot",
    "data_source": "osm"
  },
  {
    "name": "観音寺",
    "name_en": "",
    "lat": 33.5351624,
    "lng": 133.5455385,
    "category": "temple",
    "prefecture": "kochi",
    "osm_id": 5367446729,
    "spot_type": "data_spot",
    "data_source": "osm"
  },
  {
    "name": "松尾神社",
    "name_en": "",
    "lat": 33.5481269,
    "lng": 133.5143319,
    "category": "shrine",
    "prefecture": "kochi",
    "osm_id": 5368659840,
    "spot_type": "data_spot",
    "data_source": "osm"
  },
  {
    "name": "祖霊舎",
    "name_en": "",
    "lat": 33.5494392,
    "lng": 133.5140895,
    "category": "shrine",
    "prefecture": "kochi",
    "osm_id": 5368659852,
    "spot_type": "data_spot",
    "data_source": "osm"
  },
  {
    "name": "妙見宮星神社",
    "name_en": "",
    "lat": 33.5462063,
    "lng": 133.5802593,
    "category": "shrine",
    "prefecture": "kochi",
    "osm_id": 5369299652,
    "spot_type": "data_spot",
    "data_source": "osm"
  },
  {
    "name": "薬師寺",
    "name_en": "",
    "lat": 33.5494021,
    "lng": 133.6123837,
    "category": "temple",
    "prefecture": "kochi",
    "osm_id": 5371673182,
    "spot_type": "data_spot",
    "data_source": "osm"
  },
  {
    "name": "名称不明",
    "name_en": "",
    "lat": 33.5409972,
    "lng": 133.6102154,
    "category": "shrine",
    "prefecture": "kochi",
    "osm_id": 5371673183,
    "spot_type": "data_spot",
    "data_source": "osm"
  },
  {
    "name": "八坂神社",
    "name_en": "",
    "lat": 33.5255233,
    "lng": 133.4529074,
    "category": "shrine",
    "prefecture": "kochi",
    "osm_id": 5371934675,
    "spot_type": "data_spot",
    "data_source": "osm"
  },
  {
    "name": "御霊神社",
    "name_en": "",
    "lat": 33.6346466,
    "lng": 133.5277641,
    "category": "shrine",
    "prefecture": "kochi",
    "osm_id": 5371934712,
    "spot_type": "data_spot",
    "data_source": "osm"
  },
  {
    "name": "名称不明",
    "name_en": "",
    "lat": 33.6360741,
    "lng": 133.5281675,
    "category": "shrine",
    "prefecture": "kochi",
    "osm_id": 5371934713,
    "spot_type": "data_spot",
    "data_source": "osm"
  },
  {
    "name": "法厳寺",
    "name_en": "",
    "lat": 33.5397078,
    "lng": 133.4908852,
    "category": "temple",
    "prefecture": "kochi",
    "osm_id": 5373854026,
    "spot_type": "data_spot",
    "data_source": "osm"
  },
  {
    "name": "名称不明",
    "name_en": "",
    "lat": 33.5453106,
    "lng": 133.4831174,
    "category": "shrine",
    "prefecture": "kochi",
    "osm_id": 5374222498,
    "spot_type": "data_spot",
    "data_source": "osm"
  },
  {
    "name": "名称不明",
    "name_en": "",
    "lat": 33.5507639,
    "lng": 133.4620837,
    "category": "shrine",
    "prefecture": "kochi",
    "osm_id": 5374222527,
    "spot_type": "data_spot",
    "data_source": "osm"
  },
  {
    "name": "八代八幡宮",
    "name_en": "",
    "lat": 33.5597557,
    "lng": 133.4630994,
    "category": "shrine",
    "prefecture": "kochi",
    "osm_id": 5374227297,
    "spot_type": "data_spot",
    "data_source": "osm"
  },
  {
    "name": "願成寺",
    "name_en": "",
    "lat": 33.0827208,
    "lng": 133.1090027,
    "category": "temple",
    "prefecture": "kochi",
    "osm_id": 5377376951,
    "spot_type": "data_spot",
    "data_source": "osm"
  },
  {
    "name": "三鈴神社",
    "name_en": "",
    "lat": 33.5560688,
    "lng": 133.5062271,
    "category": "shrine",
    "prefecture": "kochi",
    "osm_id": 5379485925,
    "spot_type": "data_spot",
    "data_source": "osm"
  },
  {
    "name": "高法寺",
    "name_en": "",
    "lat": 33.5411134,
    "lng": 133.509023,
    "category": "temple",
    "prefecture": "kochi",
    "osm_id": 5379568960,
    "spot_type": "data_spot",
    "data_source": "osm"
  },
  {
    "name": "秋葉神社",
    "name_en": "",
    "lat": 33.4980775,
    "lng": 133.5475121,
    "category": "shrine",
    "prefecture": "kochi",
    "osm_id": 5379614743,
    "spot_type": "data_spot",
    "data_source": "osm"
  },
  {
    "name": "稲荷大明神",
    "name_en": "",
    "lat": 33.4986914,
    "lng": 133.567818,
    "category": "shrine",
    "prefecture": "kochi",
    "osm_id": 5379614801,
    "spot_type": "data_spot",
    "data_source": "osm"
  },
  {
    "name": "浦戸城跡",
    "name_en": "",
    "lat": 33.4978995,
    "lng": 133.5724847,
    "category": "castle",
    "prefecture": "kochi",
    "osm_id": 5379614951,
    "spot_type": "data_spot",
    "data_source": "osm"
  },
  {
    "name": "金刀比羅宮",
    "name_en": "",
    "lat": 33.5478056,
    "lng": 133.491315,
    "category": "shrine",
    "prefecture": "kochi",
    "osm_id": 5380097105,
    "spot_type": "data_spot",
    "data_source": "osm"
  },
  {
    "name": "坊ちゃん列車ミュージアム",
    "name_en": "",
    "lat": 33.8355777,
    "lng": 132.7641605,
    "category": "museum",
    "prefecture": "kochi",
    "osm_id": 5388280722,
    "spot_type": "data_spot",
    "data_source": "osm"
  },