[
  {
    "name": "会津山村道場",
    "name_en": "Aizu-Sanson-Dojo",
    "lat": 37.1446142,
    "lng": 139.7318281,
    "category": "station",
    "prefecture": "tochigi",
    "osm_id": 263250746,
    "spot_type": "data_spot",
    "data_source": "osm"
  },
  {
    "name": "会津荒海",
    "name_en": "Aizu-Arakai",
    "lat": 37.153567,
    "lng": 139.7338499,
    "category": "station",
    "prefecture": "tochigi",
    "osm_id": 263252259,
    "spot_type": "data_spot",
    "data_source": "osm"
  },
  {
    "name": "七ヶ岳登山口",
    "name_en": "Nanatsugatake-Tozanguchi",
    "lat": 37.1241101,
    "lng": 139.7172976,
    "category": "station",
    "prefecture": "tochigi",
    "osm_id": 263253724,
    "spot_type": "data_spot",
    "data_source": "osm"
  },
  {
    "name": "久田野",
    "name_en": "Kutano",
    "lat": 37.1373864,
    "lng": 140.2597808,
    "category": "station",
    "prefecture": "tochigi",
    "osm_id": 264177536,
    "spot_type": "data_spot",
    "data_source": "osm"
  },
  {
    "name": "白河",
    "name_en": "Shirakawa",
    "lat": 37.1301635,
    "lng": 140.2129901,
    "category": "station",
    "prefecture": "tochigi",
    "osm_id": 264177583,
    "spot_type": "data_spot",
    "data_source": "osm"
  },
  {
    "name": "黒田原",
    "name_en": "Kurodahara",
    "lat": 37.0227939,
    "lng": 140.1196133,
    "category": "station",
    "prefecture": "tochigi",
    "osm_id": 264180326,
    "spot_type": "data_spot",
    "data_source": "osm"
  },
  {
    "name": "蒲須坂",
    "name_en": "Kamasusaka",
    "lat": 36.7212122,
    "lng": 139.9502693,
    "category": "station",
    "prefecture": "tochigi",
    "osm_id": 264180828,
    "spot_type": "data_spot",
    "data_source": "osm"
  },
  {
    "name": "豊原",
    "name_en": "Toyohara",
    "lat": 37.0554937,
    "lng": 140.1556233,
    "category": "station",
    "prefecture": "tochigi",
    "osm_id": 264181231,
    "spot_type": "data_spot",
    "data_source": "osm"
  },
  {
    "name": "野崎",
    "name_en": "Nozaki",
    "lat": 36.8437535,
    "lng": 139.9579832,
    "category": "station",
    "prefecture": "tochigi",
    "osm_id": 264183498,
    "spot_type": "data_spot",
    "data_source": "osm"
  },
  {
    "name": "氏家",
    "name_en": "Ujiie",
    "lat": 36.681443,
    "lng": 139.962198,
    "category": "station",
    "prefecture": "tochigi",
    "osm_id": 264183592,
    "spot_type": "data_spot",
    "data_source": "osm"
  },
  {
    "name": "間々田",
    "name_en": "Mamada",
    "lat": 36.258002,
    "lng": 139.761192,
    "category": "station",
    "prefecture": "tochigi",
    "osm_id": 264184513,
    "spot_type": "data_spot",
    "data_source": "osm"
  },
  {
    "name": "男鹿高原",
    "name_en": "Ojika-Kogen",
    "lat": 37.0476111,
    "lng": 139.7242453,
    "category": "station",
    "prefecture": "tochigi",
    "osm_id": 264223680,
    "spot_type": "data_spot",
    "data_source": "osm"
  },
  {
    "name": "湯西川温泉",
    "name_en": "Yunishigawa-Onsen",
    "lat": 36.9295029,
    "lng": 139.6882913,
    "category": "station",
    "prefecture": "tochigi",
    "osm_id": 264224142,
    "spot_type": "data_spot",
    "data_source": "osm"
  },
  {
    "name": "川治温泉",
    "name_en": "Kawaji-Onsen",
    "lat": 36.8844617,
    "lng": 139.7038831,
    "category": "station",
    "prefecture": "tochigi",
    "osm_id": 264224261,
    "spot_type": "data_spot",
    "data_source": "osm"
  },
  {
    "name": "新藤原",
    "name_en": "Shinfujiwara",
    "lat": 36.8528343,
    "lng": 139.7327706,
    "category": "station",
    "prefecture": "tochigi",
    "osm_id": 264224451,
    "spot_type": "data_spot",
    "data_source": "osm"
  },
  {
    "name": "川治湯元",
    "name_en": "Kawaji-Yumoto",
    "lat": 36.8953088,
    "lng": 139.7027779,
    "category": "station",
    "prefecture": "tochigi",
    "osm_id": 264224643,
    "spot_type": "data_spot",
    "data_source": "osm"
  },
  {
    "name": "龍王峡",
    "name_en": "Ryuokyo",
    "lat": 36.8611046,
    "lng": 139.7185543,
    "category": "station",
    "prefecture": "tochigi",
    "osm_id": 264224990,
    "spot_type": "data_spot",
    "data_source": "osm"
  },
  {
    "name": "鹿沼",
    "name_en": "Kanuma",
    "lat": 36.5709476,
    "lng": 139.7630742,
    "category": "station",
    "prefecture": "tochigi",
    "osm_id": 264412395,
    "spot_type": "data_spot",
    "data_source": "osm"
  },
  {
    "name": "文挟",
    "name_en": "Fubasami",
    "lat": 36.637253,
    "lng": 139.728009,
    "category": "station",
    "prefecture": "tochigi",
    "osm_id": 264412544,
    "spot_type": "data_spot",
    "data_source": "osm"
  },
  {
    "name": "笠間",
    "name_en": "Kasama",
    "lat": 36.3733104,
    "lng": 140.2460444,
    "category": "station",
    "prefecture": "tochigi",
    "osm_id": 264412594,
    "spot_type": "data_spot",
    "data_source": "osm"
  },
  {
    "name": "稲田",
    "name_en": "Inada",
    "lat": 36.3686231,
    "lng": 140.2145322,
    "category": "station",
    "prefecture": "tochigi",
    "osm_id": 264412596,
    "spot_type": "data_spot",
    "data_source": "osm"
  },
  {
    "name": "岩瀬",
    "name_en": "Iwase",
    "lat": 36.3595968,
    "lng": 140.1082972,
    "category": "station",
    "prefecture": "tochigi",
    "osm_id": 264412753,
    "spot_type": "data_spot",
    "data_source": "osm"
  },
  {
    "name": "新治",
    "name_en": "Niihari",
    "lat": 36.3282947,
    "lng": 140.0396924,
    "category": "station",
    "prefecture": "tochigi",
    "osm_id": 264412876,
    "spot_type": "data_spot",
    "data_source": "osm"
  },
  {
    "name": "福原",
    "name_en": "Fukuhara",
    "lat": 36.3514905,
    "lng": 140.1871949,
    "category": "station",
    "prefecture": "tochigi",
    "osm_id": 264413093,
    "spot_type": "data_spot",
    "data_source": "osm"
  },
  {
    "name": "大和",
    "name_en": "Yamato",
    "lat": 36.3454853,
    "lng": 140.0730363,
    "category": "station",
    "prefecture": "tochigi",
    "osm_id": 264413239,
    "spot_type": "data_spot",
    "data_source": "osm"
  },
  {
    "name": "宍戸",
    "name_en": "Shishido",
    "lat": 36.3447069,
    "lng": 140.288646,
    "category": "station",
    "prefecture": "tochigi",
    "osm_id": 264413243,
    "spot_type": "data_spot",
    "data_source": "osm"
  },
  {
    "name": "玉戸",
    "name_en": "Tamado",
    "lat": 36.2986752,
    "lng": 139.9390867,
    "category": "station",
    "prefecture": "tochigi",
    "osm_id": 264413551,
    "spot_type": "data_spot",
    "data_source": "osm"
  },
  {
    "name": "結城",
    "name_en": "Yuki",
    "lat": 36.2981402,
    "lng": 139.8724513,
    "category": "station",
    "prefecture": "tochigi",
    "osm_id": 264413560,
    "spot_type": "data_spot",
    "data_source": "osm"
  },
  {
    "name": "小田林",
    "name_en": "Otabayashi",
    "lat": 36.3007515,
    "lng": 139.8538126,
    "category": "station",
    "prefecture": "tochigi",
    "osm_id": 264413561,
    "spot_type": "data_spot",
    "data_source": "osm"
  },
  {
    "name": "川島",
    "name_en": "Kawashima",
    "lat": 36.2959569,
    "lng": 139.9158226,
    "category": "station",
    "prefecture": "tochigi",
    "osm_id": 264413610,
    "spot_type": "data_spot",
    "data_source": "osm"
  },
  {
    "name": "東結城",
    "name_en": "Higashi-Yuki",
    "lat": 36.2966605,
    "lng": 139.8912361,
    "category": "station",
    "prefecture": "tochigi",
    "osm_id": 264413611,
    "spot_type": "data_spot",
    "data_source": "osm"
  },
  {
    "name": "小俣",
    "name_en": "Omata",
    "lat": 36.3751771,
    "lng": 139.3741668,
    "category": "station",
    "prefecture": "tochigi",
    "osm_id": 264414251,
    "spot_type": "data_spot",
    "data_source": "osm"
  },
  {
    "name": "富田",
    "name_en": "Tomita",
    "lat": 36.3161615,
    "lng": 139.5288074,
    "category": "station",
    "prefecture": "tochigi",
    "osm_id": 264414867,
    "spot_type": "data_spot",
    "data_source": "osm"
  },
  {
    "name": "足利",
    "name_en": "Ashikaga",
    "lat": 36.3319671,
    "lng": 139.4562493,
    "category": "station",
    "prefecture": "tochigi",
    "osm_id": 264414923,
    "spot_type": "data_spot",
    "data_source": "osm"
  },
  {
    "name": "山前",
    "name_en": "Yama-mae",
    "lat": 36.347362,
    "lng": 139.4112837,
    "category": "station",
    "prefecture": "tochigi",
    "osm_id": 264415083,
    "spot_type": "data_spot",
    "data_source": "osm"
  },
  {
    "name": "通洞",
    "name_en": "Tsudo",
    "lat": 36.6370412,
    "lng": 139.4399735,
    "category": "station",
    "prefecture": "tochigi",
    "osm_id": 264460504,
    "spot_type": "data_spot",
    "data_source": "osm"
  },
  {
    "name": "原向",
    "name_en": "Haramuko",
    "lat": 36.6176632,
    "lng": 139.4209693,
    "category": "station",
    "prefecture": "tochigi",
    "osm_id": 264460505,
    "spot_type": "data_spot",
    "data_source": "osm"
  },
  {
    "name": "神戸",
    "name_en": "Godo",
    "lat": 36.5374168,
    "lng": 139.3563436,
    "category": "station",
    "prefecture": "tochigi",
    "osm_id": 264460730,
    "spot_type": "data_spot",
    "data_source": "osm"
  },
  {
    "name": "沢入",
    "name_en": "Sori",
    "lat": 36.5807535,
    "lng": 139.3962433,
    "category": "station",
    "prefecture": "tochigi",
    "osm_id": 264461214,
    "spot_type": "data_spot",
    "data_source": "osm"
  },
  {
    "name": "小中",
    "name_en": "Konaka",
    "lat": 36.5356866,
    "lng": 139.3378794,
    "category": "station",
    "prefecture": "tochigi",
    "osm_id": 264461777,
    "spot_type": "data_spot",
    "data_source": "osm"
  },
  {
    "name": "川俣",
    "name_en": "Kawamata",
    "lat": 36.2088339,
    "lng": 139.5264678,
    "category": "station",
    "prefecture": "tochigi",
    "osm_id": 308840211,
    "spot_type": "data_spot",
    "data_source": "osm"
  },
  {
    "name": "筑波山頂",
    "name_en": "Tsukubasancho",
    "lat": 36.2258428,
    "lng": 140.1008194,
    "category": "station",
    "prefecture": "tochigi",
    "osm_id": 389738571,
    "spot_type": "data_spot",
    "data_source": "osm"
  },
  {
    "name": "宮脇",
    "name_en": "Miyawaki",
    "lat": 36.2146042,
    "lng": 140.1001185,
    "category": "station",
    "prefecture": "tochigi",
    "osm_id": 389743340,
    "spot_type": "data_spot",
    "data_source": "osm"
  },
  {
    "name": "笠間稲荷神社",
    "name_en": "",
    "lat": 36.3854725,
    "lng": 140.2543843,
    "category": "shrine",
    "prefecture": "tochigi",
    "osm_id": 745550349,
    "spot_type": "data_spot",
    "data_source": "osm"
  },
  {
    "name": "下館二高前",
    "name_en": "Shimodate-Nikomae",
    "lat": 36.3193341,
    "lng": 139.9720269,
    "category": "station",
    "prefecture": "tochigi",
    "osm_id": 823274682,
    "spot_type": "data_spot",
    "data_source": "osm"
  },
  {
    "name": "笹原田",
    "name_en": "Sasaharada",
    "lat": 36.5336707,
    "lng": 140.1454147,
    "category": "station",
    "prefecture": "tochigi",
    "osm_id": 823274691,
    "spot_type": "data_spot",
    "data_source": "osm"
  },
  {
    "name": "益子",
    "name_en": "Mashiko",
    "lat": 36.4632043,
    "lng": 140.0887212,
    "category": "station",
    "prefecture": "tochigi",
    "osm_id": 823274752,
    "spot_type": "data_spot",
    "data_source": "osm"
  },
  {
    "name": "七井",
    "name_en": "Nanai",
    "lat": 36.4922043,
    "lng": 140.0944136,
    "category": "station",
    "prefecture": "tochigi",
    "osm_id": 823275153,
    "spot_type": "data_spot",
    "data_source": "osm"
  },
  {
    "name": "真岡",
    "name_en": "Mooka",
    "lat": 36.4393792,
    "lng": 140.002758,
    "category": "station",
    "prefecture": "tochigi",
    "osm_id": 823275182,
    "spot_type": "data_spot",
    "data_source": "osm"
  },
  {
    "name": "寺内",
    "name_en": "Terauchi",
    "lat": 36.4110352,
    "lng": 139.9801004,
    "category": "station",
    "prefecture": "tochigi",
    "osm_id": 823275390,
    "spot_type": "data_spot",
    "data_source": "osm"
  },
  {
    "name": "茂木",
    "name_en": "Motegi",
    "lat": 36.5307389,
    "lng": 140.1814246,
    "category": "station",
    "prefecture": "tochigi",
    "osm_id": 823275908,
    "spot_type": "data_spot",
    "data_source": "osm"
  },
  {
    "name": "西田井",
    "name_en": "Nishidai",
    "lat": 36.4533933,
    "lng": 140.0487194,
    "category": "station",
    "prefecture": "tochigi",
    "osm_id": 823276794,
    "spot_type": "data_spot",
    "data_source": "osm"
  },
  {
    "name": "北山",
    "name_en": "Kitayama",
    "lat": 36.4557094,
    "lng": 140.0676491,
    "category": "station",
    "prefecture": "tochigi",
    "osm_id": 823276903,
    "spot_type": "data_spot",
    "data_source": "osm"
  },
  {
    "name": "ひぐち",
    "name_en": "Higuchi",
    "lat": 36.3584812,
    "lng": 139.9704471,
    "category": "station",
    "prefecture": "tochigi",
    "osm_id": 823277290,
    "spot_type": "data_spot",
    "data_source": "osm"
  },
  {
    "name": "天矢場",
    "name_en": "Ten-yaba",
    "lat": 36.5292839,
    "lng": 140.1559496,
    "category": "station",
    "prefecture": "tochigi",
    "osm_id": 823277344,
    "spot_type": "data_spot",
    "data_source": "osm"
  },
  {
    "name": "市塙",
    "name_en": "Ichihana",
    "lat": 36.5381552,
    "lng": 140.1103587,
    "category": "station",
    "prefecture": "tochigi",
    "osm_id": 823277385,
    "spot_type": "data_spot",
    "data_source": "osm"
  },
  {
    "name": "折本",
    "name_en": "Orimoto",
    "lat": 36.3406151,
    "lng": 139.9712357,
    "category": "station",
    "prefecture": "tochigi",
    "osm_id": 823277434,
    "spot_type": "data_spot",
    "data_source": "osm"
  },
  {
    "name": "多田羅",
    "name_en": "Tatara",
    "lat": 36.5158951,
    "lng": 140.0899057,
    "category": "station",
    "prefecture": "tochigi",
    "osm_id": 823277442,
    "spot_type": "data_spot",
    "data_source": "osm"
  },
  {
    "name": "北真岡",
    "name_en": "Kita-Moka",
    "lat": 36.4490851,
    "lng": 140.0138697,
    "category": "station",
    "prefecture": "tochigi",
    "osm_id": 823277559,
    "spot_type": "data_spot",
    "data_source": "osm"
  },
  {
    "name": "久下田",
    "name_en": "Kugeta",
    "lat": 36.375811,
    "lng": 139.9715254,
    "category": "station",
    "prefecture": "tochigi",
    "osm_id": 823277653,
    "spot_type": "data_spot",
    "data_source": "osm"
  },
  {
    "name": "大龍寺",
    "name_en": "",
    "lat": 36.2039285,
    "lng": 139.419491,
    "category": "temple",
    "prefecture": "tochigi",
    "osm_id": 863201700,
    "spot_type": "data_spot",
    "data_source": "osm"
  },
  {
    "name": "新高徳",
    "name_en": "Shin-Takatoku Station",
    "lat": 36.779461,
    "lng": 139.7111778,
    "category": "station",
    "prefecture": "tochigi",
    "osm_id": 925345480,
    "spot_type": "data_spot",
    "data_source": "osm"
  },
  {
    "name": "鬼怒川公園",
    "name_en": "Kinugawa-Koen",
    "lat": 36.8409402,
    "lng": 139.722832,
    "category": "station",
    "prefecture": "tochigi",
    "osm_id": 925345920,
    "spot_type": "data_spot",
    "data_source": "osm"
  },
  {
    "name": "大谷向",
    "name_en": "Daiyamuko",
    "lat": 36.7324624,
    "lng": 139.691952,
    "category": "station",
    "prefecture": "tochigi",
    "osm_id": 925346262,
    "spot_type": "data_spot",
    "data_source": "osm"
  },
  {
    "name": "小佐越",
    "name_en": "Kosagoe",
    "lat": 36.8023132,
    "lng": 139.706617,
    "category": "station",
    "prefecture": "tochigi",
    "osm_id": 925346278,
    "spot_type": "data_spot",
    "data_source": "osm"
  },
  {
    "name": "雷電神社",
    "name_en": "",
    "lat": 36.227526,
    "lng": 139.6078042,
    "category": "shrine",
    "prefecture": "tochigi",
    "osm_id": 968791256,
    "spot_type": "data_spot",
    "data_source": "osm"
  },
  {
    "name": "妻沼聖天山",
    "name_en": "Kangiin Kumagaya",
    "lat": 36.2281887,
    "lng": 139.3746748,
    "category": "shrine",
    "prefecture": "tochigi",
    "osm_id": 970218898,
    "spot_type": "data_spot",
    "data_source": "osm"
  },
  {
    "name": "いわむらかずお絵本の丘美術館",
    "name_en": "",
    "lat": 36.7799842,
    "lng": 140.1383032,
    "category": "museum",
    "prefecture": "tochigi",
    "osm_id": 975676552,
    "spot_type": "data_spot",
    "data_source": "osm"
  },
  {
    "name": "なかがわ水遊園",
    "name_en": "",
    "lat": 36.790729,
    "lng": 140.1290038,
    "category": "museum",
    "prefecture": "tochigi",
    "osm_id": 975680177,
    "spot_type": "data_spot",
    "data_source": "osm"
  },
  {
    "name": "大川美術館",
    "name_en": "",
    "lat": 36.416889,
    "lng": 139.333862,
    "category": "museum",
    "prefecture": "tochigi",
    "osm_id": 1420710142,
    "spot_type": "data_spot",
    "data_source": "osm"
  },
  {
    "name": "大泉町文化むら文化財展示室",
    "name_en": "",
    "lat": 36.249669,
    "lng": 139.418487,
    "category": "museum",
    "prefecture": "tochigi",
    "osm_id": 1420710244,
    "spot_type": "data_spot",
    "data_source": "osm"
  },
  {
    "name": "富弘美術館",
    "name_en": "",
    "lat": 36.5535096,
    "lng": 139.3729756,
    "category": "museum",
    "prefecture": "tochigi",
    "osm_id": 1420710552,
    "spot_type": "data_spot",
    "data_source": "osm"
  },
  {
    "name": "製粉ミュージアム",
    "name_en": "",
    "lat": 36.245599,
    "lng": 139.525805,
    "category": "museum",
    "prefecture": "tochigi",
    "osm_id": 1420711331,
    "spot_type": "data_spot",
    "data_source": "osm"
  },
  {
    "name": "童謡ふるさと館",
    "name_en": "",
    "lat": 36.536917,
    "lng": 139.371862,
    "category": "museum",
    "prefecture": "tochigi",
    "osm_id": 1420712842,
    "spot_type": "data_spot",
    "data_source": "osm"
  },
  {
    "name": "織物参考館“紫”",
    "name_en": "",
    "lat": 36.4103,
    "lng": 139.344711,
    "category": "museum",
    "prefecture": "tochigi",
    "osm_id": 1420713152,
    "spot_type": "data_spot",
    "data_source": "osm"
  },
  {
    "name": "群馬県水産学習館",
    "name_en": "",
    "lat": 36.24198,
    "lng": 139.551742,
    "category": "zoo",
    "prefecture": "tochigi",
    "osm_id": 1420713218,
    "spot_type": "data_spot",
    "data_source": "osm"
  },
  {
    "name": "高山彦九郎記念館",
    "name_en": "",
    "lat": 36.276419,
    "lng": 139.347045,
    "category": "museum",
    "prefecture": "tochigi",
    "osm_id": 1420714131,
    "spot_type": "data_spot",
    "data_source": "osm"
  },
  {
    "name": "帯刀神社",
    "name_en": "",
    "lat": 36.260986,
    "lng": 139.6950164,
    "category": "shrine",
    "prefecture": "tochigi",
    "osm_id": 1481119459,
    "spot_type": "data_spot",
    "data_source": "osm"
  },
  {
    "name": "名称不明",
    "name_en": "",
    "lat": 36.2568393,
    "lng": 139.7049763,
    "category": "temple",
    "prefecture": "tochigi",
    "osm_id": 1481123323,
    "spot_type": "data_spot",
    "data_source": "osm"
  },
  {
    "name": "国府神社",
    "name_en": "",
    "lat": 36.3131775,
    "lng": 139.7642534,
    "category": "shrine",
    "prefecture": "tochigi",
    "osm_id": 1481263323,
    "spot_type": "data_spot",
    "data_source": "osm"
  },
  {
    "name": "栗田美術館",
    "name_en": "Kurita Art Museum",
    "lat": 36.3166595,
    "lng": 139.5216088,
    "category": "museum",
    "prefecture": "tochigi",
    "osm_id": 1536042537,
    "spot_type": "data_spot",
    "data_source": "osm"
  },
  {
    "name": "益子参考館",
    "name_en": "Mashiko Sankokan",
    "lat": 36.470045,
    "lng": 140.1083527,
    "category": "museum",
    "prefecture": "tochigi",
    "osm_id": 1678432284,
    "spot_type": "data_spot",
    "data_source": "osm"
  },
  {
    "name": "鹿島神社",
    "name_en": "Kashima shrine",
    "lat": 36.4635722,
    "lng": 140.094894,
    "category": "shrine",
    "prefecture": "tochigi",
    "osm_id": 1734451758,
    "spot_type": "data_spot",
    "data_source": "osm"
  },
  {
    "name": "観音寺",
    "name_en": "Kannon-Ji",
    "lat": 36.4644891,
    "lng": 140.1013029,
    "category": "temple",
    "prefecture": "tochigi",
    "osm_id": 1734451769,
    "spot_type": "data_spot",
    "data_source": "osm"
  },
  {
    "name": "鷲子山上神社",
    "name_en": "torinokosanshou jinjya",
    "lat": 36.6996899,
    "lng": 140.2352616,
    "category": "shrine",
    "prefecture": "tochigi",
    "osm_id": 1815538424,
    "spot_type": "data_spot",
    "data_source": "osm"
  },
  {
    "name": "八坂神社",
    "name_en": "",
    "lat": 36.2216902,
    "lng": 139.3777567,
    "category": "shrine",
    "prefecture": "tochigi",
    "osm_id": 1875345397,
    "spot_type": "data_spot",
    "data_source": "osm"
  },
  {
    "name": "小峰城 Komine-jō",
    "name_en": "Komine Castle",
    "lat": 37.1327408,
    "lng": 140.2138267,
    "category": "castle",
    "prefecture": "tochigi",
    "osm_id": 1945096249,
    "spot_type": "data_spot",
    "data_source": "osm"
  },
  {
    "name": "淡嶋神社",
    "name_en": "",
    "lat": 36.9549808,
    "lng": 139.9742357,
    "category": "shrine",
    "prefecture": "tochigi",
    "osm_id": 1955826957,
    "spot_type": "data_spot",
    "data_source": "osm"
  },
  {
    "name": "村社星宮神社",
    "name_en": "",
    "lat": 36.6201016,
    "lng": 139.9457468,
    "category": "shrine",
    "prefecture": "tochigi",
    "osm_id": 1981485165,
    "spot_type": "data_spot",
    "data_source": "osm"
  },
  {
    "name": "星宮神社",
    "name_en": "",
    "lat": 36.4987878,
    "lng": 139.8389192,
    "category": "shrine",
    "prefecture": "tochigi",
    "osm_id": 1986880752,
    "spot_type": "data_spot",
    "data_source": "osm"
  },
  {
    "name": "おさるの山",
    "name_en": "Monkey mountain",
    "lat": 36.8407681,
    "lng": 139.7137251,
    "category": "zoo",
    "prefecture": "tochigi",
    "osm_id": 2034734059,
    "spot_type": "data_spot",
    "data_source": "osm"
  },
  {
    "name": "温泉神社",
    "name_en": "Onsen Shrine",
    "lat": 36.8412089,
    "lng": 139.713458,
    "category": "shrine",
    "prefecture": "tochigi",
    "osm_id": 2034734065,
    "spot_type": "data_spot",
    "data_source": "osm"
  },
  {
    "name": "鷲宮神社",
    "name_en": "Washinomiya Shrine",
    "lat": 36.2024532,
    "lng": 139.5807698,
    "category": "shrine",
    "prefecture": "tochigi",
    "osm_id": 2055407090,
    "spot_type": "data_spot",
    "data_source": "osm"
  },
  {
    "name": "今宮神社",
    "name_en": "",
    "lat": 36.455412,
    "lng": 139.590211,
    "category": "shrine",
    "prefecture": "tochigi",
    "osm_id": 2084690621,
    "spot_type": "data_spot",
    "data_source": "osm"
  },
  {
    "name": "静神社",
    "name_en": "",
    "lat": 36.7400653,
    "lng": 140.1699767,
    "category": "shrine",
    "prefecture": "tochigi",
    "osm_id": 2086816054,
    "spot_type": "data_spot",
    "data_source": "osm"
  },
  {
    "name": "スーパーカー博物館",
    "name_en": "",
    "lat": 36.400162,
    "lng": 139.720829,
    "category": "museum",
    "prefecture": "tochigi",
    "osm_id": 2134474827,
    "spot_type": "data_spot",
    "data_source": "osm"
  },
  {
    "name": "大林院",
    "name_en": "",
    "lat": 36.2747432,
    "lng": 140.1030601,
    "category": "temple",
    "prefecture": "tochigi",
    "osm_id": 2206433687,
    "spot_type": "data_spot",
    "data_source": "osm"
  },
  {
    "name": "常永寺",
    "name_en": "",
    "lat": 36.2772779,
    "lng": 140.1038365,
    "category": "temple",
    "prefecture": "tochigi",
    "osm_id": 2206433724,
    "spot_type": "data_spot",
    "data_source": "osm"
  },
  {
    "name": "真壁伝承館歴史資料館",
    "name_en": "",
    "lat": 36.2773428,
    "lng": 140.1004762,
    "category": "museum",
    "prefecture": "tochigi",
    "osm_id": 2206433739,
    "spot_type": "data_spot",
    "data_source": "osm"
  },
  {
    "name": "神武社",
    "name_en": "",
    "lat": 36.2775826,
    "lng": 140.1010935,
    "category": "shrine",
    "prefecture": "tochigi",
    "osm_id": 2206433744,
    "spot_type": "data_spot",
    "data_source": "osm"
  },
  {
    "name": "兒育八幡神社",
    "name_en": "",
    "lat": 36.3117156,
    "lng": 140.0584212,
    "category": "shrine",
    "prefecture": "tochigi",
    "osm_id": 2206800975,
    "spot_type": "data_spot",
    "data_source": "osm"
  },
  {
    "name": "合氣神社",
    "name_en": "Aiki-jinja",
    "lat": 36.2942466,
    "lng": 140.281319,
    "category": "shrine",
    "prefecture": "tochigi",
    "osm_id": 2276884277,
    "spot_type": "data_spot",
    "data_source": "osm"
  },
  {
    "name": "小峰城歴史館",
    "name_en": "Komine-jo Castle History Museum",
    "lat": 37.131222,
    "lng": 140.2126112,
    "category": "museum",
    "prefecture": "tochigi",
    "osm_id": 2458092628,
    "spot_type": "data_spot",
    "data_source": "osm"
  },
  {
    "name": "坂東21番 八溝山 日輪寺",
    "name_en": "Bando No.21 Nichirin-ji",
    "lat": 36.9211124,
    "lng": 140.2736711,
    "category": "temple",
    "prefecture": "tochigi",
    "osm_id": 2473480651,
    "spot_type": "data_spot",
    "data_source": "osm"
  },
  {
    "name": "坂東23番 佐白山 正福寺 （旧称観世音寺）",
    "name_en": "Bando No.23 Shofuku-ji (Former Kanzeon-ji)",
    "lat": 36.3862892,
    "lng": 140.2595928,
    "category": "temple",
    "prefecture": "tochigi",
    "osm_id": 2473495390,
    "spot_type": "data_spot",
    "data_source": "osm"
  },
  {
    "name": "坂東24番 雨引山 楽法寺 雨引観音",
    "name_en": "Bando No.24 Rakuho-ji Amabiki-kan-non",
    "lat": 36.3308466,
    "lng": 140.1205429,
    "category": "temple",
    "prefecture": "tochigi",
    "osm_id": 2473499465,
    "spot_type": "data_spot",
    "data_source": "osm"
  },
  {
    "name": "烏山城",
    "name_en": "",
    "lat": 36.6645885,
    "lng": 140.1474077,
    "category": "castle",
    "prefecture": "tochigi",
    "osm_id": 2488100601,
    "spot_type": "data_spot",
    "data_source": "osm"
  },
  {
    "name": "川崎城",
    "name_en": "Kawasaki Castle",
    "lat": 36.7874934,
    "lng": 139.9198447,
    "category": "castle",
    "prefecture": "tochigi",
    "osm_id": 2488114273,
    "spot_type": "data_spot",
    "data_source": "osm"
  },
  {
    "name": "真壁城",
    "name_en": "Makabe Castle Site",
    "lat": 36.2750532,
    "lng": 140.109679,
    "category": "castle",
    "prefecture": "tochigi",
    "osm_id": 2488166217,
    "spot_type": "data_spot",
    "data_source": "osm"
  },
  {
    "name": "大中寺",
    "name_en": "",
    "lat": 36.359688,
    "lng": 139.688778,
    "category": "temple",
    "prefecture": "tochigi",
    "osm_id": 2493357531,
    "spot_type": "data_spot",
    "data_source": "osm"
  },
  {
    "name": "晃石神社",
    "name_en": "Teruishi Shrine",
    "lat": 36.359656,
    "lng": 139.675567,
    "category": "shrine",
    "prefecture": "tochigi",
    "osm_id": 2493374394,
    "spot_type": "data_spot",
    "data_source": "osm"
  },
  {
    "name": "大平山神社",
    "name_en": "Ohirasan Shrine",
    "lat": 36.3626322,
    "lng": 139.6932291,
    "category": "shrine",
    "prefecture": "tochigi",
    "osm_id": 2493409810,
    "spot_type": "data_spot",
    "data_source": "osm"
  },
  {
    "name": "黒羽城",
    "name_en": "",
    "lat": 36.8693665,
    "lng": 140.121377,
    "category": "castle",
    "prefecture": "tochigi",
    "osm_id": 2493427828,
    "spot_type": "data_spot",
    "data_source": "osm"
  },
  {
    "name": "北野神社",
    "name_en": "",
    "lat": 36.7605473,
    "lng": 139.598291,
    "category": "shrine",
    "prefecture": "tochigi",
    "osm_id": 2497276811,
    "spot_type": "data_spot",
    "data_source": "osm"
  },
  {
    "name": "笠間城",
    "name_en": "Kasama Castle",
    "lat": 36.3826112,
    "lng": 140.2674489,
    "category": "castle",
    "prefecture": "tochigi",
    "osm_id": 2501439830,
    "spot_type": "data_spot",
    "data_source": "osm"
  },
  {
    "name": "真浄寺",
    "name_en": "Shinjoji Temple",
    "lat": 36.3907511,
    "lng": 140.2582289,
    "category": "temple",
    "prefecture": "tochigi",
    "osm_id": 2501442057,
    "spot_type": "data_spot",
    "data_source": "osm"
  },
  {
    "name": "唐沢山城",
    "name_en": "Karasawayama Castle",
    "lat": 36.3538912,
    "lng": 139.6008339,
    "category": "castle",
    "prefecture": "tochigi",
    "osm_id": 2501554801,
    "spot_type": "data_spot",
    "data_source": "osm"
  },
  {
    "name": "君子神社",
    "name_en": "",
    "lat": 36.5866899,
    "lng": 139.7873822,
    "category": "shrine",
    "prefecture": "tochigi",
    "osm_id": 2509394513,
    "spot_type": "data_spot",
    "data_source": "osm"
  },
  {
    "name": "名称不明",
    "name_en": "",
    "lat": 37.0459939,
    "lng": 140.0474868,
    "category": "station",
    "prefecture": "tochigi",
    "osm_id": 2524726185,
    "spot_type": "data_spot",
    "data_source": "osm"
  },
  {
    "name": "名称不明",
    "name_en": "",
    "lat": 37.0460341,
    "lng": 140.0492222,
    "category": "station",
    "prefecture": "tochigi",
    "osm_id": 2524726188,
    "spot_type": "data_spot",
    "data_source": "osm"
  },
  {
    "name": "名称不明",
    "name_en": "",
    "lat": 37.0465125,
    "lng": 140.0472441,
    "category": "station",
    "prefecture": "tochigi",
    "osm_id": 2524726203,
    "spot_type": "data_spot",
    "data_source": "osm"
  },
  {
    "name": "玉川の湯",
    "name_en": "Tamagawa-no-Yu Spa",
    "lat": 36.3771204,
    "lng": 139.7313405,
    "category": "onsen",
    "prefecture": "tochigi",
    "osm_id": 3178201161,
    "spot_type": "data_spot",
    "data_source": "osm"
  },
  {
    "name": "高橋神社",
    "name_en": "Takahashi shine",
    "lat": 36.5191874,
    "lng": 140.043279,
    "category": "shrine",
    "prefecture": "tochigi",
    "osm_id": 3184081711,
    "spot_type": "data_spot",
    "data_source": "osm"
  },
  {
    "name": "大宮神社",
    "name_en": "",
    "lat": 36.2501183,
    "lng": 139.9586916,
    "category": "shrine",
    "prefecture": "tochigi",
    "osm_id": 3254724538,
    "spot_type": "data_spot",
    "data_source": "osm"
  },
  {
    "name": "八坂神社",
    "name_en": "",
    "lat": 36.3973515,
    "lng": 139.6890489,
    "category": "shrine",
    "prefecture": "tochigi",
    "osm_id": 3281603863,
    "spot_type": "data_spot",
    "data_source": "osm"
  },
  {
    "name": "名称不明",
    "name_en": "",
    "lat": 37.1254158,
    "lng": 140.1864327,
    "category": "shrine",
    "prefecture": "tochigi",
    "osm_id": 3491327043,
    "spot_type": "data_spot",
    "data_source": "osm"
  },
  {
    "name": "滝尾神社",
    "name_en": "Takinoo-jinja Shrine",
    "lat": 36.7653722,
    "lng": 139.5920315,
    "category": "shrine",
    "prefecture": "tochigi",
    "osm_id": 3521264179,
    "spot_type": "data_spot",
    "data_source": "osm"
  },
  {
    "name": "白河神社",
    "name_en": "",
    "lat": 37.0472283,
    "lng": 140.229073,
    "category": "shrine",
    "prefecture": "tochigi",
    "osm_id": 3592291725,
    "spot_type": "data_spot",
    "data_source": "osm"
  },
  {
    "name": "白河神社参集殿",
    "name_en": "",
    "lat": 37.0466641,
    "lng": 140.2276298,
    "category": "shrine",
    "prefecture": "tochigi",
    "osm_id": 3592291726,
    "spot_type": "data_spot",
    "data_source": "osm"
  },
  {
    "name": "白河神社社務所",
    "name_en": "",
    "lat": 37.0465178,
    "lng": 140.2277442,
    "category": "shrine",
    "prefecture": "tochigi",
    "osm_id": 3592291727,
    "spot_type": "data_spot",
    "data_source": "osm"
  },
  {
    "name": "名称不明",
    "name_en": "",
    "lat": 37.1118679,
    "lng": 140.2187812,
    "category": "shrine",
    "prefecture": "tochigi",
    "osm_id": 3605459315,
    "spot_type": "data_spot",
    "data_source": "osm"
  },
  {
    "name": "南湖神社 宝物館",
    "name_en": "",
    "lat": 37.1120903,
    "lng": 140.2189295,
    "category": "museum",
    "prefecture": "tochigi",
    "osm_id": 3605459367,
    "spot_type": "data_spot",
    "data_source": "osm"
  },
  {
    "name": "健田須賀神社",
    "name_en": "",
    "lat": 36.302448,
    "lng": 139.8748632,
    "category": "shrine",
    "prefecture": "tochigi",
    "osm_id": 3659190952,
    "spot_type": "data_spot",
    "data_source": "osm"
  },
  {
    "name": "稲荷神社",
    "name_en": "Inari Shrine",
    "lat": 36.2991468,
    "lng": 139.8752674,
    "category": "shrine",
    "prefecture": "tochigi",
    "osm_id": 3663232676,
    "spot_type": "data_spot",
    "data_source": "osm"
  },
  {
    "name": "二荒山大神",
    "name_en": "Futarayamanoookami",
    "lat": 36.7647557,
    "lng": 139.4898496,
    "category": "shrine",
    "prefecture": "tochigi",
    "osm_id": 3684822004,
    "spot_type": "data_spot",
    "data_source": "osm"
  },
  {
    "name": "二荒山神社志津宮",
    "name_en": "Futarasanjinja Sizumiya",
    "lat": 36.7827227,
    "lng": 139.500414,
    "category": "shrine",
    "prefecture": "tochigi",
    "osm_id": 3684822017,
    "spot_type": "data_spot",
    "data_source": "osm"
  },
  {
    "name": "名称不明",
    "name_en": "",
    "lat": 36.7829155,
    "lng": 139.4998872,
    "category": "temple",
    "prefecture": "tochigi",
    "osm_id": 3684822019,
    "spot_type": "data_spot",
    "data_source": "osm"
  },
  {
    "name": "二荒山大神御神剣",
    "name_en": "Futaarayamanoookami Goshinken",
    "lat": 36.7650791,
    "lng": 139.490749,
    "category": "shrine",
    "prefecture": "tochigi",
    "osm_id": 3706550649,
    "spot_type": "data_spot",
    "data_source": "osm"
  },
  {
    "name": "長宮山妙正寺",
    "name_en": "",
    "lat": 36.5615784,
    "lng": 139.8944096,
    "category": "temple",
    "prefecture": "tochigi",
    "osm_id": 3709164217,
    "spot_type": "data_spot",
    "data_source": "osm"
  },
  {
    "name": "生福寺",
    "name_en": "",
    "lat": 36.561988,
    "lng": 139.8899357,
    "category": "temple",
    "prefecture": "tochigi",
    "osm_id": 3709165428,
    "spot_type": "data_spot",
    "data_source": "osm"
  },
  {
    "name": "法華寺",
    "name_en": "",
    "lat": 36.5621386,
    "lng": 139.8906223,
    "category": "temple",
    "prefecture": "tochigi",
    "osm_id": 3709165522,
    "spot_type": "data_spot",
    "data_source": "osm"
  },
  {
    "name": "小山",
    "name_en": "Oyama",
    "lat": 36.3129364,
    "lng": 139.8065054,
    "category": "station",
    "prefecture": "tochigi",
    "osm_id": 3721336949,
    "spot_type": "data_spot",
    "data_source": "osm"
  },
  {
    "name": "宇都宮",
    "name_en": "Utsunomiya",
    "lat": 36.5592983,
    "lng": 139.8981571,
    "category": "station",
    "prefecture": "tochigi",
    "osm_id": 3721336950,
    "spot_type": "data_spot",
    "data_source": "osm"
  },
  {
    "name": "新白河",
    "name_en": "Shin-Shirakawa",
    "lat": 37.1230906,
    "lng": 140.1884461,
    "category": "station",
    "prefecture": "tochigi",
    "osm_id": 3721569613,
    "spot_type": "data_spot",
    "data_source": "osm"
  },
  {
    "name": "桐生",
    "name_en": "Kiryu",
    "lat": 36.4113225,
    "lng": 139.3326744,
    "category": "station",
    "prefecture": "tochigi",
    "osm_id": 3721641449,
    "spot_type": "data_spot",
    "data_source": "osm"
  },
  {
    "name": "東武日光",
    "name_en": "Tobu-Nikko",
    "lat": 36.7478743,
    "lng": 139.6194559,
    "category": "station",
    "prefecture": "tochigi",
    "osm_id": 3721641451,
    "spot_type": "data_spot",
    "data_source": "osm"
  },
  {
    "name": "栃木",
    "name_en": "Tochigi",
    "lat": 36.3717284,
    "lng": 139.7314038,
    "category": "station",
    "prefecture": "tochigi",
    "osm_id": 3721641452,
    "spot_type": "data_spot",
    "data_source": "osm"
  },
  {
    "name": "佐野",
    "name_en": "Sano",
    "lat": 36.3166754,
    "lng": 139.5789733,
    "category": "station",
    "prefecture": "tochigi",
    "osm_id": 3729515013,
    "spot_type": "data_spot",
    "data_source": "osm"
  },
  {
    "name": "下今市",
    "name_en": "Shimo-Imaichi",
    "lat": 36.725635,
    "lng": 139.6927992,
    "category": "station",
    "prefecture": "tochigi",
    "osm_id": 3730051723,
    "spot_type": "data_spot",
    "data_source": "osm"
  },
  {
    "name": "今市",
    "name_en": "Imaichi",
    "lat": 36.720468,
    "lng": 139.6872715,
    "category": "station",
    "prefecture": "tochigi",
    "osm_id": 3730128013,
    "spot_type": "data_spot",
    "data_source": "osm"
  },
  {
    "name": "上今市",
    "name_en": "Kami-Imaichi",
    "lat": 36.7277842,
    "lng": 139.6814776,
    "category": "station",
    "prefecture": "tochigi",
    "osm_id": 3730128014,
    "spot_type": "data_spot",
    "data_source": "osm"
  },
  {
    "name": "鬼怒川温泉",
    "name_en": "Kinugawa-onsen",
    "lat": 36.8226329,
    "lng": 139.7165045,
    "category": "station",
    "prefecture": "tochigi",
    "osm_id": 3730128015,
    "spot_type": "data_spot",
    "data_source": "osm"
  },
  {
    "name": "明神",
    "name_en": "Myojin",
    "lat": 36.6766205,
    "lng": 139.7123688,
    "category": "station",
    "prefecture": "tochigi",
    "osm_id": 3730128016,
    "spot_type": "data_spot",
    "data_source": "osm"
  },
  {
    "name": "日光",
    "name_en": "Nikko",
    "lat": 36.7471805,
    "lng": 139.6219414,
    "category": "station",
    "prefecture": "tochigi",
    "osm_id": 3730128017,
    "spot_type": "data_spot",
    "data_source": "osm"
  },
  {
    "name": "羽黒",
    "name_en": "Haguro",
    "lat": 36.355239,
    "lng": 140.1434163,
    "category": "station",
    "prefecture": "tochigi",
    "osm_id": 3730492328,
    "spot_type": "data_spot",
    "data_source": "osm"
  },
  {
    "name": "下館",
    "name_en": "Shimodate",
    "lat": 36.3041716,
    "lng": 139.9787036,
    "category": "station",
    "prefecture": "tochigi",
    "osm_id": 3730494267,
    "spot_type": "data_spot",
    "data_source": "osm"
  },
  {
    "name": "滝尾神社",
    "name_en": "",
    "lat": 36.5506802,
    "lng": 139.8663776,
    "category": "shrine",
    "prefecture": "tochigi",
    "osm_id": 3746808890,
    "spot_type": "data_spot",
    "data_source": "osm"
  },
  {
    "name": "普門寺",
    "name_en": "",
    "lat": 36.4377445,
    "lng": 139.9126852,
    "category": "temple",
    "prefecture": "tochigi",
    "osm_id": 3755409427,
    "spot_type": "data_spot",
    "data_source": "osm"
  },
  {
    "name": "日限冨士浅間神社",
    "name_en": "",
    "lat": 36.3844433,
    "lng": 139.7249808,
    "category": "shrine",
    "prefecture": "tochigi",
    "osm_id": 3771782864,
    "spot_type": "data_spot",
    "data_source": "osm"
  },
  {
    "name": "高龗神社",
    "name_en": "",
    "lat": 36.6600954,
    "lng": 139.9931689,
    "category": "shrine",
    "prefecture": "tochigi",
    "osm_id": 3781552887,
    "spot_type": "data_spot",
    "data_source": "osm"
  },
  {
    "name": "西桐生",
    "name_en": "Nishi-Kiryu",
    "lat": 36.4139311,
    "lng": 139.3338152,
    "category": "station",
    "prefecture": "tochigi",
    "osm_id": 3781603413,
    "spot_type": "data_spot",
    "data_source": "osm"
  },
  {
    "name": "光明寺",
    "name_en": "",
    "lat": 36.61142,
    "lng": 139.8548839,
    "category": "temple",
    "prefecture": "tochigi",
    "osm_id": 3797658590,
    "spot_type": "data_spot",
    "data_source": "osm"
  },
  {
    "name": "菅原神社",
    "name_en": "",
    "lat": 36.5191988,
    "lng": 139.8787747,
    "category": "shrine",
    "prefecture": "tochigi",
    "osm_id": 3810849522,
    "spot_type": "data_spot",
    "data_source": "osm"
  },
  {
    "name": "星宮神社",
    "name_en": "",
    "lat": 36.4607146,
    "lng": 139.8686419,
    "category": "shrine",
    "prefecture": "tochigi",
    "osm_id": 3811053604,
    "spot_type": "data_spot",
    "data_source": "osm"
  },
  {
    "name": "エミール ガレ美術館",
    "name_en": "",
    "lat": 37.049401,
    "lng": 140.029736,
    "category": "museum",
    "prefecture": "tochigi",
    "osm_id": 3812140331,
    "spot_type": "data_spot",
    "data_source": "osm"
  },
  {
    "name": "宝積寺",
    "name_en": "Hoshakuji",
    "lat": 36.6314909,
    "lng": 139.979591,
    "category": "station",
    "prefecture": "tochigi",
    "osm_id": 3828076592,
    "spot_type": "data_spot",
    "data_source": "osm"
  },
  {
    "name": "経塚稲荷神社",
    "name_en": "",
    "lat": 36.8735573,
    "lng": 140.0152483,
    "category": "shrine",
    "prefecture": "tochigi",
    "osm_id": 3835614949,
    "spot_type": "data_spot",
    "data_source": "osm"
  },
  {
    "name": "那須オルゴール美術館",
    "name_en": "",
    "lat": 37.0438563,
    "lng": 140.0276907,
    "category": "museum",
    "prefecture": "tochigi",
    "osm_id": 3844183788,
    "spot_type": "data_spot",
    "data_source": "osm"
  },
  {
    "name": "星宮神社",
    "name_en": "",
    "lat": 36.4298212,
    "lng": 139.8730691,
    "category": "shrine",
    "prefecture": "tochigi",
    "osm_id": 3864491868,
    "spot_type": "data_spot",
    "data_source": "osm"
  },
  {
    "name": "祖母井神社",
    "name_en": "",
    "lat": 36.5535729,
    "lng": 140.0613286,
    "category": "shrine",
    "prefecture": "tochigi",
    "osm_id": 3878066290,
    "spot_type": "data_spot",
    "data_source": "osm"
  },
  {
    "name": "星宮神社",
    "name_en": "",
    "lat": 36.5384408,
    "lng": 139.9705442,
    "category": "shrine",
    "prefecture": "tochigi",
    "osm_id": 3889046277,
    "spot_type": "data_spot",
    "data_source": "osm"
  },
  {
    "name": "荒橿神社",
    "name_en": "",
    "lat": 36.4219622,
    "lng": 139.9884255,
    "category": "shrine",
    "prefecture": "tochigi",
    "osm_id": 3893640603,
    "spot_type": "data_spot",
    "data_source": "osm"
  },
  {
    "name": "新栃木",
    "name_en": "Shin-Tochigi",
    "lat": 36.3898235,
    "lng": 139.7424779,
    "category": "station",
    "prefecture": "tochigi",
    "osm_id": 3898269403,
    "spot_type": "data_spot",
    "data_source": "osm"
  },
  {
    "name": "浅間神社",
    "name_en": "",
    "lat": 36.2499849,
    "lng": 139.3785009,
    "category": "shrine",
    "prefecture": "tochigi",
    "osm_id": 3906242357,
    "spot_type": "data_spot",
    "data_source": "osm"
  },
  {
    "name": "名称不明",
    "name_en": "",
    "lat": 36.2121763,
    "lng": 139.43233,
    "category": "shrine",
    "prefecture": "tochigi",
    "osm_id": 3973948875,
    "spot_type": "data_spot",
    "data_source": "osm"
  },
  {
    "name": "大平下",
    "name_en": "Ohirashita",
    "lat": 36.3443513,
    "lng": 139.6975422,
    "category": "station",
    "prefecture": "tochigi",
    "osm_id": 3993074365,
    "spot_type": "data_spot",
    "data_source": "osm"
  },
  {
    "name": "名称不明",
    "name_en": "",
    "lat": 36.255206,
    "lng": 139.3722314,
    "category": "shrine",
    "prefecture": "tochigi",
    "osm_id": 4026016928,
    "spot_type": "data_spot",
    "data_source": "osm"
  },
  {
    "name": "天王寺",
    "name_en": "",
    "lat": 36.5032723,
    "lng": 140.0248232,
    "category": "temple",
    "prefecture": "tochigi",
    "osm_id": 4079448116,
    "spot_type": "data_spot",
    "data_source": "osm"
  },
  {
    "name": "深山巴の宿　県指定史跡",
    "name_en": "",
    "lat": 36.6453675,
    "lng": 139.4996973,
    "category": "shrine",
    "prefecture": "tochigi",
    "osm_id": 4092006646,
    "spot_type": "data_spot",
    "data_source": "osm"
  },
  {
    "name": "加蘇山神社",
    "name_en": "",
    "lat": 36.5992679,
    "lng": 139.5979451,
    "category": "shrine",
    "prefecture": "tochigi",
    "osm_id": 4092020746,
    "spot_type": "data_spot",
    "data_source": "osm"
  },
  {
    "name": "賀蘇山神社",
    "name_en": "",
    "lat": 36.5857704,
    "lng": 139.5714726,
    "category": "shrine",
    "prefecture": "tochigi",
    "osm_id": 4092022090,
    "spot_type": "data_spot",
    "data_source": "osm"
  },
  {
    "name": "長田神社",
    "name_en": "",
    "lat": 36.4564012,
    "lng": 139.8424024,
    "category": "shrine",
    "prefecture": "tochigi",
    "osm_id": 4092109362,
    "spot_type": "data_spot",
    "data_source": "osm"
  },
  {
    "name": "星の宮磐裂神社",
    "name_en": "",
    "lat": 36.7534721,
    "lng": 139.6011115,
    "category": "shrine",
    "prefecture": "tochigi",
    "osm_id": 4092240030,
    "spot_type": "data_spot",
    "data_source": "osm"
  },
  {
    "name": "竜蔵寺",
    "name_en": "",
    "lat": 36.6693672,
    "lng": 139.4454774,
    "category": "temple",
    "prefecture": "tochigi",
    "osm_id": 4092709551,
    "spot_type": "data_spot",
    "data_source": "osm"
  },
  {
    "name": "岡本",
    "name_en": "Okamoto",
    "lat": 36.5984145,
    "lng": 139.9444481,
    "category": "station",
    "prefecture": "tochigi",
    "osm_id": 4098109337,
    "spot_type": "data_spot",
    "data_source": "osm"
  },
  {
    "name": "鶴田",
    "name_en": "Tsuruta",
    "lat": 36.5382007,
    "lng": 139.8586506,
    "category": "station",
    "prefecture": "tochigi",
    "osm_id": 4098109338,
    "spot_type": "data_spot",
    "data_source": "osm"
  },
  {
    "name": "東武宇都宮",
    "name_en": "Tobu-Utsunomiya",
    "lat": 36.5590664,
    "lng": 139.8805997,
    "category": "station",
    "prefecture": "tochigi",
    "osm_id": 4098306775,
    "spot_type": "data_spot",
    "data_source": "osm"
  },
  {
    "name": "生子神社（泣き相撲）",
    "name_en": "",
    "lat": 36.5383658,
    "lng": 139.7377175,
    "category": "shrine",
    "prefecture": "tochigi",
    "osm_id": 4099840453,
    "spot_type": "data_spot",
    "data_source": "osm"
  },
  {
    "name": "日枝神社",
    "name_en": "",
    "lat": 36.5990484,
    "lng": 139.7824392,
    "category": "shrine",
    "prefecture": "tochigi",
    "osm_id": 4099999168,
    "spot_type": "data_spot",
    "data_source": "osm"
  },
  {
    "name": "坂東19番 天開山 大谷寺",
    "name_en": "Bando No.19 Ooya-ji",
    "lat": 36.5967288,
    "lng": 139.8205794,
    "category": "temple",
    "prefecture": "tochigi",
    "osm_id": 4100013472,
    "spot_type": "data_spot",
    "data_source": "osm"
  },
  {
    "name": "滝尾神社",
    "name_en": "Takio Shrine",
    "lat": 36.7266437,
    "lng": 139.6810171,
    "category": "shrine",
    "prefecture": "tochigi",
    "osm_id": 4100068741,
    "spot_type": "data_spot",
    "data_source": "osm"
  },
  {
    "name": "報徳二宮神社",
    "name_en": "",
    "lat": 36.7256592,
    "lng": 139.6894921,
    "category": "shrine",
    "prefecture": "tochigi",
    "osm_id": 4100075935,
    "spot_type": "data_spot",
    "data_source": "osm"
  },
  {
    "name": "野木神社",
    "name_en": "",
    "lat": 36.2159637,
    "lng": 139.7073343,
    "category": "shrine",
    "prefecture": "tochigi",
    "osm_id": 4105655185,
    "spot_type": "data_spot",
    "data_source": "osm"
  },
  {
    "name": "金精神社",
    "name_en": "Konsei-jinja Shrine",
    "lat": 36.8188622,
    "lng": 139.3946151,
    "category": "shrine",
    "prefecture": "tochigi",
    "osm_id": 4105679708,
    "spot_type": "data_spot",
    "data_source": "osm"
  },
  {
    "name": "大雄寺",
    "name_en": "",
    "lat": 36.8656229,
    "lng": 140.1226572,
    "category": "temple",
    "prefecture": "tochigi",
    "osm_id": 4109088374,
    "spot_type": "data_spot",
    "data_source": "osm"
  },
  {
    "name": "黒羽神社",
    "name_en": "",
    "lat": 36.8617722,
    "lng": 140.1230515,
    "category": "shrine",
    "prefecture": "tochigi",
    "osm_id": 4109088393,
    "spot_type": "data_spot",
    "data_source": "osm"
  },
  {
    "name": "バンダイミュージアム",
    "name_en": "Omochanomachi Bandai Museum",
    "lat": 36.4654291,
    "lng": 139.8383503,
    "category": "museum",
    "prefecture": "tochigi",
    "osm_id": 4114320799,
    "spot_type": "data_spot",
    "data_source": "osm"
  },
  {
    "name": "那須歴史探訪館",
    "name_en": "",
    "lat": 36.9891042,
    "lng": 140.1641394,
    "category": "museum",
    "prefecture": "tochigi",
    "osm_id": 4127206714,
    "spot_type": "data_spot",
    "data_source": "osm"
  },
  {
    "name": "芭蕉の館",
    "name_en": "",
    "lat": 36.868724,
    "lng": 140.122642,
    "category": "museum",
    "prefecture": "tochigi",
    "osm_id": 4127223359,
    "spot_type": "data_spot",
    "data_source": "osm"
  },
  {
    "name": "高龍神社",
    "name_en": "",
    "lat": 36.5422167,
    "lng": 139.9453009,
    "category": "shrine",
    "prefecture": "tochigi",
    "osm_id": 4127315745,
    "spot_type": "data_spot",
    "data_source": "osm"
  },
  {
    "name": "下野市 保健福祉センター ゆうゆう館",
    "name_en": "",
    "lat": 36.3853003,
    "lng": 139.8377021,
    "category": "onsen",
    "prefecture": "tochigi",
    "osm_id": 4134893200,
    "spot_type": "data_spot",
    "data_source": "osm"
  },
  {
    "name": "国分寺",
    "name_en": "",
    "lat": 36.3907402,
    "lng": 139.8148805,
    "category": "temple",
    "prefecture": "tochigi",
    "osm_id": 4134893207,
    "spot_type": "data_spot",
    "data_source": "osm"
  },
  {
    "name": "薬師堂",
    "name_en": "",
    "lat": 36.3906948,
    "lng": 139.8145461,
    "category": "temple",
    "prefecture": "tochigi",
    "osm_id": 4134940293,
    "spot_type": "data_spot",
    "data_source": "osm"
  },
  {
    "name": "紫雲寺",
    "name_en": "",
    "lat": 36.3854916,
    "lng": 139.8037033,
    "category": "temple",
    "prefecture": "tochigi",
    "osm_id": 4136111424,
    "spot_type": "data_spot",
    "data_source": "osm"
  },
  {
    "name": "蓮華寺",
    "name_en": "",
    "lat": 36.3927311,
    "lng": 139.7996678,
    "category": "temple",
    "prefecture": "tochigi",
    "osm_id": 4136111522,
    "spot_type": "data_spot",
    "data_source": "osm"
  },
  {
    "name": "国分寺愛宕神社",
    "name_en": "",
    "lat": 36.3923162,
    "lng": 139.8066549,
    "category": "shrine",
    "prefecture": "tochigi",
    "osm_id": 4136112611,
    "spot_type": "data_spot",
    "data_source": "osm"
  },
  {
    "name": "温泉神社",
    "name_en": "",
    "lat": 36.9136405,
    "lng": 140.0147816,
    "category": "shrine",
    "prefecture": "tochigi",
    "osm_id": 4142090604,
    "spot_type": "data_spot",
    "data_source": "osm"
  },
  {
    "name": "金丸八幡宮",
    "name_en": "",
    "lat": 36.863721,
    "lng": 140.0877269,
    "category": "shrine",
    "prefecture": "tochigi",
    "osm_id": 4142321558,
    "spot_type": "data_spot",
    "data_source": "osm"
  },
  {
    "name": "那須神社",
    "name_en": "",
    "lat": 36.8641656,
    "lng": 140.0878894,
    "category": "shrine",
    "prefecture": "tochigi",
    "osm_id": 4142321614,
    "spot_type": "data_spot",
    "data_source": "osm"
  },
  {
    "name": "金刀比羅神社",
    "name_en": "",
    "lat": 36.8464697,
    "lng": 140.2048405,
    "category": "shrine",
    "prefecture": "tochigi",
    "osm_id": 4143871180,
    "spot_type": "data_spot",
    "data_source": "osm"
  },
  {
    "name": "雲厳寺",
    "name_en": "",
    "lat": 36.8529216,
    "lng": 140.2096816,
    "category": "temple",
    "prefecture": "tochigi",
    "osm_id": 4143871921,
    "spot_type": "data_spot",
    "data_source": "osm"
  },
  {
    "name": "妙徳寺",
    "name_en": "",
    "lat": 36.8912311,
    "lng": 140.0596546,
    "category": "temple",
    "prefecture": "tochigi",
    "osm_id": 4143963664,
    "spot_type": "data_spot",
    "data_source": "osm"
  },
  {
    "name": "瀧澤神社",
    "name_en": "",
    "lat": 36.8169809,
    "lng": 140.0032963,
    "category": "shrine",
    "prefecture": "tochigi",
    "osm_id": 4154665284,
    "spot_type": "data_spot",
    "data_source": "osm"
  },
  {
    "name": "玄性寺",
    "name_en": "",
    "lat": 36.8019444,
    "lng": 140.0575519,
    "category": "temple",
    "prefecture": "tochigi",
    "osm_id": 4156750089,
    "spot_type": "data_spot",
    "data_source": "osm"
  },
  {
    "name": "太子堂",
    "name_en": "",
    "lat": 36.8045422,
    "lng": 140.0415845,
    "category": "temple",
    "prefecture": "tochigi",
    "osm_id": 4156750125,
    "spot_type": "data_spot",
    "data_source": "osm"
  },
  {
    "name": "大神神社",
    "name_en": "",
    "lat": 36.8043582,
    "lng": 140.0423921,
    "category": "shrine",
    "prefecture": "tochigi",
    "osm_id": 4156750152,
    "spot_type": "data_spot",
    "data_source": "osm"
  },
  {
    "name": "金剛寿院",
    "name_en": "",
    "lat": 36.8044529,
    "lng": 140.0494087,
    "category": "temple",
    "prefecture": "tochigi",
    "osm_id": 4156750175,
    "spot_type": "data_spot",
    "data_source": "osm"
  },
  {
    "name": "福原八幡宮",
    "name_en": "",
    "lat": 36.8041221,
    "lng": 140.0479603,
    "category": "shrine",
    "prefecture": "tochigi",
    "osm_id": 4156750187,
    "spot_type": "data_spot",
    "data_source": "osm"
  },
  {
    "name": "薬王寺",
    "name_en": "",
    "lat": 36.8297336,
    "lng": 140.0147132,
    "category": "temple",
    "prefecture": "tochigi",
    "osm_id": 4156834386,
    "spot_type": "data_spot",
    "data_source": "osm"
  },
  {
    "name": "護法寺",
    "name_en": "",
    "lat": 36.8405927,
    "lng": 140.0181129,
    "category": "temple",
    "prefecture": "tochigi",
    "osm_id": 4156840506,
    "spot_type": "data_spot",
    "data_source": "osm"
  },
  {
    "name": "二荒山神社4合目社務所",
    "name_en": "",
    "lat": 36.7497937,
    "lng": 139.4894369,
    "category": "shrine",
    "prefecture": "tochigi",
    "osm_id": 4157427573,
    "spot_type": "data_spot",
    "data_source": "osm"
  },
  {
    "name": "蓮城院",
    "name_en": "",
    "lat": 36.4055559,
    "lng": 140.0146828,
    "category": "temple",
    "prefecture": "tochigi",
    "osm_id": 4158674400,
    "spot_type": "data_spot",
    "data_source": "osm"
  },
  {
    "name": "那須ステンドグラス美術館",
    "name_en": "",
    "lat": 37.0655152,
    "lng": 140.0248935,
    "category": "museum",
    "prefecture": "tochigi",
    "osm_id": 4162758648,
    "spot_type": "data_spot",
    "data_source": "osm"
  },
  {
    "name": "古河足尾歴史館",
    "name_en": "",
    "lat": 36.6347421,
    "lng": 139.4382659,
    "category": "museum",
    "prefecture": "tochigi",
    "osm_id": 4163110884,
    "spot_type": "data_spot",
    "data_source": "osm"
  },
  {
    "name": "銅ふれあい館",
    "name_en": "",
    "lat": 36.6332732,
    "lng": 139.439227,
    "category": "museum",
    "prefecture": "tochigi",
    "osm_id": 4163119269,
    "spot_type": "data_spot",
    "data_source": "osm"
  },
  {
    "name": "鋳銭座",
    "name_en": "",
    "lat": 36.6329891,
    "lng": 139.4390017,
    "category": "museum",
    "prefecture": "tochigi",
    "osm_id": 4163119275,
    "spot_type": "data_spot",
    "data_source": "osm"
  },
  {
    "name": "金剛山瑞峯寺",
    "name_en": "",
    "lat": 36.6424651,
    "lng": 139.5625408,
    "category": "temple",
    "prefecture": "tochigi",
    "osm_id": 4163180548,
    "spot_type": "data_spot",
    "data_source": "osm"
  },
  {
    "name": "古峯神社一乃鳥居",
    "name_en": "",
    "lat": 36.6453272,
    "lng": 139.577519,
    "category": "shrine",
    "prefecture": "tochigi",
    "osm_id": 4179887169,
    "spot_type": "data_spot",
    "data_source": "osm"
  },
  {
    "name": "二杉神社",
    "name_en": "Futasugi Shrine",
    "lat": 36.372123,
    "lng": 139.7114571,
    "category": "shrine",
    "prefecture": "tochigi",
    "osm_id": 4184352395,
    "spot_type": "data_spot",
    "data_source": "osm"
  },
  {
    "name": "茨城県陶芸美術館",
    "name_en": "Ibaraki Prefecture Ceramics Museum of Art",
    "lat": 36.3723876,
    "lng": 140.2630038,
    "category": "museum",
    "prefecture": "tochigi",
    "osm_id": 4191897333,
    "spot_type": "data_spot",
    "data_source": "osm"
  },
  {
    "name": "會沢神社",
    "name_en": "",
    "lat": 36.4209876,
    "lng": 139.6295942,
    "category": "shrine",
    "prefecture": "tochigi",
    "osm_id": 4193551448,
    "spot_type": "data_spot",
    "data_source": "osm"
  },
  {
    "name": "普門寺",
    "name_en": "",
    "lat": 36.507534,
    "lng": 139.5212926,
    "category": "temple",
    "prefecture": "tochigi",
    "osm_id": 4193599378,
    "spot_type": "data_spot",
    "data_source": "osm"
  },
  {
    "name": "氷室山神社",
    "name_en": "",
    "lat": 36.5085183,
    "lng": 139.5209408,
    "category": "shrine",
    "prefecture": "tochigi",
    "osm_id": 4193600656,
    "spot_type": "data_spot",
    "data_source": "osm"
  },
  {
    "name": "玉雲寺",
    "name_en": "",
    "lat": 36.5375952,
    "lng": 139.5140749,
    "category": "temple",
    "prefecture": "tochigi",
    "osm_id": 4193612012,
    "spot_type": "data_spot",
    "data_source": "osm"
  },
  {
    "name": "間々田八幡宮",
    "name_en": "",
    "lat": 36.2742769,
    "lng": 139.7658251,
    "category": "shrine",
    "prefecture": "tochigi",
    "osm_id": 4195259190,
    "spot_type": "data_spot",
    "data_source": "osm"
  },
  {
    "name": "筑波山神社男体山御本殿",
    "name_en": "",
    "lat": 36.2257795,
    "lng": 140.0983595,
    "category": "shrine",
    "prefecture": "tochigi",
    "osm_id": 4195452993,
    "spot_type": "data_spot",
    "data_source": "osm"
  },
  {
    "name": "薬王院",
    "name_en": "",
    "lat": 36.2356242,
    "lng": 140.0767598,
    "category": "temple",
    "prefecture": "tochigi",
    "osm_id": 4195461440,
    "spot_type": "data_spot",
    "data_source": "osm"
  },
  {
    "name": "星宮神社",
    "name_en": "",
    "lat": 36.7543971,
    "lng": 139.8655056,
    "category": "shrine",
    "prefecture": "tochigi",
    "osm_id": 4212289216,
    "spot_type": "data_spot",
    "data_source": "osm"
  },
  {
    "name": "磐裂神社",
    "name_en": "",
    "lat": 36.494795,
    "lng": 139.8127622,
    "category": "shrine",
    "prefecture": "tochigi",
    "osm_id": 4212476306,
    "spot_type": "data_spot",
    "data_source": "osm"
  },
  {
    "name": "妻沼展示館",
    "name_en": "",
    "lat": 36.222966,
    "lng": 139.3812514,
    "category": "museum",
    "prefecture": "tochigi",
    "osm_id": 4218859989,
    "spot_type": "data_spot",
    "data_source": "osm"
  },
  {
    "name": "五大力堂",
    "name_en": "",
    "lat": 36.3908287,
    "lng": 140.1613685,
    "category": "shrine",
    "prefecture": "tochigi",
    "osm_id": 4226137168,
    "spot_type": "data_spot",
    "data_source": "osm"
  },
  {
    "name": "楞厳寺",
    "name_en": "",
    "lat": 36.4023901,
    "lng": 140.2043724,
    "category": "temple",
    "prefecture": "tochigi",
    "osm_id": 4226137170,
    "spot_type": "data_spot",
    "data_source": "osm"
  },
  {
    "name": "富谷山小山寺(富谷観音)",
    "name_en": "",
    "lat": 36.3833022,
    "lng": 140.1001494,
    "category": "temple",
    "prefecture": "tochigi",
    "osm_id": 4226141260,
    "spot_type": "data_spot",
    "data_source": "osm"
  },
  {
    "name": "日光豊川稲荷神社",
    "name_en": "",
    "lat": 36.7366726,
    "lng": 139.5428499,
    "category": "shrine",
    "prefecture": "tochigi",
    "osm_id": 4230261890,
    "spot_type": "data_spot",
    "data_source": "osm"
  },
  {
    "name": "滝尾高徳水神社",
    "name_en": "",
    "lat": 36.7649156,
    "lng": 139.5945615,
    "category": "shrine",
    "prefecture": "tochigi",
    "osm_id": 4230348770,
    "spot_type": "data_spot",
    "data_source": "osm"
  },
  {
    "name": "名称不明",
    "name_en": "",
    "lat": 36.3828967,
    "lng": 139.8255971,
    "category": "rest_area",
    "prefecture": "tochigi",
    "osm_id": 4232818991,
    "spot_type": "data_spot",
    "data_source": "osm"
  },
  {
    "name": "黒川神社",
    "name_en": "",
    "lat": 36.6628918,
    "lng": 139.6236065,
    "category": "shrine",
    "prefecture": "tochigi",
    "osm_id": 4237480355,
    "spot_type": "data_spot",
    "data_source": "osm"
  },
  {
    "name": "名称不明",
    "name_en": "",
    "lat": 36.5403254,
    "lng": 139.7883677,
    "category": "temple",
    "prefecture": "tochigi",
    "osm_id": 4237523231,
    "spot_type": "data_spot",
    "data_source": "osm"
  },
  {
    "name": "名称不明",
    "name_en": "",
    "lat": 36.4751539,
    "lng": 139.8544077,
    "category": "shrine",
    "prefecture": "tochigi",
    "osm_id": 4237564927,
    "spot_type": "data_spot",
    "data_source": "osm"
  },
  {
    "name": "明静寺",
    "name_en": "",
    "lat": 36.7410082,
    "lng": 139.6851457,
    "category": "temple",
    "prefecture": "tochigi",
    "osm_id": 4249870077,
    "spot_type": "data_spot",
    "data_source": "osm"
  },
  {
    "name": "台林寺",
    "name_en": "",
    "lat": 36.3724013,
    "lng": 139.8017133,
    "category": "temple",
    "prefecture": "tochigi",
    "osm_id": 4268417158,
    "spot_type": "data_spot",
    "data_source": "osm"
  },
  {
    "name": "鷲神社",
    "name_en": "Washi Shrine",
    "lat": 36.3054966,
    "lng": 139.7848998,
    "category": "shrine",
    "prefecture": "tochigi",
    "osm_id": 4268430544,
    "spot_type": "data_spot",
    "data_source": "osm"
  },
  {
    "name": "茂原観音",
    "name_en": "Mobara Kannon Temple",
    "lat": 36.4688692,
    "lng": 139.8842352,
    "category": "temple",
    "prefecture": "tochigi",
    "osm_id": 4268461182,
    "spot_type": "data_spot",
    "data_source": "osm"
  },
  {
    "name": "浅間神社",
    "name_en": "",
    "lat": 36.4629596,
    "lng": 139.8837621,
    "category": "shrine",
    "prefecture": "tochigi",
    "osm_id": 4268461183,
    "spot_type": "data_spot",
    "data_source": "osm"
  },
  {
    "name": "佐貫観音　磨崖仏　　国指定史跡",
    "name_en": "",
    "lat": 36.7495702,
    "lng": 139.7994249,
    "category": "temple",
    "prefecture": "tochigi",
    "osm_id": 4269611730,
    "spot_type": "data_spot",
    "data_source": "osm"
  },
  {
    "name": "相宮神社",
    "name_en": "",
    "lat": 36.4782221,
    "lng": 140.0314208,
    "category": "shrine",
    "prefecture": "tochigi",
    "osm_id": 4269936793,
    "spot_type": "data_spot",
    "data_source": "osm"
  },
  {
    "name": "仏生寺　勝道上人生誕地　県史跡",
    "name_en": "",
    "lat": 36.4013933,
    "lng": 140.0544234,
    "category": "temple",
    "prefecture": "tochigi",
    "osm_id": 4269989652,
    "spot_type": "data_spot",
    "data_source": "osm"
  },
  {
    "name": "鹿神社",
    "name_en": "",
    "lat": 36.3774848,
    "lng": 139.9926434,
    "category": "shrine",
    "prefecture": "tochigi",
    "osm_id": 4270143324,
    "spot_type": "data_spot",
    "data_source": "osm"
  },
  {
    "name": "加茂神社",
    "name_en": "",
    "lat": 36.4840587,
    "lng": 140.098021,
    "category": "shrine",
    "prefecture": "tochigi",
    "osm_id": 4271881515,
    "spot_type": "data_spot",
    "data_source": "osm"
  },
  {
    "name": "名称不明",
    "name_en": "",
    "lat": 36.3827874,
    "lng": 139.8256708,
    "category": "rest_area",
    "prefecture": "tochigi",
    "osm_id": 4271955391,
    "spot_type": "data_spot",
    "data_source": "osm"
  },
  {
    "name": "綱神社　国重文",
    "name_en": "",
    "lat": 36.4515204,
    "lng": 140.1399032,
    "category": "shrine",
    "prefecture": "tochigi",
    "osm_id": 4271961252,
    "spot_type": "data_spot",
    "data_source": "osm"
  },
  {
    "name": "大倉神社　国重文",
    "name_en": "",
    "lat": 36.4517663,
    "lng": 140.1397893,
    "category": "shrine",
    "prefecture": "tochigi",
    "osm_id": 4271961772,
    "spot_type": "data_spot",
    "data_source": "osm"
  },
  {
    "name": "能持院",
    "name_en": "",
    "lat": 36.5424979,
    "lng": 140.2019937,
    "category": "temple",
    "prefecture": "tochigi",
    "osm_id": 4273733040,
    "spot_type": "data_spot",
    "data_source": "osm"
  },
  {
    "name": "行事神社",
    "name_en": "",
    "lat": 36.5030646,
    "lng": 140.0113525,
    "category": "shrine",
    "prefecture": "tochigi",
    "osm_id": 4273753205,
    "spot_type": "data_spot",
    "data_source": "osm"
  },
  {
    "name": "乃木神社",
    "name_en": "",
    "lat": 36.887713,
    "lng": 140.0025432,
    "category": "shrine",
    "prefecture": "tochigi",
    "osm_id": 4273940636,
    "spot_type": "data_spot",
    "data_source": "osm"
  },
  {
    "name": "天神社",
    "name_en": "",
    "lat": 36.2917086,
    "lng": 139.3911882,
    "category": "shrine",
    "prefecture": "tochigi",
    "osm_id": 4275617053,
    "spot_type": "data_spot",
    "data_source": "osm"
  },
  {
    "name": "正見寺",
    "name_en": "Shokenji",
    "lat": 36.2921146,
    "lng": 139.3617038,
    "category": "temple",
    "prefecture": "tochigi",
    "osm_id": 4275637798,
    "spot_type": "data_spot",
    "data_source": "osm"
  },
  {
    "name": "高尾神社",
    "name_en": "",
    "lat": 36.8313266,
    "lng": 139.7162405,
    "category": "shrine",
    "prefecture": "tochigi",
    "osm_id": 4277777211,
    "spot_type": "data_spot",
    "data_source": "osm"
  },
  {
    "name": "十二神社",
    "name_en": "",
    "lat": 36.8553664,
    "lng": 139.7294545,
    "category": "shrine",
    "prefecture": "tochigi",
    "osm_id": 4277996870,
    "spot_type": "data_spot",
    "data_source": "osm"
  },
  {
    "name": "合格神社",
    "name_en": "",
    "lat": 36.8390146,
    "lng": 139.9840185,
    "category": "shrine",
    "prefecture": "tochigi",
    "osm_id": 4306908532,
    "spot_type": "data_spot",
    "data_source": "osm"
  },
  {
    "name": "八雲神社",
    "name_en": "",
    "lat": 36.8308982,
    "lng": 139.9737594,
    "category": "shrine",
    "prefecture": "tochigi",
    "osm_id": 4306925659,
    "spot_type": "data_spot",
    "data_source": "osm"
  },
  {
    "name": "法善寺",
    "name_en": "",
    "lat": 36.8643645,
    "lng": 139.9393206,
    "category": "temple",
    "prefecture": "tochigi",
    "osm_id": 4306938795,
    "spot_type": "data_spot",
    "data_source": "osm"
  },
  {
    "name": "温泉神社",
    "name_en": "",
    "lat": 36.8661158,
    "lng": 139.9405649,
    "category": "shrine",
    "prefecture": "tochigi",
    "osm_id": 4306938830,
    "spot_type": "data_spot",
    "data_source": "osm"
  },
  {
    "name": "竜神宮",
    "name_en": "",
    "lat": 36.383131,
    "lng": 139.815478,
    "category": "shrine",
    "prefecture": "tochigi",
    "osm_id": 4326895845,
    "spot_type": "data_spot",
    "data_source": "osm"
  },
  {
    "name": "星宮神社",
    "name_en": "",
    "lat": 36.380148,
    "lng": 139.831037,
    "category": "shrine",
    "prefecture": "tochigi",
    "osm_id": 4326966495,
    "spot_type": "data_spot",
    "data_source": "osm"
  },
  {
    "name": "成就院",
    "name_en": "",
    "lat": 36.379116,
    "lng": 139.828683,
    "category": "temple",
    "prefecture": "tochigi",
    "osm_id": 4327005491,
    "spot_type": "data_spot",
    "data_source": "osm"
  },
  {
    "name": "橋本神社",
    "name_en": "",
    "lat": 36.409404,
    "lng": 139.833324,
    "category": "shrine",
    "prefecture": "tochigi",
    "osm_id": 4327037596,
    "spot_type": "data_spot",
    "data_source": "osm"
  },
  {
    "name": "星宮神社",
    "name_en": "",
    "lat": 36.430604,
    "lng": 139.835191,
    "category": "shrine",
    "prefecture": "tochigi",
    "osm_id": 4327038596,
    "spot_type": "data_spot",
    "data_source": "osm"
  },
  {
    "name": "雷電神社",
    "name_en": "",
    "lat": 36.427307,
    "lng": 139.843895,
    "category": "shrine",
    "prefecture": "tochigi",
    "osm_id": 4327068793,
    "spot_type": "data_spot",
    "data_source": "osm"
  },
  {
    "name": "磐裂根裂神社",
    "name_en": "",
    "lat": 36.3994424,
    "lng": 139.8314948,
    "category": "shrine",
    "prefecture": "tochigi",
    "osm_id": 4327072290,
    "spot_type": "data_spot",
    "data_source": "osm"
  },
  {
    "name": "日枝神社",
    "name_en": "",
    "lat": 36.403691,
    "lng": 139.831648,
    "category": "shrine",
    "prefecture": "tochigi",
    "osm_id": 4327088289,
    "spot_type": "data_spot",
    "data_source": "osm"
  },
  {
    "name": "秩父王峯神社",
    "name_en": "",
    "lat": 36.431906,
    "lng": 139.822713,
    "category": "shrine",
    "prefecture": "tochigi",
    "osm_id": 4327089890,
    "spot_type": "data_spot",
    "data_source": "osm"
  },
  {
    "name": "風神社",
    "name_en": "",
    "lat": 36.407884,
    "lng": 139.825558,
    "category": "shrine",
    "prefecture": "tochigi",
    "osm_id": 4327094789,
    "spot_type": "data_spot",
    "data_source": "osm"
  },
  {
    "name": "星宮神社",
    "name_en": "",
    "lat": 36.42403,
    "lng": 139.857217,
    "category": "shrine",
    "prefecture": "tochigi",
    "osm_id": 4327146991,
    "spot_type": "data_spot",
    "data_source": "osm"
  },
  {
    "name": "名称不明",
    "name_en": "",
    "lat": 36.2954818,
    "lng": 139.3724506,
    "category": "onsen",
    "prefecture": "tochigi",
    "osm_id": 4329372304,
    "spot_type": "data_spot",
    "data_source": "osm"
  },
  {
    "name": "三嶋神社",
    "name_en": "",
    "lat": 36.405561,
    "lng": 139.853517,
    "category": "shrine",
    "prefecture": "tochigi",
    "osm_id": 4329811596,
    "spot_type": "data_spot",
    "data_source": "osm"
  },
  {
    "name": "橘神社",
    "name_en": "",
    "lat": 36.398176,
    "lng": 139.842057,
    "category": "shrine",
    "prefecture": "tochigi",
    "osm_id": 4329811794,
    "spot_type": "data_spot",
    "data_source": "osm"
  },
  {
    "name": "鷲宮神社",
    "name_en": "",
    "lat": 36.40671,
    "lng": 139.832644,
    "category": "shrine",
    "prefecture": "tochigi",
    "osm_id": 4329812213,
    "spot_type": "data_spot",
    "data_source": "osm"
  },
  {
    "name": "稲荷神社",
    "name_en": "",
    "lat": 36.402098,
    "lng": 139.851572,
    "category": "shrine",
    "prefecture": "tochigi",
    "osm_id": 4329820289,
    "spot_type": "data_spot",
    "data_source": "osm"
  },
  {
    "name": "宝光院",
    "name_en": "",
    "lat": 36.429385,
    "lng": 139.871873,
    "category": "temple",
    "prefecture": "tochigi",
    "osm_id": 4329930693,
    "spot_type": "data_spot",
    "data_source": "osm"
  },
  {
    "name": "名称不明",
    "name_en": "",
    "lat": 36.2904642,
    "lng": 139.3567241,
    "category": "shrine",
    "prefecture": "tochigi",
    "osm_id": 4335308561,
    "spot_type": "data_spot",
    "data_source": "osm"
  },
  {
    "name": "河越大越神社",
    "name_en": "",
    "lat": 36.390171,
    "lng": 139.846472,
    "category": "shrine",
    "prefecture": "tochigi",
    "osm_id": 4337454207,
    "spot_type": "data_spot",
    "data_source": "osm"
  },
  {
    "name": "惣宮神社",
    "name_en": "",
    "lat": 36.367195,
    "lng": 139.845763,
    "category": "shrine",
    "prefecture": "tochigi",
    "osm_id": 4337517390,
    "spot_type": "data_spot",
    "data_source": "osm"
  },
  {
    "name": "三光神社",
    "name_en": "",
    "lat": 36.372391,
    "lng": 139.851782,
    "category": "shrine",
    "prefecture": "tochigi",
    "osm_id": 4337568408,
    "spot_type": "data_spot",
    "data_source": "osm"
  },
  {
    "name": "名草厳島神社",
    "name_en": "",
    "lat": 36.4301769,
    "lng": 139.4468873,
    "category": "shrine",
    "prefecture": "tochigi",
    "osm_id": 4338173347,
    "spot_type": "data_spot",
    "data_source": "osm"
  },
  {
    "name": "熊埜神社",
    "name_en": "",
    "lat": 36.3761359,
    "lng": 139.3745795,
    "category": "shrine",
    "prefecture": "tochigi",
    "osm_id": 4338627564,
    "spot_type": "data_spot",
    "data_source": "osm"
  },
  {
    "name": "伏見稲荷神社",
    "name_en": "",
    "lat": 36.3774601,
    "lng": 139.3681365,
    "category": "shrine",
    "prefecture": "tochigi",
    "osm_id": 4338654138,
    "spot_type": "data_spot",
    "data_source": "osm"
  },
  {
    "name": "恵性院",
    "name_en": "",
    "lat": 36.3826953,
    "lng": 139.3719715,
    "category": "temple",
    "prefecture": "tochigi",
    "osm_id": 4338659935,
    "spot_type": "data_spot",
    "data_source": "osm"
  },
  {
    "name": "日限地蔵尊 観音院",
    "name_en": "",
    "lat": 36.4114716,
    "lng": 139.3474618,
    "category": "temple",
    "prefecture": "tochigi",
    "osm_id": 4338689026,
    "spot_type": "data_spot",
    "data_source": "osm"
  },
  {
    "name": "諏訪神社",
    "name_en": "",
    "lat": 36.4117534,
    "lng": 139.3471387,
    "category": "shrine",
    "prefecture": "tochigi",
    "osm_id": 4338689027,
    "spot_type": "data_spot",
    "data_source": "osm"
  },
  {
    "name": "重恩寺",
    "name_en": "",
    "lat": 36.4129812,
    "lng": 139.3478568,
    "category": "temple",
    "prefecture": "tochigi",
    "osm_id": 4338689028,
    "spot_type": "data_spot",
    "data_source": "osm"
  },
  {
    "name": "妙力神社",
    "name_en": "",
    "lat": 36.3915753,
    "lng": 139.3601074,
    "category": "shrine",
    "prefecture": "tochigi",
    "osm_id": 4339002099,
    "spot_type": "data_spot",
    "data_source": "osm"
  },
  {
    "name": "富士獄神社",
    "name_en": "",
    "lat": 36.3851012,
    "lng": 139.3665875,
    "category": "shrine",
    "prefecture": "tochigi",
    "osm_id": 4340647412,
    "spot_type": "data_spot",
    "data_source": "osm"
  },
  {
    "name": "八坂神社",
    "name_en": "",
    "lat": 36.3788503,
    "lng": 139.36845,
    "category": "shrine",
    "prefecture": "tochigi",
    "osm_id": 4340647427,
    "spot_type": "data_spot",
    "data_source": "osm"
  },
  {
    "name": "天満宮",
    "name_en": "",
    "lat": 36.3910583,
    "lng": 139.3785818,
    "category": "shrine",
    "prefecture": "tochigi",
    "osm_id": 4340799809,
    "spot_type": "data_spot",
    "data_source": "osm"
  },
  {
    "name": "春日神社",
    "name_en": "",
    "lat": 36.3974215,
    "lng": 139.3839044,
    "category": "shrine",
    "prefecture": "tochigi",
    "osm_id": 4340799811,
    "spot_type": "data_spot",
    "data_source": "osm"
  },
  {
    "name": "日枝神社",
    "name_en": "",
    "lat": 36.3792044,
    "lng": 139.382615,
    "category": "shrine",
    "prefecture": "tochigi",
    "osm_id": 4340799832,
    "spot_type": "data_spot",
    "data_source": "osm"
  },
  {
    "name": "新田稲荷",
    "name_en": "",
    "lat": 36.3710012,
    "lng": 139.3721164,
    "category": "shrine",
    "prefecture": "tochigi",
    "osm_id": 4342132653,
    "spot_type": "data_spot",
    "data_source": "osm"
  },
  {
    "name": "三島神社",
    "name_en": "",
    "lat": 36.3596681,
    "lng": 139.3893488,
    "category": "shrine",
    "prefecture": "tochigi",
    "osm_id": 4342145918,
    "spot_type": "data_spot",
    "data_source": "osm"
  },
  {
    "name": "八雲神社",
    "name_en": "",
    "lat": 36.3985011,
    "lng": 139.4308695,
    "category": "shrine",
    "prefecture": "tochigi",
    "osm_id": 4342253021,
    "spot_type": "data_spot",
    "data_source": "osm"
  },
  {
    "name": "松田神社",
    "name_en": "",
    "lat": 36.3962757,
    "lng": 139.4263045,
    "category": "shrine",
    "prefecture": "tochigi",
    "osm_id": 4342253024,
    "spot_type": "data_spot",
    "data_source": "osm"
  },
  {
    "name": "織姫神社",
    "name_en": "",
    "lat": 36.3893022,
    "lng": 139.42082,
    "category": "shrine",
    "prefecture": "tochigi",
    "osm_id": 4342253051,
    "spot_type": "data_spot",
    "data_source": "osm"
  },
  {
    "name": "八坂神社",
    "name_en": "",
    "lat": 36.3861704,
    "lng": 139.4192537,
    "category": "shrine",
    "prefecture": "tochigi",
    "osm_id": 4342253053,
    "spot_type": "data_spot",
    "data_source": "osm"
  },
  {
    "name": "善光寺",
    "name_en": "",
    "lat": 36.3860184,
    "lng": 139.4162575,
    "category": "temple",
    "prefecture": "tochigi",
    "osm_id": 4342253056,
    "spot_type": "data_spot",
    "data_source": "osm"
  },
  {
    "name": "喜福寺",
    "name_en": "",
    "lat": 36.385259,
    "lng": 139.4273877,
    "category": "temple",
    "prefecture": "tochigi",
    "osm_id": 4342253066,
    "spot_type": "data_spot",
    "data_source": "osm"
  },
  {
    "name": "琴平神社",
    "name_en": "",
    "lat": 36.3850428,
    "lng": 139.4258192,
    "category": "shrine",
    "prefecture": "tochigi",
    "osm_id": 4342253067,
    "spot_type": "data_spot",
    "data_source": "osm"
  },
  {
    "name": "境宮神社",
    "name_en": "",
    "lat": 36.3825678,
    "lng": 139.4155721,
    "category": "shrine",
    "prefecture": "tochigi",
    "osm_id": 4342253068,
    "spot_type": "data_spot",
    "data_source": "osm"
  },
  {
    "name": "産泰神社",
    "name_en": "",
    "lat": 36.376594,
    "lng": 139.4141783,
    "category": "shrine",
    "prefecture": "tochigi",
    "osm_id": 4342253075,
    "spot_type": "data_spot",
    "data_source": "osm"
  },
  {
    "name": "粟谷神社",
    "name_en": "",
    "lat": 36.3808585,
    "lng": 139.4035765,
    "category": "shrine",
    "prefecture": "tochigi",
    "osm_id": 4342253076,
    "spot_type": "data_spot",
    "data_source": "osm"
  },
  {
    "name": "正蓮寺",
    "name_en": "",
    "lat": 36.385456,
    "lng": 139.4082905,
    "category": "temple",
    "prefecture": "tochigi",
    "osm_id": 4342269849,
    "spot_type": "data_spot",
    "data_source": "osm"
  },
  {
    "name": "冨士嶽神社",
    "name_en": "",
    "lat": 36.3746501,
    "lng": 139.3996591,
    "category": "shrine",
    "prefecture": "tochigi",
    "osm_id": 4342269863,
    "spot_type": "data_spot",
    "data_source": "osm"
  },
  {
    "name": "熊野神社",
    "name_en": "",
    "lat": 36.3710497,
    "lng": 139.393455,
    "category": "shrine",
    "prefecture": "tochigi",
    "osm_id": 4342269867,
    "spot_type": "data_spot",
    "data_source": "osm"
  },
  {
    "name": "風と光のミニミニ博物館",
    "name_en": "",
    "lat": 36.3493107,
    "lng": 139.3992716,
    "category": "museum",
    "prefecture": "tochigi",
    "osm_id": 4344851449,
    "spot_type": "data_spot",
    "data_source": "osm"
  },
  {
    "name": "三崎稲荷神社",
    "name_en": "",
    "lat": 36.36328,
    "lng": 139.3986774,
    "category": "shrine",
    "prefecture": "tochigi",
    "osm_id": 4344912442,
    "spot_type": "data_spot",
    "data_source": "osm"
  },
  {
    "name": "自性院",
    "name_en": "",
    "lat": 36.3617599,
    "lng": 139.3999999,
    "category": "temple",
    "prefecture": "tochigi",
    "osm_id": 4344912444,
    "spot_type": "data_spot",
    "data_source": "osm"
  },
  {
    "name": "妙隆寺",
    "name_en": "",
    "lat": 36.3624339,
    "lng": 139.402843,
    "category": "temple",
    "prefecture": "tochigi",
    "osm_id": 4344912446,
    "spot_type": "data_spot",
    "data_source": "osm"
  },
  {
    "name": "満願寺",
    "name_en": "",
    "lat": 36.3293231,
    "lng": 139.7878931,
    "category": "temple",
    "prefecture": "tochigi",
    "osm_id": 4348217075,
    "spot_type": "data_spot",
    "data_source": "osm"
  },
  {
    "name": "雷電神社",
    "name_en": "",
    "lat": 36.3527017,
    "lng": 139.3811744,
    "category": "shrine",
    "prefecture": "tochigi",
    "osm_id": 4349670724,
    "spot_type": "data_spot",
    "data_source": "osm"
  },
  {
    "name": "天満宮",
    "name_en": "",
    "lat": 36.3051743,
    "lng": 139.7988261,
    "category": "shrine",
    "prefecture": "tochigi",
    "osm_id": 4352060206,
    "spot_type": "data_spot",
    "data_source": "osm"
  },
  {
    "name": "石打こぶ観音",
    "name_en": "",
    "lat": 36.2665428,
    "lng": 139.4402119,
    "category": "temple",
    "prefecture": "tochigi",
    "osm_id": 4355930709,
    "spot_type": "data_spot",
    "data_source": "osm"
  },
  {
    "name": "桐生自動車博物館",
    "name_en": "",
    "lat": 36.3719982,
    "lng": 139.3507585,
    "category": "museum",
    "prefecture": "tochigi",
    "osm_id": 4358128035,
    "spot_type": "data_spot",
    "data_source": "osm"
  },
  {
    "name": "国谷",
    "name_en": "Kuniya",
    "lat": 36.4515561,
    "lng": 139.8238137,
    "category": "station",
    "prefecture": "tochigi",
    "osm_id": 4358153720,
    "spot_type": "data_spot",
    "data_source": "osm"
  },
  {
    "name": "壬生",
    "name_en": "Mibu",
    "lat": 36.4226613,
    "lng": 139.8051121,
    "category": "station",
    "prefecture": "tochigi",
    "osm_id": 4358153721,
    "spot_type": "data_spot",
    "data_source": "osm"
  },
  {
    "name": "石橋",
    "name_en": "Ishibashi",
    "lat": 36.4364953,
    "lng": 139.8665122,
    "category": "station",
    "prefecture": "tochigi",
    "osm_id": 4358903093,
    "spot_type": "data_spot",
    "data_source": "osm"
  },
  {
    "name": "門田稲荷神社",
    "name_en": "",
    "lat": 36.3239897,
    "lng": 139.4354848,
    "category": "shrine",
    "prefecture": "tochigi",
    "osm_id": 4365433930,
    "spot_type": "data_spot",
    "data_source": "osm"
  },
  {
    "name": "道の駅めぬま",
    "name_en": "",
    "lat": 36.2147108,
    "lng": 139.3699071,
    "category": "rest_area",
    "prefecture": "tochigi",
    "osm_id": 4385801193,
    "spot_type": "data_spot",
    "data_source": "osm"
  },
  {
    "name": "コインスナック ジョイフル24",
    "name_en": "",
    "lat": 36.2691159,
    "lng": 139.4502834,
    "category": "rest_area",
    "prefecture": "tochigi",
    "osm_id": 4391510490,
    "spot_type": "data_spot",
    "data_source": "osm"
  },
  {
    "name": "和泉天満宮",
    "name_en": "",
    "lat": 36.3221833,
    "lng": 139.6804012,
    "category": "shrine",
    "prefecture": "tochigi",
    "osm_id": 4394284459,
    "spot_type": "data_spot",
    "data_source": "osm"
  },
  {
    "name": "根渡神社",
    "name_en": "",
    "lat": 36.2925972,
    "lng": 139.7122659,
    "category": "shrine",
    "prefecture": "tochigi",
    "osm_id": 4395623846,
    "spot_type": "data_spot",
    "data_source": "osm"
  },
  {
    "name": "円明寺",
    "name_en": "",
    "lat": 36.2926753,
    "lng": 139.7126628,
    "category": "temple",
    "prefecture": "tochigi",
    "osm_id": 4395630673,
    "spot_type": "data_spot",
    "data_source": "osm"
  },
  {
    "name": "神倉神社",
    "name_en": "",
    "lat": 36.2833049,
    "lng": 139.7092784,
    "category": "shrine",
    "prefecture": "tochigi",
    "osm_id": 4395630674,
    "spot_type": "data_spot",
    "data_source": "osm"
  },
  {
    "name": "八幡宮",
    "name_en": "",
    "lat": 36.2806092,
    "lng": 139.6879939,
    "category": "shrine",
    "prefecture": "tochigi",
    "osm_id": 4395768667,
    "spot_type": "data_spot",
    "data_source": "osm"
  },
  {
    "name": "日迢寺",
    "name_en": "",
    "lat": 36.589163,
    "lng": 139.7936333,
    "category": "temple",
    "prefecture": "tochigi",
    "osm_id": 4412667906,
    "spot_type": "data_spot",
    "data_source": "osm"
  },
  {
    "name": "男浅間神社",
    "name_en": "",
    "lat": 36.3322392,
    "lng": 139.4431619,
    "category": "shrine",
    "prefecture": "tochigi",
    "osm_id": 4417780624,
    "spot_type": "data_spot",
    "data_source": "osm"
  },
  {
    "name": "信行寺",
    "name_en": "",
    "lat": 36.3683081,
    "lng": 139.7049806,
    "category": "temple",
    "prefecture": "tochigi",
    "osm_id": 4427182294,
    "spot_type": "data_spot",
    "data_source": "osm"
  },
  {
    "name": "黒磯",
    "name_en": "Kuroiso",
    "lat": 36.9701908,
    "lng": 140.0601121,
    "category": "station",
    "prefecture": "tochigi",
    "osm_id": 4437997066,
    "spot_type": "data_spot",
    "data_source": "osm"
  },
  {
    "name": "牛来寺",
    "name_en": "",
    "lat": 36.3609281,
    "lng": 139.7335679,
    "category": "temple",
    "prefecture": "tochigi",
    "osm_id": 4439004858,
    "spot_type": "data_spot",
    "data_source": "osm"
  },
  {
    "name": "動物舎",
    "name_en": "",
    "lat": 36.5689226,
    "lng": 139.88712,
    "category": "zoo",
    "prefecture": "tochigi",
    "osm_id": 4444013163,
    "spot_type": "data_spot",
    "data_source": "osm"
  },
  {
    "name": "名称不明",
    "name_en": "",
    "lat": 36.2912281,
    "lng": 140.255295,
    "category": "shrine",
    "prefecture": "tochigi",
    "osm_id": 4461286961,
    "spot_type": "data_spot",
    "data_source": "osm"
  },
  {
    "name": "星宮神社",
    "name_en": "",
    "lat": 36.3089011,
    "lng": 139.6070741,
    "category": "shrine",
    "prefecture": "tochigi",
    "osm_id": 4469527682,
    "spot_type": "data_spot",
    "data_source": "osm"
  },
  {
    "name": "観音寺",
    "name_en": "",
    "lat": 36.3112673,
    "lng": 139.5726219,
    "category": "temple",
    "prefecture": "tochigi",
    "osm_id": 4469941346,
    "spot_type": "data_spot",
    "data_source": "osm"
  },
  {
    "name": "浄泉寺",
    "name_en": "",
    "lat": 36.31433,
    "lng": 139.5852952,
    "category": "temple",
    "prefecture": "tochigi",
    "osm_id": 4478173711,
    "spot_type": "data_spot",
    "data_source": "osm"
  },
  {
    "name": "長沼八幡宮",
    "name_en": "",
    "lat": 36.368854,
    "lng": 139.9288025,
    "category": "shrine",
    "prefecture": "tochigi",
    "osm_id": 4531147282,
    "spot_type": "data_spot",
    "data_source": "osm"
  },
  {
    "name": "宗光寺",
    "name_en": "",
    "lat": 36.3609316,
    "lng": 139.9319085,
    "category": "temple",
    "prefecture": "tochigi",
    "osm_id": 4531147283,
    "spot_type": "data_spot",
    "data_source": "osm"
  },
  {
    "name": "宝寿院明覚寺",
    "name_en": "",
    "lat": 36.8155175,
    "lng": 140.0648824,
    "category": "temple",
    "prefecture": "tochigi",
    "osm_id": 4537599515,
    "spot_type": "data_spot",
    "data_source": "osm"
  },
  {
    "name": "白鬚神社",
    "name_en": "",
    "lat": 36.3273999,
    "lng": 139.4790478,
    "category": "shrine",
    "prefecture": "tochigi",
    "osm_id": 4547915761,
    "spot_type": "data_spot",
    "data_source": "osm"
  },
  {
    "name": "八幡神社",
    "name_en": "",
    "lat": 36.9026968,
    "lng": 140.0751955,
    "category": "shrine",
    "prefecture": "tochigi",
    "osm_id": 4548717829,
    "spot_type": "data_spot",
    "data_source": "osm"
  },
  {
    "name": "今泉神社",
    "name_en": "",
    "lat": 36.3841847,
    "lng": 139.7520752,
    "category": "shrine",
    "prefecture": "tochigi",
    "osm_id": 4574406626,
    "spot_type": "data_spot",
    "data_source": "osm"
  },
  {
    "name": "大宮神社",
    "name_en": "",
    "lat": 36.3918888,
    "lng": 139.7588934,
    "category": "shrine",
    "prefecture": "tochigi",
    "osm_id": 4574406629,
    "spot_type": "data_spot",
    "data_source": "osm"
  },
  {
    "name": "櫻木神社",
    "name_en": "",
    "lat": 36.4132789,
    "lng": 139.7861983,
    "category": "shrine",
    "prefecture": "tochigi",
    "osm_id": 4580603477,
    "spot_type": "data_spot",
    "data_source": "osm"
  },
  {
    "name": "西光寺",
    "name_en": "",
    "lat": 36.3987854,
    "lng": 139.7901519,
    "category": "temple",
    "prefecture": "tochigi",
    "osm_id": 4580603514,
    "spot_type": "data_spot",
    "data_source": "osm"
  },
  {
    "name": "鹿嶋神社",
    "name_en": "",
    "lat": 36.5384414,
    "lng": 139.6902285,
    "category": "shrine",
    "prefecture": "tochigi",
    "osm_id": 4583496457,
    "spot_type": "data_spot",
    "data_source": "osm"
  },
  {
    "name": "宝城寺",
    "name_en": "",
    "lat": 36.5395446,
    "lng": 139.6876858,
    "category": "temple",
    "prefecture": "tochigi",
    "osm_id": 4583496485,
    "spot_type": "data_spot",
    "data_source": "osm"
  },
  {
    "name": "日向神社",
    "name_en": "",
    "lat": 36.5655039,
    "lng": 139.7162142,
    "category": "shrine",
    "prefecture": "tochigi",
    "osm_id": 4586300609,
    "spot_type": "data_spot",
    "data_source": "osm"
  },
  {
    "name": "広宣寺",
    "name_en": "",
    "lat": 36.6022001,
    "lng": 139.6039956,
    "category": "temple",
    "prefecture": "tochigi",
    "osm_id": 4586351536,
    "spot_type": "data_spot",
    "data_source": "osm"
  },
  {
    "name": "瑞光寺",
    "name_en": "",
    "lat": 36.5808884,
    "lng": 139.7353757,
    "category": "temple",
    "prefecture": "tochigi",
    "osm_id": 4593766924,
    "spot_type": "data_spot",
    "data_source": "osm"
  },
  {
    "name": "高靇神社",
    "name_en": "Takao Shrine",
    "lat": 36.5523699,
    "lng": 139.852813,
    "category": "shrine",
    "prefecture": "tochigi",
    "osm_id": 4601513545,
    "spot_type": "data_spot",
    "data_source": "osm"
  },
  {
    "name": "能仁寺",
    "name_en": "",
    "lat": 36.4345853,
    "lng": 140.0639179,
    "category": "temple",
    "prefecture": "tochigi",
    "osm_id": 4664831632,
    "spot_type": "data_spot",
    "data_source": "osm"
  },
  {
    "name": "多々良",
    "name_en": "Tatara",
    "lat": 36.2734012,
    "lng": 139.5005392,
    "category": "station",
    "prefecture": "tochigi",
    "osm_id": 4703818697,
    "spot_type": "data_spot",
    "data_source": "osm"
  },
  {
    "name": "篠塚稲荷神社",
    "name_en": "",
    "lat": 36.24153,
    "lng": 139.4431937,
    "category": "shrine",
    "prefecture": "tochigi",
    "osm_id": 4707772489,
    "spot_type": "data_spot",
    "data_source": "osm"
  },
  {
    "name": "柳生",
    "name_en": "Yagyu",
    "lat": 36.2066499,
    "lng": 139.65959,
    "category": "station",
    "prefecture": "tochigi",
    "osm_id": 4708704099,
    "spot_type": "data_spot",
    "data_source": "osm"
  },
  {
    "name": "板倉東洋大前",
    "name_en": "Itakura Toyodai-mae",
    "lat": 36.2221334,
    "lng": 139.648542,
    "category": "station",
    "prefecture": "tochigi",
    "osm_id": 4708704149,
    "spot_type": "data_spot",
    "data_source": "osm"
  },
  {
    "name": "大日神社",
    "name_en": "",
    "lat": 36.2008845,
    "lng": 139.8376111,
    "category": "shrine",
    "prefecture": "tochigi",
    "osm_id": 4715922753,
    "spot_type": "data_spot",
    "data_source": "osm"
  },
  {
    "name": "円満寺",
    "name_en": "",
    "lat": 36.2085678,
    "lng": 139.7667251,
    "category": "temple",
    "prefecture": "tochigi",
    "osm_id": 4715923025,
    "spot_type": "data_spot",
    "data_source": "osm"
  },
  {
    "name": "鷲宮神社",
    "name_en": "",
    "lat": 36.3879483,
    "lng": 139.7214105,
    "category": "shrine",
    "prefecture": "tochigi",
    "osm_id": 4729142674,
    "spot_type": "data_spot",
    "data_source": "osm"
  },
  {
    "name": "佛国寺",
    "name_en": "",
    "lat": 36.5079654,
    "lng": 140.2777317,
    "category": "temple",
    "prefecture": "tochigi",
    "osm_id": 4735785209,
    "spot_type": "data_spot",
    "data_source": "osm"
  },
  {
    "name": "八幡宮",
    "name_en": "",
    "lat": 36.4288571,
    "lng": 139.7424342,
    "category": "shrine",
    "prefecture": "tochigi",
    "osm_id": 4741376914,
    "spot_type": "data_spot",
    "data_source": "osm"
  },
  {
    "name": "琴平神社",
    "name_en": "",
    "lat": 36.4596612,
    "lng": 139.7538611,
    "category": "shrine",
    "prefecture": "tochigi",
    "osm_id": 4741377037,
    "spot_type": "data_spot",
    "data_source": "osm"
  },
  {
    "name": "厳島神社",
    "name_en": "",
    "lat": 36.3157016,
    "lng": 139.6929015,
    "category": "shrine",
    "prefecture": "tochigi",
    "osm_id": 4744359276,
    "spot_type": "data_spot",
    "data_source": "osm"
  },
  {
    "name": "宇都宮神社",
    "name_en": "",
    "lat": 36.4173715,
    "lng": 139.4905939,
    "category": "shrine",
    "prefecture": "tochigi",
    "osm_id": 4794577846,
    "spot_type": "data_spot",
    "data_source": "osm"
  },
  {
    "name": "名称不明",
    "name_en": "",
    "lat": 36.3659643,
    "lng": 139.6253387,
    "category": "shrine",
    "prefecture": "tochigi",
    "osm_id": 4811020700,
    "spot_type": "data_spot",
    "data_source": "osm"
  },
  {
    "name": "熊野神社",
    "name_en": "",
    "lat": 36.3330157,
    "lng": 139.381087,
    "category": "shrine",
    "prefecture": "tochigi",
    "osm_id": 4852887103,
    "spot_type": "data_spot",
    "data_source": "osm"
  },
  {
    "name": "吉祥寺",
    "name_en": "",
    "lat": 36.2788969,
    "lng": 139.3636739,
    "category": "temple",
    "prefecture": "tochigi",
    "osm_id": 4854422827,
    "spot_type": "data_spot",
    "data_source": "osm"
  },
  {
    "name": "春日神社鳥居",
    "name_en": "",
    "lat": 36.2979586,
    "lng": 139.3723502,
    "category": "shrine",
    "prefecture": "tochigi",
    "osm_id": 4880072644,
    "spot_type": "data_spot",
    "data_source": "osm"
  },
  {
    "name": "三杉神社",
    "name_en": "",
    "lat": 36.2066295,
    "lng": 139.7746029,
    "category": "shrine",
    "prefecture": "tochigi",
    "osm_id": 4881535048,
    "spot_type": "data_spot",
    "data_source": "osm"
  },
  {
    "name": "妙西寺",
    "name_en": "",
    "lat": 36.3058406,
    "lng": 139.9775218,
    "category": "temple",
    "prefecture": "tochigi",
    "osm_id": 4884256671,
    "spot_type": "data_spot",
    "data_source": "osm"
  },
  {
    "name": "ニ木成神社",
    "name_en": "",
    "lat": 36.2984031,
    "lng": 139.9797431,
    "category": "shrine",
    "prefecture": "tochigi",
    "osm_id": 4885265942,
    "spot_type": "data_spot",
    "data_source": "osm"
  },
  {
    "name": "茶釜稲荷神社",
    "name_en": "",
    "lat": 36.3029148,
    "lng": 139.9773391,
    "category": "shrine",
    "prefecture": "tochigi",
    "osm_id": 4885265944,
    "spot_type": "data_spot",
    "data_source": "osm"
  },
  {
    "name": "八雲神社",
    "name_en": "",
    "lat": 36.3277322,
    "lng": 139.445421,
    "category": "shrine",
    "prefecture": "tochigi",
    "osm_id": 4896815770,
    "spot_type": "data_spot",
    "data_source": "osm"
  },
  {
    "name": "名称不明",
    "name_en": "",
    "lat": 36.5280136,
    "lng": 140.172304,
    "category": "rest_area",
    "prefecture": "tochigi",
    "osm_id": 4908550724,
    "spot_type": "data_spot",
    "data_source": "osm"
  },
  {
    "name": "永明寺",
    "name_en": "",
    "lat": 36.203706,
    "lng": 139.5848391,
    "category": "shrine",
    "prefecture": "tochigi",
    "osm_id": 5017661303,
    "spot_type": "data_spot",
    "data_source": "osm"
  },
  {
    "name": "泉福寺",
    "name_en": "",
    "lat": 36.6678282,
    "lng": 139.7646778,
    "category": "temple",
    "prefecture": "tochigi",
    "osm_id": 5027711197,
    "spot_type": "data_spot",
    "data_source": "osm"
  },
  {
    "name": "高龗神社",
    "name_en": "",
    "lat": 36.6660914,
    "lng": 139.7691345,
    "category": "shrine",
    "prefecture": "tochigi",
    "osm_id": 5027711483,
    "spot_type": "data_spot",
    "data_source": "osm"
  },
  {
    "name": "松尾神社",
    "name_en": "",
    "lat": 36.6939726,
    "lng": 139.7543196,
    "category": "shrine",
    "prefecture": "tochigi",
    "osm_id": 5028337830,
    "spot_type": "data_spot",
    "data_source": "osm"
  },
  {
    "name": "冠稲荷神社",
    "name_en": "",
    "lat": 36.2686962,
    "lng": 139.3514954,
    "category": "shrine",
    "prefecture": "tochigi",
    "osm_id": 5056353507,
    "spot_type": "data_spot",
    "data_source": "osm"
  },
  {
    "name": "白河市歴史民俗資料館",
    "name_en": "",
    "lat": 37.1206737,
    "lng": 140.2287258,
    "category": "museum",
    "prefecture": "tochigi",
    "osm_id": 5129702621,
    "spot_type": "data_spot",
    "data_source": "osm"
  },
  {
    "name": "名称不明",
    "name_en": "Foot Onsen",
    "lat": 36.8068465,
    "lng": 139.4245995,
    "category": "onsen",
    "prefecture": "tochigi",
    "osm_id": 5160785821,
    "spot_type": "data_spot",
    "data_source": "osm"
  },
  {
    "name": "名称不明",
    "name_en": "",
    "lat": 36.8054348,
    "lng": 139.4213819,
    "category": "onsen",
    "prefecture": "tochigi",
    "osm_id": 5160785822,
    "spot_type": "data_spot",
    "data_source": "osm"
  },
  {
    "name": "清巖寺",
    "name_en": "",
    "lat": 36.5620489,
    "lng": 139.8936345,
    "category": "temple",
    "prefecture": "tochigi",
    "osm_id": 5176948343,
    "spot_type": "data_spot",
    "data_source": "osm"
  },
  {
    "name": "那須テディベアミュージアム",
    "name_en": "",
    "lat": 37.0492155,
    "lng": 140.03934,
    "category": "museum",
    "prefecture": "tochigi",
    "osm_id": 5240430429,
    "spot_type": "data_spot",
    "data_source": "osm"
  },
  {
    "name": "宇都宮美術館",
    "name_en": "",
    "lat": 36.6070486,
    "lng": 139.8740635,
    "category": "museum",
    "prefecture": "tochigi",
    "osm_id": 5287312591,
    "spot_type": "data_spot",
    "data_source": "osm"
  },
  {
    "name": "喜連川温泉 露天風呂",
    "name_en": "",
    "lat": 36.7234255,
    "lng": 140.0314841,
    "category": "onsen",
    "prefecture": "tochigi",
    "osm_id": 5305178733,
    "spot_type": "data_spot",
    "data_source": "osm"
  },
  {
    "name": "Fish and Forest Observation Garden",
    "name_en": "",
    "lat": 36.7553163,
    "lng": 139.4509439,
    "category": "museum",
    "prefecture": "tochigi",
    "osm_id": 5327072944,
    "spot_type": "data_spot",
    "data_source": "osm"
  },
  {
    "name": "名称不明",
    "name_en": "",
    "lat": 36.8592693,
    "lng": 139.7223915,
    "category": "rest_area",
    "prefecture": "tochigi",
    "osm_id": 5329574650,
    "spot_type": "data_spot",
    "data_source": "osm"
  },
  {
    "name": "高龗神社",
    "name_en": "",
    "lat": 36.6730486,
    "lng": 139.9419299,
    "category": "shrine",
    "prefecture": "tochigi",
    "osm_id": 5350977852,
    "spot_type": "data_spot",
    "data_source": "osm"
  },
  {
    "name": "山崎稲荷神社",
    "name_en": "",
    "lat": 36.3785795,
    "lng": 139.3758926,
    "category": "shrine",
    "prefecture": "tochigi",
    "osm_id": 5351993886,
    "spot_type": "data_spot",
    "data_source": "osm"
  },
  {
    "name": "天満宮",
    "name_en": "",
    "lat": 36.3510937,
    "lng": 139.7800793,
    "category": "shrine",
    "prefecture": "tochigi",
    "osm_id": 5371731291,
    "spot_type": "data_spot",
    "data_source": "osm"
  },
  {
    "name": "蔵美館",
    "name_en": "",
    "lat": 36.3039519,
    "lng": 139.8783162,
    "category": "museum",
    "prefecture": "tochigi",
    "osm_id": 5377321134,
    "spot_type": "data_spot",
    "data_source": "osm"
  },
  {
    "name": "東照温泉",
    "name_en": "",
    "lat": 36.7608468,
    "lng": 139.7556498,
    "category": "onsen",
    "prefecture": "tochigi",
    "osm_id": 5456550204,
    "spot_type": "data_spot",
    "data_source": "osm"
  },
  {
    "name": "妙道寺",
    "name_en": "",
    "lat": 36.8128812,
    "lng": 139.9319487,
    "category": "temple",
    "prefecture": "tochigi",
    "osm_id": 5456655413,
    "spot_type": "data_spot",
    "data_source": "osm"
  },
  {
    "name": "スーパー銭湯コール宇都宮",
    "name_en": "",
    "lat": 36.5419988,
    "lng": 139.8855067,
    "category": "onsen",
    "prefecture": "tochigi",
    "osm_id": 5468458333,
    "spot_type": "data_spot",
    "data_source": "osm"
  },
  {
    "name": "あしかがフラワーパーク",
    "name_en": "Ashikaga Flower Park",
    "lat": 36.3151578,
    "lng": 139.5183925,
    "category": "station",
    "prefecture": "tochigi",
    "osm_id": 5536927326,
    "spot_type": "data_spot",
    "data_source": "osm"
  },
  {
    "name": "新鹿沼",
    "name_en": "Shin-Kanuma",
    "lat": 36.5572113,
    "lng": 139.7449379,
    "category": "station",
    "prefecture": "tochigi",
    "osm_id": 5586958187,
    "spot_type": "data_spot",
    "data_source": "osm"
  },
  {
    "name": "樅山",
    "name_en": "Momiyama",
    "lat": 36.5330893,
    "lng": 139.7418934,
    "category": "station",
    "prefecture": "tochigi",
    "osm_id": 5586958219,
    "spot_type": "data_spot",
    "data_source": "osm"
  },
  {
    "name": "下小代",
    "name_en": "Shimo-Goshiro",
    "lat": 36.6513639,
    "lng": 139.713918,
    "category": "station",
    "prefecture": "tochigi",
    "osm_id": 5587060435,
    "spot_type": "data_spot",
    "data_source": "osm"
  },
  {
    "name": "板荷",
    "name_en": "Itaga",
    "lat": 36.6202016,
    "lng": 139.7076968,
    "category": "station",
    "prefecture": "tochigi",
    "osm_id": 5587062040,
    "spot_type": "data_spot",
    "data_source": "osm"
  },
  {
    "name": "雀宮神社",
    "name_en": "",
    "lat": 36.4974655,
    "lng": 139.8737052,
    "category": "shrine",
    "prefecture": "tochigi",
    "osm_id": 5599987496,
    "spot_type": "data_spot",
    "data_source": "osm"
  },
  {
    "name": "松本稲荷大明神",
    "name_en": "",
    "lat": 36.2710329,
    "lng": 139.4473383,
    "category": "shrine",
    "prefecture": "tochigi",
    "osm_id": 5643890211,
    "spot_type": "data_spot",
    "data_source": "osm"
  },
  {
    "name": "梅宮神社",
    "name_en": "",
    "lat": 36.2664672,
    "lng": 139.4645535,
    "category": "shrine",
    "prefecture": "tochigi",
    "osm_id": 5645855918,
    "spot_type": "data_spot",
    "data_source": "osm"
  },
  {
    "name": "阿夫利神社",
    "name_en": "",
    "lat": 36.259257,
    "lng": 139.4465662,
    "category": "shrine",
    "prefecture": "tochigi",
    "osm_id": 5657480928,
    "spot_type": "data_spot",
    "data_source": "osm"
  },
  {
    "name": "八幡神社",
    "name_en": "",
    "lat": 36.2493124,
    "lng": 139.4410308,
    "category": "shrine",
    "prefecture": "tochigi",
    "osm_id": 5657480933,
    "spot_type": "data_spot",
    "data_source": "osm"
  },
  {
    "name": "秋葉神社",
    "name_en": "",
    "lat": 36.2400941,
    "lng": 139.450131,
    "category": "shrine",
    "prefecture": "tochigi",
    "osm_id": 5657480938,
    "spot_type": "data_spot",
    "data_source": "osm"
  },
  {
    "name": "黒子",
    "name_en": "Kurogo",
    "lat": 36.2473114,
    "lng": 139.9749928,
    "category": "station",
    "prefecture": "tochigi",
    "osm_id": 5659757930,
    "spot_type": "data_spot",
    "data_source": "osm"
  },
  {
    "name": "騰波ノ江",
    "name_en": "Tobanoe",
    "lat": 36.2232561,
    "lng": 139.9764351,
    "category": "station",
    "prefecture": "tochigi",
    "osm_id": 5659757948,
    "spot_type": "data_spot",
    "data_source": "osm"
  },
  {
    "name": "大宝",
    "name_en": "Daiho",
    "lat": 36.20309,
    "lng": 139.9702981,
    "category": "station",
    "prefecture": "tochigi",
    "osm_id": 5659757964,
    "spot_type": "data_spot",
    "data_source": "osm"
  },