[
  {
    "name": "大釈迦",
    "name_en": "Daishaka",
    "lat": 40.756701,
    "lng": 140.5876854,
    "category": "station",
    "prefecture": "aomori",
    "osm_id": 263176471,
    "spot_type": "data_spot",
    "data_source": "osm"
  },
  {
    "name": "津軽新城",
    "name_en": "Tsugaru-Shinjo",
    "lat": 40.8280508,
    "lng": 140.6720593,
    "category": "station",
    "prefecture": "aomori",
    "osm_id": 263176826,
    "spot_type": "data_spot",
    "data_source": "osm"
  },
  {
    "name": "石川",
    "name_en": "Ishikawa",
    "lat": 40.5558946,
    "lng": 140.5311758,
    "category": "station",
    "prefecture": "aomori",
    "osm_id": 263177498,
    "spot_type": "data_spot",
    "data_source": "osm"
  },
  {
    "name": "早口",
    "name_en": "Hayaguchi",
    "lat": 40.2711273,
    "lng": 140.4486743,
    "category": "station",
    "prefecture": "aomori",
    "osm_id": 263177838,
    "spot_type": "data_spot",
    "data_source": "osm"
  },
  {
    "name": "糠沢",
    "name_en": "Nukazawa",
    "lat": 40.2510696,
    "lng": 140.3979398,
    "category": "station",
    "prefecture": "aomori",
    "osm_id": 263178489,
    "spot_type": "data_spot",
    "data_source": "osm"
  },
  {
    "name": "前山",
    "name_en": "Maeyama",
    "lat": 40.2146688,
    "lng": 140.3121546,
    "category": "station",
    "prefecture": "aomori",
    "osm_id": 263183406,
    "spot_type": "data_spot",
    "data_source": "osm"
  },
  {
    "name": "小川原",
    "name_en": "Kogawara",
    "lat": 40.7100437,
    "lng": 141.2995492,
    "category": "station",
    "prefecture": "aomori",
    "osm_id": 264186812,
    "spot_type": "data_spot",
    "data_source": "osm"
  },
  {
    "name": "西平内",
    "name_en": "Nishi-Hiranai",
    "lat": 40.917998,
    "lng": 140.9131142,
    "category": "station",
    "prefecture": "aomori",
    "osm_id": 264186817,
    "spot_type": "data_spot",
    "data_source": "osm"
  },
  {
    "name": "小湊",
    "name_en": "Kominato",
    "lat": 40.9298991,
    "lng": 140.9551558,
    "category": "station",
    "prefecture": "aomori",
    "osm_id": 264186859,
    "spot_type": "data_spot",
    "data_source": "osm"
  },
  {
    "name": "向山",
    "name_en": "Mukaiyama",
    "lat": 40.6298319,
    "lng": 141.3705724,
    "category": "station",
    "prefecture": "aomori",
    "osm_id": 264187311,
    "spot_type": "data_spot",
    "data_source": "osm"
  },
  {
    "name": "清水川",
    "name_en": "Shimizugawa",
    "lat": 40.9218213,
    "lng": 141.0245353,
    "category": "station",
    "prefecture": "aomori",
    "osm_id": 264187661,
    "spot_type": "data_spot",
    "data_source": "osm"
  },
  {
    "name": "乙供",
    "name_en": "Ottomo",
    "lat": 40.7798846,
    "lng": 141.213254,
    "category": "station",
    "prefecture": "aomori",
    "osm_id": 264187734,
    "spot_type": "data_spot",
    "data_source": "osm"
  },
  {
    "name": "上北町",
    "name_en": "Kamikitacho",
    "lat": 40.7329536,
    "lng": 141.2646972,
    "category": "station",
    "prefecture": "aomori",
    "osm_id": 264188105,
    "spot_type": "data_spot",
    "data_source": "osm"
  },
  {
    "name": "千曳",
    "name_en": "Chibiki",
    "lat": 40.8044125,
    "lng": 141.1532015,
    "category": "station",
    "prefecture": "aomori",
    "osm_id": 264188264,
    "spot_type": "data_spot",
    "data_source": "osm"
  },
  {
    "name": "矢田前",
    "name_en": "Yadamae",
    "lat": 40.8340044,
    "lng": 140.8072786,
    "category": "station",
    "prefecture": "aomori",
    "osm_id": 264188538,
    "spot_type": "data_spot",
    "data_source": "osm"
  },
  {
    "name": "奥内",
    "name_en": "Okunai",
    "lat": 40.9031582,
    "lng": 140.6722426,
    "category": "station",
    "prefecture": "aomori",
    "osm_id": 264219303,
    "spot_type": "data_spot",
    "data_source": "osm"
  },
  {
    "name": "瀬辺地",
    "name_en": "Seheji",
    "lat": 41.0081542,
    "lng": 140.6482762,
    "category": "station",
    "prefecture": "aomori",
    "osm_id": 264219305,
    "spot_type": "data_spot",
    "data_source": "osm"
  },
  {
    "name": "左堰",
    "name_en": "Hidariseki",
    "lat": 40.916939,
    "lng": 140.665996,
    "category": "station",
    "prefecture": "aomori",
    "osm_id": 264219307,
    "spot_type": "data_spot",
    "data_source": "osm"
  },
  {
    "name": "中沢",
    "name_en": "Nakasawa",
    "lat": 40.9494006,
    "lng": 140.656176,
    "category": "station",
    "prefecture": "aomori",
    "osm_id": 264219321,
    "spot_type": "data_spot",
    "data_source": "osm"
  },
  {
    "name": "後潟",
    "name_en": "Ushirogata",
    "lat": 40.931769,
    "lng": 140.662389,
    "category": "station",
    "prefecture": "aomori",
    "osm_id": 264219903,
    "spot_type": "data_spot",
    "data_source": "osm"
  },
  {
    "name": "郷沢",
    "name_en": "Gōsawa",
    "lat": 40.9881647,
    "lng": 140.652257,
    "category": "station",
    "prefecture": "aomori",
    "osm_id": 264220540,
    "spot_type": "data_spot",
    "data_source": "osm"
  },
  {
    "name": "蓬田",
    "name_en": "Yomogita",
    "lat": 40.9696192,
    "lng": 140.6546303,
    "category": "station",
    "prefecture": "aomori",
    "osm_id": 264220685,
    "spot_type": "data_spot",
    "data_source": "osm"
  },
  {
    "name": "油川",
    "name_en": "Aburakawa",
    "lat": 40.857101,
    "lng": 140.6901901,
    "category": "station",
    "prefecture": "aomori",
    "osm_id": 264220977,
    "spot_type": "data_spot",
    "data_source": "osm"
  },
  {
    "name": "津軽宮田",
    "name_en": "Tsugaru-Miyata",
    "lat": 40.8869529,
    "lng": 140.6744297,
    "category": "station",
    "prefecture": "aomori",
    "osm_id": 264221039,
    "spot_type": "data_spot",
    "data_source": "osm"
  },
  {
    "name": "有戸",
    "name_en": "Arito",
    "lat": 40.9139798,
    "lng": 141.1893847,
    "category": "station",
    "prefecture": "aomori",
    "osm_id": 264222011,
    "spot_type": "data_spot",
    "data_source": "osm"
  },
  {
    "name": "赤川",
    "name_en": "Akagawa",
    "lat": 41.2679458,
    "lng": 141.2092635,
    "category": "station",
    "prefecture": "aomori",
    "osm_id": 264222084,
    "spot_type": "data_spot",
    "data_source": "osm"
  },
  {
    "name": "近川",
    "name_en": "Chikagawa",
    "lat": 41.1916065,
    "lng": 141.2791747,
    "category": "station",
    "prefecture": "aomori",
    "osm_id": 264222152,
    "spot_type": "data_spot",
    "data_source": "osm"
  },
  {
    "name": "吹越",
    "name_en": "Fukkoshi",
    "lat": 41.0221752,
    "lng": 141.2465754,
    "category": "station",
    "prefecture": "aomori",
    "osm_id": 264222627,
    "spot_type": "data_spot",
    "data_source": "osm"
  },
  {
    "name": "有畑",
    "name_en": "Arihata",
    "lat": 41.132216,
    "lng": 141.276828,
    "category": "station",
    "prefecture": "aomori",
    "osm_id": 264222828,
    "spot_type": "data_spot",
    "data_source": "osm"
  },
  {
    "name": "金谷沢",
    "name_en": "Kanayasawa",
    "lat": 41.229304,
    "lng": 141.248172,
    "category": "station",
    "prefecture": "aomori",
    "osm_id": 264222966,
    "spot_type": "data_spot",
    "data_source": "osm"
  },
  {
    "name": "鮫",
    "name_en": "Same",
    "lat": 40.5306459,
    "lng": 141.5553941,
    "category": "station",
    "prefecture": "aomori",
    "osm_id": 264224666,
    "spot_type": "data_spot",
    "data_source": "osm"
  },
  {
    "name": "大久喜",
    "name_en": "Okuki",
    "lat": 40.4947811,
    "lng": 141.623437,
    "category": "station",
    "prefecture": "aomori",
    "osm_id": 264224668,
    "spot_type": "data_spot",
    "data_source": "osm"
  },
  {
    "name": "陸奥白浜",
    "name_en": "Mutsu-Shirahama",
    "lat": 40.5165172,
    "lng": 141.5926763,
    "category": "station",
    "prefecture": "aomori",
    "osm_id": 264224956,
    "spot_type": "data_spot",
    "data_source": "osm"
  },
  {
    "name": "長苗代",
    "name_en": "Naganawashiro",
    "lat": 40.5214187,
    "lng": 141.4658712,
    "category": "station",
    "prefecture": "aomori",
    "osm_id": 264225049,
    "spot_type": "data_spot",
    "data_source": "osm"
  },
  {
    "name": "階上",
    "name_en": "Hashikami",
    "lat": 40.4564163,
    "lng": 141.6654833,
    "category": "station",
    "prefecture": "aomori",
    "osm_id": 264225103,
    "spot_type": "data_spot",
    "data_source": "osm"
  },
  {
    "name": "本八戸",
    "name_en": "Hon-Hachinohe",
    "lat": 40.5162548,
    "lng": 141.4888217,
    "category": "station",
    "prefecture": "aomori",
    "osm_id": 264225107,
    "spot_type": "data_spot",
    "data_source": "osm"
  },
  {
    "name": "小中野",
    "name_en": "Konakano",
    "lat": 40.5187266,
    "lng": 141.5102394,
    "category": "station",
    "prefecture": "aomori",
    "osm_id": 264225152,
    "spot_type": "data_spot",
    "data_source": "osm"
  },
  {
    "name": "白銀",
    "name_en": "Shirogane",
    "lat": 40.5220565,
    "lng": 141.541828,
    "category": "station",
    "prefecture": "aomori",
    "osm_id": 264225154,
    "spot_type": "data_spot",
    "data_source": "osm"
  },
  {
    "name": "金浜",
    "name_en": "Kanehama",
    "lat": 40.476223,
    "lng": 141.6370382,
    "category": "station",
    "prefecture": "aomori",
    "osm_id": 264225268,
    "spot_type": "data_spot",
    "data_source": "osm"
  },
  {
    "name": "陸奥湊",
    "name_en": "Mutsu-Minato",
    "lat": 40.5230771,
    "lng": 141.5273194,
    "category": "station",
    "prefecture": "aomori",
    "osm_id": 264225270,
    "spot_type": "data_spot",
    "data_source": "osm"
  },
  {
    "name": "追良瀬",
    "name_en": "Oirase",
    "lat": 40.6861241,
    "lng": 139.9704062,
    "category": "station",
    "prefecture": "aomori",
    "osm_id": 264225488,
    "spot_type": "data_spot",
    "data_source": "osm"
  },
  {
    "name": "大戸瀬",
    "name_en": "Ōdose",
    "lat": 40.7597811,
    "lng": 140.0340443,
    "category": "station",
    "prefecture": "aomori",
    "osm_id": 264225492,
    "spot_type": "data_spot",
    "data_source": "osm"
  },
  {
    "name": "鰺ヶ沢",
    "name_en": "Ajigasawa",
    "lat": 40.775478,
    "lng": 140.2208595,
    "category": "station",
    "prefecture": "aomori",
    "osm_id": 264225687,
    "spot_type": "data_spot",
    "data_source": "osm"
  },
  {
    "name": "陸奥赤石",
    "name_en": "Mutsu-Akaishi",
    "lat": 40.762164,
    "lng": 140.162814,
    "category": "station",
    "prefecture": "aomori",
    "osm_id": 264225713,
    "spot_type": "data_spot",
    "data_source": "osm"
  },
  {
    "name": "板柳",
    "name_en": "Itayanagi",
    "lat": 40.6974388,
    "lng": 140.4616109,
    "category": "station",
    "prefecture": "aomori",
    "osm_id": 264225728,
    "spot_type": "data_spot",
    "data_source": "osm"
  },
  {
    "name": "藤崎",
    "name_en": "Fujisaki",
    "lat": 40.6540867,
    "lng": 140.4998012,
    "category": "station",
    "prefecture": "aomori",
    "osm_id": 264225883,
    "spot_type": "data_spot",
    "data_source": "osm"
  },
  {
    "name": "五所川原",
    "name_en": "Goshogawara",
    "lat": 40.8089316,
    "lng": 140.4480325,
    "category": "station",
    "prefecture": "aomori",
    "osm_id": 264225886,
    "spot_type": "data_spot",
    "data_source": "osm"
  },
  {
    "name": "種差海岸",
    "name_en": "Tanesashi-Kaigan",
    "lat": 40.5070498,
    "lng": 141.6072643,
    "category": "station",
    "prefecture": "aomori",
    "osm_id": 264226195,
    "spot_type": "data_spot",
    "data_source": "osm"
  },
  {
    "name": "中田",
    "name_en": "Nakata",
    "lat": 40.7872729,
    "lng": 140.364149,
    "category": "station",
    "prefecture": "aomori",
    "osm_id": 264226240,
    "spot_type": "data_spot",
    "data_source": "osm"
  },
  {
    "name": "越水",
    "name_en": "Koshimizu",
    "lat": 40.7873575,
    "lng": 140.2978654,
    "category": "station",
    "prefecture": "aomori",
    "osm_id": 264226244,
    "spot_type": "data_spot",
    "data_source": "osm"
  },
  {
    "name": "木造",
    "name_en": "Kizukuri",
    "lat": 40.802565,
    "lng": 140.388475,
    "category": "station",
    "prefecture": "aomori",
    "osm_id": 264226395,
    "spot_type": "data_spot",
    "data_source": "osm"
  },
  {
    "name": "風合瀬",
    "name_en": "Kasose",
    "lat": 40.7318298,
    "lng": 139.9945608,
    "category": "station",
    "prefecture": "aomori",
    "osm_id": 264226424,
    "spot_type": "data_spot",
    "data_source": "osm"
  },
  {
    "name": "北金ヶ沢",
    "name_en": "Kita-Kanegasawa",
    "lat": 40.7458106,
    "lng": 140.0955488,
    "category": "station",
    "prefecture": "aomori",
    "osm_id": 264226488,
    "spot_type": "data_spot",
    "data_source": "osm"
  },
  {
    "name": "鶴泊",
    "name_en": "Tsurudomari",
    "lat": 40.7365993,
    "lng": 140.4373796,
    "category": "station",
    "prefecture": "aomori",
    "osm_id": 264226665,
    "spot_type": "data_spot",
    "data_source": "osm"
  },
  {
    "name": "千畳敷",
    "name_en": "Senjōjiki",
    "lat": 40.7679416,
    "lng": 140.0551245,
    "category": "station",
    "prefecture": "aomori",
    "osm_id": 264226725,
    "spot_type": "data_spot",
    "data_source": "osm"
  },
  {
    "name": "柴平",
    "name_en": "Shibahira",
    "lat": 40.2308177,
    "lng": 140.7880208,
    "category": "station",
    "prefecture": "aomori",
    "osm_id": 264227011,
    "spot_type": "data_spot",
    "data_source": "osm"
  },
  {
    "name": "末広",
    "name_en": "Suehiro",
    "lat": 40.2298371,
    "lng": 140.7373831,
    "category": "station",
    "prefecture": "aomori",
    "osm_id": 264227062,
    "spot_type": "data_spot",
    "data_source": "osm"
  },
  {
    "name": "林崎",
    "name_en": "Hayashzaki",
    "lat": 40.6751643,
    "lng": 140.4806331,
    "category": "station",
    "prefecture": "aomori",
    "osm_id": 264227159,
    "spot_type": "data_spot",
    "data_source": "osm"
  },
  {
    "name": "陸奥森田",
    "name_en": "Mutsu-Morita",
    "lat": 40.7817786,
    "lng": 140.3384754,
    "category": "station",
    "prefecture": "aomori",
    "osm_id": 264227349,
    "spot_type": "data_spot",
    "data_source": "osm"
  },
  {
    "name": "陸奥柳田",
    "name_en": "Mutsu-Yanagita",
    "lat": 40.7411591,
    "lng": 140.1250127,
    "category": "station",
    "prefecture": "aomori",
    "osm_id": 264227357,
    "spot_type": "data_spot",
    "data_source": "osm"
  },
  {
    "name": "驫木",
    "name_en": "Todoroki",
    "lat": 40.7073745,
    "lng": 139.9832248,
    "category": "station",
    "prefecture": "aomori",
    "osm_id": 264227359,
    "spot_type": "data_spot",
    "data_source": "osm"
  },
  {
    "name": "白神岳登山口",
    "name_en": "Shirakamidaketozanguchi",
    "lat": 40.512981,
    "lng": 139.9503412,
    "category": "station",
    "prefecture": "aomori",
    "osm_id": 264227484,
    "spot_type": "data_spot",
    "data_source": "osm"
  },
  {
    "name": "十二湖",
    "name_en": "Jūniko",
    "lat": 40.5515624,
    "lng": 139.9422281,
    "category": "station",
    "prefecture": "aomori",
    "osm_id": 264227559,
    "spot_type": "data_spot",
    "data_source": "osm"
  },
  {
    "name": "艫作",
    "name_en": "Henashi",
    "lat": 40.6082019,
    "lng": 139.8645962,
    "category": "station",
    "prefecture": "aomori",
    "osm_id": 264227563,
    "spot_type": "data_spot",
    "data_source": "osm"
  },
  {
    "name": "ウェスパ椿山",
    "name_en": "WeSPa-Tsubakiyama",
    "lat": 40.5933058,
    "lng": 139.871245,
    "category": "station",
    "prefecture": "aomori",
    "osm_id": 264227648,
    "spot_type": "data_spot",
    "data_source": "osm"
  },
  {
    "name": "鳥形",
    "name_en": "Torigata",
    "lat": 40.270982,
    "lng": 140.036791,
    "category": "station",
    "prefecture": "aomori",
    "osm_id": 264227652,
    "spot_type": "data_spot",
    "data_source": "osm"
  },
  {
    "name": "滝ノ間",
    "name_en": "Takinoma",
    "lat": 40.3802448,
    "lng": 140.0019305,
    "category": "station",
    "prefecture": "aomori",
    "osm_id": 264227662,
    "spot_type": "data_spot",
    "data_source": "osm"
  },
  {
    "name": "大間越",
    "name_en": "Ōmagoshi",
    "lat": 40.4924738,
    "lng": 139.9501457,
    "category": "station",
    "prefecture": "aomori",
    "osm_id": 264227686,
    "spot_type": "data_spot",
    "data_source": "osm"
  },
  {
    "name": "松神",
    "name_en": "Matsukami",
    "lat": 40.5347511,
    "lng": 139.946761,
    "category": "station",
    "prefecture": "aomori",
    "osm_id": 264227688,
    "spot_type": "data_spot",
    "data_source": "osm"
  },
  {
    "name": "横磯",
    "name_en": "Yokoiso",
    "lat": 40.6300899,
    "lng": 139.8913309,
    "category": "station",
    "prefecture": "aomori",
    "osm_id": 264227789,
    "spot_type": "data_spot",
    "data_source": "osm"
  },
  {
    "name": "陸奥沢辺",
    "name_en": "Mutsu-Sawabe",
    "lat": 40.586154,
    "lng": 139.8954495,
    "category": "station",
    "prefecture": "aomori",
    "osm_id": 264227791,
    "spot_type": "data_spot",
    "data_source": "osm"
  },
  {
    "name": "沢目",
    "name_en": "Sawame",
    "lat": 40.2965565,
    "lng": 140.0377814,
    "category": "station",
    "prefecture": "aomori",
    "osm_id": 264227900,
    "spot_type": "data_spot",
    "data_source": "osm"
  },
  {
    "name": "陸奥岩崎",
    "name_en": "Mutsu-Iwasaki",
    "lat": 40.5831185,
    "lng": 139.9244996,
    "category": "station",
    "prefecture": "aomori",
    "osm_id": 264228069,
    "spot_type": "data_spot",
    "data_source": "osm"
  },
  {
    "name": "岩館",
    "name_en": "Iwadate",
    "lat": 40.40601,
    "lng": 139.966707,
    "category": "station",
    "prefecture": "aomori",
    "osm_id": 264228118,
    "spot_type": "data_spot",
    "data_source": "osm"
  },
  {
    "name": "北能代",
    "name_en": "Kita-Noshiro",
    "lat": 40.2541585,
    "lng": 140.0337522,
    "category": "station",
    "prefecture": "aomori",
    "osm_id": 264228312,
    "spot_type": "data_spot",
    "data_source": "osm"
  },
  {
    "name": "東八森",
    "name_en": "Higashi-Hachimori",
    "lat": 40.3316572,
    "lng": 140.0325541,
    "category": "station",
    "prefecture": "aomori",
    "osm_id": 264228531,
    "spot_type": "data_spot",
    "data_source": "osm"
  },
  {
    "name": "向能代",
    "name_en": "Mukai-Noshiro",
    "lat": 40.2257476,
    "lng": 140.0392284,
    "category": "station",
    "prefecture": "aomori",
    "osm_id": 264228872,
    "spot_type": "data_spot",
    "data_source": "osm"
  },
  {
    "name": "斗米",
    "name_en": "Tomai",
    "lat": 40.2853003,
    "lng": 141.2910403,
    "category": "station",
    "prefecture": "aomori",
    "osm_id": 264458184,
    "spot_type": "data_spot",
    "data_source": "osm"
  },
  {
    "name": "金田一温泉",
    "name_en": "Kintaichi-Onsen",
    "lat": 40.323397,
    "lng": 141.3037952,
    "category": "station",
    "prefecture": "aomori",
    "osm_id": 264458270,
    "spot_type": "data_spot",
    "data_source": "osm"
  },
  {
    "name": "一戸",
    "name_en": "Ichinohe",
    "lat": 40.2103856,
    "lng": 141.297461,
    "category": "station",
    "prefecture": "aomori",
    "osm_id": 264458997,
    "spot_type": "data_spot",
    "data_source": "osm"
  },
  {
    "name": "小栗山",
    "name_en": "Koguriyama",
    "lat": 40.5643684,
    "lng": 140.4863414,
    "category": "station",
    "prefecture": "aomori",
    "osm_id": 264461805,
    "spot_type": "data_spot",
    "data_source": "osm"
  },
  {
    "name": "義塾高校前",
    "name_en": "Gijukukōkōmae",
    "lat": 40.5557908,
    "lng": 140.5276294,
    "category": "station",
    "prefecture": "aomori",
    "osm_id": 264461817,
    "spot_type": "data_spot",
    "data_source": "osm"
  },
  {
    "name": "鯖石",
    "name_en": "Sabaishi",
    "lat": 40.5356712,
    "lng": 140.552748,
    "category": "station",
    "prefecture": "aomori",
    "osm_id": 264461875,
    "spot_type": "data_spot",
    "data_source": "osm"
  },
  {
    "name": "宿川原",
    "name_en": "Shukugawara",
    "lat": 40.525061,
    "lng": 140.5576756,
    "category": "station",
    "prefecture": "aomori",
    "osm_id": 264461890,
    "spot_type": "data_spot",
    "data_source": "osm"
  },
  {
    "name": "津軽大沢",
    "name_en": "Tsugaru-Ōsawa",
    "lat": 40.5579188,
    "lng": 140.5163177,
    "category": "station",
    "prefecture": "aomori",
    "osm_id": 264461931,
    "spot_type": "data_spot",
    "data_source": "osm"
  },
  {
    "name": "聖愛中高前",
    "name_en": "Seiaichūkōmae",
    "lat": 40.576923,
    "lng": 140.472782,
    "category": "station",
    "prefecture": "aomori",
    "osm_id": 264461933,
    "spot_type": "data_spot",
    "data_source": "osm"
  },
  {
    "name": "石川プール前",
    "name_en": "Ishikawapūrumae",
    "lat": 40.5431741,
    "lng": 140.5504352,
    "category": "station",
    "prefecture": "aomori",
    "osm_id": 264461969,
    "spot_type": "data_spot",
    "data_source": "osm"
  },
  {
    "name": "石川",
    "name_en": "Ishikawa",
    "lat": 40.5509406,
    "lng": 140.5413931,
    "category": "station",
    "prefecture": "aomori",
    "osm_id": 264462035,
    "spot_type": "data_spot",
    "data_source": "osm"
  },
  {
    "name": "境松",
    "name_en": "Sakaimatsu",
    "lat": 40.6491481,
    "lng": 140.5760103,
    "category": "station",
    "prefecture": "aomori",
    "osm_id": 264462137,
    "spot_type": "data_spot",
    "data_source": "osm"
  },
  {
    "name": "柏農高校前",
    "name_en": "Hakunōkōkōmae",
    "lat": 40.602194,
    "lng": 140.564712,
    "category": "station",
    "prefecture": "aomori",
    "osm_id": 264462140,
    "spot_type": "data_spot",
    "data_source": "osm"
  },
  {
    "name": "運動公園前",
    "name_en": "Undōkōenmae",
    "lat": 40.5894754,
    "lng": 140.5033572,
    "category": "station",
    "prefecture": "aomori",
    "osm_id": 264462141,
    "spot_type": "data_spot",
    "data_source": "osm"
  },
  {
    "name": "平賀",
    "name_en": "Hiraka",
    "lat": 40.5850906,
    "lng": 140.5610626,
    "category": "station",
    "prefecture": "aomori",
    "osm_id": 264462177,
    "spot_type": "data_spot",
    "data_source": "osm"
  },
  {
    "name": "新里",
    "name_en": "Nisato",
    "lat": 40.5873575,
    "lng": 140.5203011,
    "category": "station",
    "prefecture": "aomori",
    "osm_id": 264462216,
    "spot_type": "data_spot",
    "data_source": "osm"
  },
  {
    "name": "館田",
    "name_en": "Tachita",
    "lat": 40.58517,
    "lng": 140.5382608,
    "category": "station",
    "prefecture": "aomori",
    "osm_id": 264462219,
    "spot_type": "data_spot",
    "data_source": "osm"
  },
  {
    "name": "田舎館",
    "name_en": "Inakadate",
    "lat": 40.6371912,
    "lng": 140.5710997,
    "category": "station",
    "prefecture": "aomori",
    "osm_id": 264462237,
    "spot_type": "data_spot",
    "data_source": "osm"
  },
  {
    "name": "尾上高校前",
    "name_en": "Onoekōkōmae",
    "lat": 40.625486,
    "lng": 140.5774322,
    "category": "station",
    "prefecture": "aomori",
    "osm_id": 264462275,
    "spot_type": "data_spot",
    "data_source": "osm"
  },
  {
    "name": "弘前",
    "name_en": "Hirosaki",
    "lat": 40.5985978,
    "lng": 140.4857687,
    "category": "station",
    "prefecture": "aomori",
    "osm_id": 264462308,
    "spot_type": "data_spot",
    "data_source": "osm"
  },
  {
    "name": "津軽尾上",
    "name_en": "Tsugaru-Onoe",
    "lat": 40.614302,
    "lng": 140.5764866,
    "category": "station",
    "prefecture": "aomori",
    "osm_id": 264462320,
    "spot_type": "data_spot",
    "data_source": "osm"
  },
  {
    "name": "鷹巣",
    "name_en": "Takanosu",
    "lat": 40.2319768,
    "lng": 140.3694382,
    "category": "station",
    "prefecture": "aomori",
    "osm_id": 264868844,
    "spot_type": "data_spot",
    "data_source": "osm"
  },
  {
    "name": "西鷹巣",
    "name_en": "Nishi-Takanosu",
    "lat": 40.2246416,
    "lng": 140.3578959,
    "category": "station",
    "prefecture": "aomori",
    "osm_id": 264873286,
    "spot_type": "data_spot",
    "data_source": "osm"
  },
  {
    "name": "大沢内",
    "name_en": "Ōzawanai",
    "lat": 40.9396439,
    "lng": 140.4373349,
    "category": "station",
    "prefecture": "aomori",
    "osm_id": 264877435,
    "spot_type": "data_spot",
    "data_source": "osm"
  },
  {
    "name": "深郷田",
    "name_en": "Fukōda",
    "lat": 40.951035,
    "lng": 140.4409287,
    "category": "station",
    "prefecture": "aomori",
    "osm_id": 264877466,
    "spot_type": "data_spot",
    "data_source": "osm"
  },
  {
    "name": "川倉",
    "name_en": "Kawakura",
    "lat": 40.925997,
    "lng": 140.443775,
    "category": "station",
    "prefecture": "aomori",
    "osm_id": 264877467,
    "spot_type": "data_spot",
    "data_source": "osm"
  },
  {
    "name": "津軽中里",
    "name_en": "Tsugaru-Nakasato",
    "lat": 40.9646016,
    "lng": 140.4410935,
    "category": "station",
    "prefecture": "aomori",
    "osm_id": 264877488,
    "spot_type": "data_spot",
    "data_source": "osm"
  },
  {
    "name": "毘沙門",
    "name_en": "Bishamon",
    "lat": 40.8579612,
    "lng": 140.4777669,
    "category": "station",
    "prefecture": "aomori",
    "osm_id": 264877504,
    "spot_type": "data_spot",
    "data_source": "osm"
  },
  {
    "name": "十川",
    "name_en": "Togawa",
    "lat": 40.817456,
    "lng": 140.4566692,
    "category": "station",
    "prefecture": "aomori",
    "osm_id": 264877518,
    "spot_type": "data_spot",
    "data_source": "osm"
  },
  {
    "name": "津軽飯詰",
    "name_en": "Tsugaru-Iizume",
    "lat": 40.829504,
    "lng": 140.479389,
    "category": "station",
    "prefecture": "aomori",
    "osm_id": 264877531,
    "spot_type": "data_spot",
    "data_source": "osm"
  },
  {
    "name": "芦野公園",
    "name_en": "Ashino-Kōen",
    "lat": 40.9123303,
    "lng": 140.4513781,
    "category": "station",
    "prefecture": "aomori",
    "osm_id": 264877533,
    "spot_type": "data_spot",
    "data_source": "osm"
  },
  {
    "name": "津軽五所川原",
    "name_en": "Tsugaru Goshogawara",
    "lat": 40.809895,
    "lng": 140.4485834,
    "category": "station",
    "prefecture": "aomori",
    "osm_id": 264877535,
    "spot_type": "data_spot",
    "data_source": "osm"
  },
  {
    "name": "嘉瀬",
    "name_en": "Kase",
    "lat": 40.8813162,
    "lng": 140.4691368,
    "category": "station",
    "prefecture": "aomori",
    "osm_id": 264877568,
    "spot_type": "data_spot",
    "data_source": "osm"
  },
  {
    "name": "諏訪ノ平",
    "name_en": "Suwanotaira",
    "lat": 40.4150219,
    "lng": 141.3048002,
    "category": "station",
    "prefecture": "aomori",
    "osm_id": 265838037,
    "spot_type": "data_spot",
    "data_source": "osm"
  },
  {
    "name": "剣吉",
    "name_en": "Kenyoshi",
    "lat": 40.4487365,
    "lng": 141.3463976,
    "category": "station",
    "prefecture": "aomori",
    "osm_id": 265838210,
    "spot_type": "data_spot",
    "data_source": "osm"
  },
  {
    "name": "苫米地",
    "name_en": "Tomabechi",
    "lat": 40.4669488,
    "lng": 141.3750713,
    "category": "station",
    "prefecture": "aomori",
    "osm_id": 265838230,
    "spot_type": "data_spot",
    "data_source": "osm"
  },
  {
    "name": "青森県立美術館",
    "name_en": "Aomori Prefectural Museum",
    "lat": 40.8072917,
    "lng": 140.7008863,
    "category": "museum",
    "prefecture": "aomori",
    "osm_id": 318411516,
    "spot_type": "data_spot",
    "data_source": "osm"
  },
  {
    "name": "青函トンネル記念館",
    "name_en": "Seikan Tunnel Museum",
    "lat": 41.2539479,
    "lng": 140.3466908,
    "category": "museum",
    "prefecture": "aomori",
    "osm_id": 462263857,
    "spot_type": "data_spot",
    "data_source": "osm"
  },
  {
    "name": "八戸港白銀西防波堤西灯台",
    "name_en": "",
    "lat": 40.5382641,
    "lng": 141.5341363,
    "category": "lighthouse",
    "prefecture": "aomori",
    "osm_id": 1196973887,
    "spot_type": "data_spot",
    "data_source": "osm"
  },
  {
    "name": "八戸港白銀北防波堤灯台",
    "name_en": "",
    "lat": 40.5393995,
    "lng": 141.5482447,
    "category": "lighthouse",
    "prefecture": "aomori",
    "osm_id": 1196973907,
    "spot_type": "data_spot",
    "data_source": "osm"
  },
  {
    "name": "八戸港中央防波堤北灯台",
    "name_en": "",
    "lat": 40.5658441,
    "lng": 141.5349892,
    "category": "lighthouse",
    "prefecture": "aomori",
    "osm_id": 1196973908,
    "spot_type": "data_spot",
    "data_source": "osm"
  },
  {
    "name": "八戸港白銀西防波堤東灯台",
    "name_en": "",
    "lat": 40.537783,
    "lng": 141.5468392,
    "category": "lighthouse",
    "prefecture": "aomori",
    "osm_id": 1196973925,
    "spot_type": "data_spot",
    "data_source": "osm"
  },
  {
    "name": "八戸港八太郎東防波堤灯台",
    "name_en": "",
    "lat": 40.5524208,
    "lng": 141.5145467,
    "category": "lighthouse",
    "prefecture": "aomori",
    "osm_id": 1197003633,
    "spot_type": "data_spot",
    "data_source": "osm"
  },
  {
    "name": "ヨシ島灯台",
    "name_en": "YOSHIJIMA lighthouse",
    "lat": 41.4436033,
    "lng": 140.0330684,
    "category": "lighthouse",
    "prefecture": "aomori",
    "osm_id": 1211612045,
    "spot_type": "data_spot",
    "data_source": "osm"
  },
  {
    "name": "野内",
    "name_en": "Nonai",
    "lat": 40.8461439,
    "lng": 140.8169874,
    "category": "station",
    "prefecture": "aomori",
    "osm_id": 1504476443,
    "spot_type": "data_spot",
    "data_source": "osm"
  },
  {
    "name": "名称不明",
    "name_en": "",
    "lat": 40.9903677,
    "lng": 140.651087,
    "category": "shrine",
    "prefecture": "aomori",
    "osm_id": 1517104596,
    "spot_type": "data_spot",
    "data_source": "osm"
  },
  {
    "name": "名称不明",
    "name_en": "",
    "lat": 40.8750004,
    "lng": 140.6781729,
    "category": "shrine",
    "prefecture": "aomori",
    "osm_id": 1517803031,
    "spot_type": "data_spot",
    "data_source": "osm"
  },
  {
    "name": "名称不明",
    "name_en": "",
    "lat": 40.8896625,
    "lng": 140.6731092,
    "category": "shrine",
    "prefecture": "aomori",
    "osm_id": 1517803100,
    "spot_type": "data_spot",
    "data_source": "osm"
  },
  {
    "name": "名称不明",
    "name_en": "",
    "lat": 40.8929059,
    "lng": 140.6732953,
    "category": "shrine",
    "prefecture": "aomori",
    "osm_id": 1517803124,
    "spot_type": "data_spot",
    "data_source": "osm"
  },
  {
    "name": "名称不明",
    "name_en": "",
    "lat": 40.928163,
    "lng": 140.6633397,
    "category": "shrine",
    "prefecture": "aomori",
    "osm_id": 1517803265,
    "spot_type": "data_spot",
    "data_source": "osm"
  },
  {
    "name": "あきた白神",
    "name_en": "Akitashirakami",
    "lat": 40.3866983,
    "lng": 139.9875353,
    "category": "station",
    "prefecture": "aomori",
    "osm_id": 1842264396,
    "spot_type": "data_spot",
    "data_source": "osm"
  },
  {
    "name": "大戸瀬観音",
    "name_en": "",
    "lat": 40.7681414,
    "lng": 140.0534878,
    "category": "temple",
    "prefecture": "aomori",
    "osm_id": 1842530541,
    "spot_type": "data_spot",
    "data_source": "osm"
  },
  {
    "name": "館浜漁港灯台",
    "name_en": "TATEHAMA fishing port lighthouse",
    "lat": 41.4445197,
    "lng": 140.0420592,
    "category": "lighthouse",
    "prefecture": "aomori",
    "osm_id": 1924799765,
    "spot_type": "data_spot",
    "data_source": "osm"
  },
  {
    "name": "松前港灯台",
    "name_en": "MATSUMAE port lighthouse",
    "lat": 41.4208493,
    "lng": 140.0943226,
    "category": "lighthouse",
    "prefecture": "aomori",
    "osm_id": 1924800905,
    "spot_type": "data_spot",
    "data_source": "osm"
  },
  {
    "name": "松前灯台",
    "name_en": "MATSUMAE lighthouse",
    "lat": 41.4189039,
    "lng": 140.0886953,
    "category": "lighthouse",
    "prefecture": "aomori",
    "osm_id": 1924801254,
    "spot_type": "data_spot",
    "data_source": "osm"
  },
  {
    "name": "札前漁港灯台",
    "name_en": "SATSUMAE fishing port lighthouse",
    "lat": 41.4682988,
    "lng": 140.0285119,
    "category": "lighthouse",
    "prefecture": "aomori",
    "osm_id": 1924801735,
    "spot_type": "data_spot",
    "data_source": "osm"
  },
  {
    "name": "朝日漁港灯台",
    "name_en": "ASAHI fishing port lighthouse",
    "lat": 41.4292739,
    "lng": 140.1268145,
    "category": "lighthouse",
    "prefecture": "aomori",
    "osm_id": 1924801825,
    "spot_type": "data_spot",
    "data_source": "osm"
  },
  {
    "name": "赤神漁港灯台",
    "name_en": "AKAGAMI fishing port lighthouse",
    "lat": 41.4800031,
    "lng": 140.0234587,
    "category": "lighthouse",
    "prefecture": "aomori",
    "osm_id": 1924803451,
    "spot_type": "data_spot",
    "data_source": "osm"
  },
  {
    "name": "静浦漁港灯台",
    "name_en": "SHIZU-URA fishing port lighthouse",
    "lat": 41.4839395,
    "lng": 140.0190888,
    "category": "lighthouse",
    "prefecture": "aomori",
    "osm_id": 1924803982,
    "spot_type": "data_spot",
    "data_source": "osm"
  },
  {
    "name": "茂草漁港灯台",
    "name_en": "MOGUSA fishing port lighthouse",
    "lat": 41.4939614,
    "lng": 140.0135527,
    "category": "lighthouse",
    "prefecture": "aomori",
    "osm_id": 1924806259,
    "spot_type": "data_spot",
    "data_source": "osm"
  },
  {
    "name": "清部漁港灯台",
    "name_en": "KIYOBE fishing port lighthouse",
    "lat": 41.5215979,
    "lng": 140.0025455,
    "category": "lighthouse",
    "prefecture": "aomori",
    "osm_id": 1924807757,
    "spot_type": "data_spot",
    "data_source": "osm"
  },
  {
    "name": "江良漁港灯台",
    "name_en": "ERA fishing port lighthouse",
    "lat": 41.5454789,
    "lng": 139.9860794,
    "category": "lighthouse",
    "prefecture": "aomori",
    "osm_id": 1924813101,
    "spot_type": "data_spot",
    "data_source": "osm"
  },
  {
    "name": "大沢漁港灯台",
    "name_en": "O-SAWA fishing port lighthouse",
    "lat": 41.4261593,
    "lng": 140.1421214,
    "category": "lighthouse",
    "prefecture": "aomori",
    "osm_id": 1924823638,
    "spot_type": "data_spot",
    "data_source": "osm"
  },
  {
    "name": "白神漁港灯台",
    "name_en": "SHIRAKAMI fishing port lighthouse",
    "lat": 41.4105912,
    "lng": 140.1713575,
    "category": "lighthouse",
    "prefecture": "aomori",
    "osm_id": 1924824373,
    "spot_type": "data_spot",
    "data_source": "osm"
  },
  {
    "name": "白神岬灯台",
    "name_en": "SHIRAKAMI cape lighthouse",
    "lat": 41.3980745,
    "lng": 140.1974272,
    "category": "lighthouse",
    "prefecture": "aomori",
    "osm_id": 1924825185,
    "spot_type": "data_spot",
    "data_source": "osm"
  },
  {
    "name": "徳山大神宮",
    "name_en": "TOKUYAMA DAIJINGUU shrine",
    "lat": 41.4348778,
    "lng": 140.1106312,
    "category": "shrine",
    "prefecture": "aomori",
    "osm_id": 1925286420,
    "spot_type": "data_spot",
    "data_source": "osm"
  },
  {
    "name": "吉岡港灯台",
    "name_en": "YOSHIOKA port lighthouse",
    "lat": 41.4452729,
    "lng": 140.2412919,
    "category": "lighthouse",
    "prefecture": "aomori",
    "osm_id": 1927133935,
    "spot_type": "data_spot",
    "data_source": "osm"
  },
  {
    "name": "館浜稲荷神社",
    "name_en": "TATEHAMA INARI Shrine",
    "lat": 41.4488865,
    "lng": 140.0439434,
    "category": "shrine",
    "prefecture": "aomori",
    "osm_id": 1928762225,
    "spot_type": "data_spot",
    "data_source": "osm"
  },
  {
    "name": "荒神神社",
    "name_en": "ARAGAMI Shrine",
    "lat": 41.5030349,
    "lng": 140.0169354,
    "category": "shrine",
    "prefecture": "aomori",
    "osm_id": 1928874709,
    "spot_type": "data_spot",
    "data_source": "osm"
  },
  {
    "name": "浅間神社",
    "name_en": "ASAMA Shrine",
    "lat": 41.4868402,
    "lng": 140.0237696,
    "category": "shrine",
    "prefecture": "aomori",
    "osm_id": 1928881231,
    "spot_type": "data_spot",
    "data_source": "osm"
  },
  {
    "name": "赤神神社",
    "name_en": "AKAGAMI Shrine",
    "lat": 41.4823192,
    "lng": 140.0269105,
    "category": "shrine",
    "prefecture": "aomori",
    "osm_id": 1928882566,
    "spot_type": "data_spot",
    "data_source": "osm"
  },
  {
    "name": "善知鳥神社",
    "name_en": "Utou shrine",
    "lat": 40.8266592,
    "lng": 140.7427279,
    "category": "shrine",
    "prefecture": "aomori",
    "osm_id": 2343164496,
    "spot_type": "data_spot",
    "data_source": "osm"
  },
  {
    "name": "青森県立郷土館 (Aomori Prefectural Museum)",
    "name_en": "",
    "lat": 40.8272792,
    "lng": 140.748663,
    "category": "museum",
    "prefecture": "aomori",
    "osm_id": 2344127990,
    "spot_type": "data_spot",
    "data_source": "osm"
  },
  {
    "name": "青森市美術館",
    "name_en": "",
    "lat": 40.8262377,
    "lng": 140.7442241,
    "category": "museum",
    "prefecture": "aomori",
    "osm_id": 2345510040,
    "spot_type": "data_spot",
    "data_source": "osm"
  },
  {
    "name": "あおもり北のまほろば歴史館",
    "name_en": "Aomori  Museum Of History",
    "lat": 40.8372734,
    "lng": 140.7252379,
    "category": "museum",
    "prefecture": "aomori",
    "osm_id": 2350408300,
    "spot_type": "data_spot",
    "data_source": "osm"
  },
  {
    "name": "沖館稲荷神社",
    "name_en": "Okidate Inari Shrine",
    "lat": 40.8328657,
    "lng": 140.7228336,
    "category": "shrine",
    "prefecture": "aomori",
    "osm_id": 2350431943,
    "spot_type": "data_spot",
    "data_source": "osm"
  },
  {
    "name": "青森市森林博物館",
    "name_en": "Aomori City Forestry Museum",
    "lat": 40.8315369,
    "lng": 140.7257722,
    "category": "museum",
    "prefecture": "aomori",
    "osm_id": 2350431955,
    "spot_type": "data_spot",
    "data_source": "osm"
  },
  {
    "name": "体験坑道",
    "name_en": "Experience Tunnel",
    "lat": 41.256716,
    "lng": 140.347691,
    "category": "station",
    "prefecture": "aomori",
    "osm_id": 2388548335,
    "spot_type": "data_spot",
    "data_source": "osm"
  },
  {
    "name": "青函トンネル記念館",
    "name_en": "Seikan Tunnel Museum",
    "lat": 41.2540359,
    "lng": 140.3471709,
    "category": "station",
    "prefecture": "aomori",
    "osm_id": 2388548343,
    "spot_type": "data_spot",
    "data_source": "osm"
  },
  {
    "name": "Sukayu Onsen (酸ヶ湯)",
    "name_en": "Sukayu Onsen",
    "lat": 40.6502902,
    "lng": 140.8507657,
    "category": "onsen",
    "prefecture": "aomori",
    "osm_id": 2417779397,
    "spot_type": "data_spot",
    "data_source": "osm"
  },
  {
    "name": "蕪嶋神社",
    "name_en": "Kabushima Shrine",
    "lat": 40.5386334,
    "lng": 141.5576229,
    "category": "shrine",
    "prefecture": "aomori",
    "osm_id": 2417938988,
    "spot_type": "data_spot",
    "data_source": "osm"
  },
  {
    "name": "八戸市博物館",
    "name_en": "Hachinohe City Museum",
    "lat": 40.5085315,
    "lng": 141.4644569,
    "category": "museum",
    "prefecture": "aomori",
    "osm_id": 2422526842,
    "spot_type": "data_spot",
    "data_source": "osm"
  },
  {
    "name": "八戸港河原木南防波堤東灯台",
    "name_en": "",
    "lat": 40.5363316,
    "lng": 141.5332711,
    "category": "lighthouse",
    "prefecture": "aomori",
    "osm_id": 2481695253,
    "spot_type": "data_spot",
    "data_source": "osm"
  },
  {
    "name": "八戸港八太郎北防波堤灯台",
    "name_en": "",
    "lat": 40.5587259,
    "lng": 141.5280048,
    "category": "lighthouse",
    "prefecture": "aomori",
    "osm_id": 2481695278,
    "spot_type": "data_spot",
    "data_source": "osm"
  },
  {
    "name": "竜飛ウィンドパーク展示館",
    "name_en": "",
    "lat": 41.2541342,
    "lng": 140.3464804,
    "category": "museum",
    "prefecture": "aomori",
    "osm_id": 2484550916,
    "spot_type": "data_spot",
    "data_source": "osm"
  },
  {
    "name": "九戸城",
    "name_en": "",
    "lat": 40.2673982,
    "lng": 141.3034652,
    "category": "castle",
    "prefecture": "aomori",
    "osm_id": 2494978395,
    "spot_type": "data_spot",
    "data_source": "osm"
  },
  {
    "name": "恐山菩提寺",
    "name_en": "Osorezan Temple",
    "lat": 41.3272193,
    "lng": 141.0901213,
    "category": "temple",
    "prefecture": "aomori",
    "osm_id": 2501417138,
    "spot_type": "data_spot",
    "data_source": "osm"
  },
  {
    "name": "北沼",
    "name_en": "Kitanuma",
    "lat": 40.5553637,
    "lng": 141.4837672,
    "category": "station",
    "prefecture": "aomori",
    "osm_id": 2520641930,
    "spot_type": "data_spot",
    "data_source": "osm"
  },
  {
    "name": "浅虫温泉",
    "name_en": "Asamushi-Onsen",
    "lat": 40.891134,
    "lng": 140.8624683,
    "category": "station",
    "prefecture": "aomori",
    "osm_id": 2621455092,
    "spot_type": "data_spot",
    "data_source": "osm"
  },
  {
    "name": "田んぼアート",
    "name_en": "Tamboāto",
    "lat": 40.6325032,
    "lng": 140.5738861,
    "category": "station",
    "prefecture": "aomori",
    "osm_id": 2987233557,
    "spot_type": "data_spot",
    "data_source": "osm"
  },
  {
    "name": "八幡宮跡",
    "name_en": "",
    "lat": 40.6421407,
    "lng": 140.5903847,
    "category": "shrine",
    "prefecture": "aomori",
    "osm_id": 2987267845,
    "spot_type": "data_spot",
    "data_source": "osm"
  },
  {
    "name": "日蓮宗 妙経寺",
    "name_en": "",
    "lat": 40.6430727,
    "lng": 140.5996151,
    "category": "temple",
    "prefecture": "aomori",
    "osm_id": 2987339807,
    "spot_type": "data_spot",
    "data_source": "osm"
  },
  {
    "name": "齢松山 感随寺",
    "name_en": "",
    "lat": 40.6431903,
    "lng": 140.5987806,
    "category": "temple",
    "prefecture": "aomori",
    "osm_id": 2987339808,
    "spot_type": "data_spot",
    "data_source": "osm"
  },
  {
    "name": "紫雲山",
    "name_en": "",
    "lat": 40.6441775,
    "lng": 140.5989718,
    "category": "temple",
    "prefecture": "aomori",
    "osm_id": 2987339809,
    "spot_type": "data_spot",
    "data_source": "osm"
  },
  {
    "name": "円覚寺",
    "name_en": "",
    "lat": 40.6473277,
    "lng": 140.5933068,
    "category": "temple",
    "prefecture": "aomori",
    "osm_id": 2988653811,
    "spot_type": "data_spot",
    "data_source": "osm"
  },
  {
    "name": "愛宕山 地蔵院",
    "name_en": "",
    "lat": 40.6393326,
    "lng": 140.6023594,
    "category": "temple",
    "prefecture": "aomori",
    "osm_id": 2988662131,
    "spot_type": "data_spot",
    "data_source": "osm"
  },
  {
    "name": "名称不明",
    "name_en": "",
    "lat": 40.6350304,
    "lng": 140.6262394,
    "category": "temple",
    "prefecture": "aomori",
    "osm_id": 2988662132,
    "spot_type": "data_spot",
    "data_source": "osm"
  },
  {
    "name": "大山祗神社",
    "name_en": "",
    "lat": 40.6323357,
    "lng": 140.6259576,
    "category": "shrine",
    "prefecture": "aomori",
    "osm_id": 2988663034,
    "spot_type": "data_spot",
    "data_source": "osm"
  },
  {
    "name": "津軽こけし館",
    "name_en": "",
    "lat": 40.606429,
    "lng": 140.6764977,
    "category": "museum",
    "prefecture": "aomori",
    "osm_id": 2988685951,
    "spot_type": "data_spot",
    "data_source": "osm"
  },
  {
    "name": "山祇神社",
    "name_en": "",
    "lat": 40.619514,
    "lng": 140.6526829,
    "category": "shrine",
    "prefecture": "aomori",
    "osm_id": 2988769940,
    "spot_type": "data_spot",
    "data_source": "osm"
  },
  {
    "name": "稲荷神社",
    "name_en": "",
    "lat": 40.6275786,
    "lng": 140.6392497,
    "category": "shrine",
    "prefecture": "aomori",
    "osm_id": 2988769942,
    "spot_type": "data_spot",
    "data_source": "osm"
  },
  {
    "name": "田舎館村博物館",
    "name_en": "",
    "lat": 40.6331425,
    "lng": 140.5771881,
    "category": "museum",
    "prefecture": "aomori",
    "osm_id": 2988817343,
    "spot_type": "data_spot",
    "data_source": "osm"
  },
  {
    "name": "名称不明",
    "name_en": "",
    "lat": 40.6389201,
    "lng": 140.6029168,
    "category": "temple",
    "prefecture": "aomori",
    "osm_id": 2988817345,
    "spot_type": "data_spot",
    "data_source": "osm"
  },
  {
    "name": "保福寺",
    "name_en": "",
    "lat": 40.6470757,
    "lng": 140.5922224,
    "category": "temple",
    "prefecture": "aomori",
    "osm_id": 2989474323,
    "spot_type": "data_spot",
    "data_source": "osm"
  },
  {
    "name": "小島山 法音寺",
    "name_en": "SHOUTOUZAN HOUONJI Temple",
    "lat": 41.4675694,
    "lng": 140.0304291,
    "category": "temple",
    "prefecture": "aomori",
    "osm_id": 3076674010,
    "spot_type": "data_spot",
    "data_source": "osm"
  },
  {
    "name": "渡海神社",
    "name_en": "TOKAI Shrine",
    "lat": 41.466271,
    "lng": 140.0295021,
    "category": "shrine",
    "prefecture": "aomori",
    "osm_id": 3076674011,
    "spot_type": "data_spot",
    "data_source": "osm"
  },
  {
    "name": "名称不明",
    "name_en": "",
    "lat": 41.52416,
    "lng": 140.90097,
    "category": "shrine",
    "prefecture": "aomori",
    "osm_id": 3092304625,
    "spot_type": "data_spot",
    "data_source": "osm"
  },
  {
    "name": "Dam museum",
    "name_en": "",
    "lat": 40.59752,
    "lng": 140.69239,
    "category": "museum",
    "prefecture": "aomori",
    "osm_id": 3093376314,
    "spot_type": "data_spot",
    "data_source": "osm"
  },
  {
    "name": "名称不明",
    "name_en": "",
    "lat": 40.5316064,
    "lng": 140.7597019,
    "category": "shrine",
    "prefecture": "aomori",
    "osm_id": 3093376429,
    "spot_type": "data_spot",
    "data_source": "osm"
  },
  {
    "name": "Joyato (old lighthouse)",
    "name_en": "",
    "lat": 40.8724469,
    "lng": 141.1186372,
    "category": "lighthouse",
    "prefecture": "aomori",
    "osm_id": 3093431287,
    "spot_type": "data_spot",
    "data_source": "osm"
  },
  {
    "name": "名称不明",
    "name_en": "",
    "lat": 41.12392,
    "lng": 141.25952,
    "category": "rest_area",
    "prefecture": "aomori",
    "osm_id": 3103665191,
    "spot_type": "data_spot",
    "data_source": "osm"
  },
  {
    "name": "名称不明",
    "name_en": "",
    "lat": 40.37346,
    "lng": 140.87949,
    "category": "shrine",
    "prefecture": "aomori",
    "osm_id": 3103676838,
    "spot_type": "data_spot",
    "data_source": "osm"
  },
  {
    "name": "名称不明",
    "name_en": "",
    "lat": 40.921688,
    "lng": 140.95055,
    "category": "shrine",
    "prefecture": "aomori",
    "osm_id": 3103676839,
    "spot_type": "data_spot",
    "data_source": "osm"
  },
  {
    "name": "名称不明",
    "name_en": "",
    "lat": 41.1022,
    "lng": 141.25223,
    "category": "shrine",
    "prefecture": "aomori",
    "osm_id": 3103676840,
    "spot_type": "data_spot",
    "data_source": "osm"
  },
  {
    "name": "名称不明",
    "name_en": "",
    "lat": 41.4653821,
    "lng": 141.1037725,
    "category": "shrine",
    "prefecture": "aomori",
    "osm_id": 3103676843,
    "spot_type": "data_spot",
    "data_source": "osm"
  },
  {
    "name": "弁財天宮",
    "name_en": "Benzaitengu Shrine",
    "lat": 40.8944318,
    "lng": 140.851342,
    "category": "shrine",
    "prefecture": "aomori",
    "osm_id": 3103747540,
    "spot_type": "data_spot",
    "data_source": "osm"
  },
  {
    "name": "大間埼灯台",
    "name_en": "",
    "lat": 41.5547024,
    "lng": 140.9116696,
    "category": "lighthouse",
    "prefecture": "aomori",
    "osm_id": 3103747563,
    "spot_type": "data_spot",
    "data_source": "osm"
  },
  {
    "name": "やすらぎ駐車帯",
    "name_en": "",
    "lat": 40.2914001,
    "lng": 141.0408904,
    "category": "rest_area",
    "prefecture": "aomori",
    "osm_id": 3239616779,
    "spot_type": "data_spot",
    "data_source": "osm"
  },
  {
    "name": "名称不明",
    "name_en": "",
    "lat": 40.522145,
    "lng": 141.5369173,
    "category": "shrine",
    "prefecture": "aomori",
    "osm_id": 3654919587,
    "spot_type": "data_spot",
    "data_source": "osm"
  },
  {
    "name": "名称不明",
    "name_en": "",
    "lat": 40.5224819,
    "lng": 141.5351929,
    "category": "shrine",
    "prefecture": "aomori",
    "osm_id": 3654919591,
    "spot_type": "data_spot",
    "data_source": "osm"
  },
  {
    "name": "名称不明",
    "name_en": "",
    "lat": 40.5233055,
    "lng": 141.5456628,
    "category": "shrine",
    "prefecture": "aomori",
    "osm_id": 3655636838,
    "spot_type": "data_spot",
    "data_source": "osm"
  },
  {
    "name": "鮫角灯台",
    "name_en": "",
    "lat": 40.5397173,
    "lng": 141.5760374,
    "category": "lighthouse",
    "prefecture": "aomori",
    "osm_id": 3656091233,
    "spot_type": "data_spot",
    "data_source": "osm"
  },
  {
    "name": "名称不明",
    "name_en": "",
    "lat": 40.4690654,
    "lng": 141.6473944,
    "category": "shrine",
    "prefecture": "aomori",
    "osm_id": 3659421850,
    "spot_type": "data_spot",
    "data_source": "osm"
  },
  {
    "name": "七戸十和田",
    "name_en": "Shichinohe-Towada",
    "lat": 40.7199949,
    "lng": 141.1534608,
    "category": "station",
    "prefecture": "aomori",
    "osm_id": 3665957894,
    "spot_type": "data_spot",
    "data_source": "osm"
  },
  {
    "name": "富根",
    "name_en": "Tomine",
    "lat": 40.218041,
    "lng": 140.1723074,
    "category": "station",
    "prefecture": "aomori",
    "osm_id": 3746971968,
    "spot_type": "data_spot",
    "data_source": "osm"
  },
  {
    "name": "名称不明",
    "name_en": "",
    "lat": 41.4494173,
    "lng": 140.875873,
    "category": "shrine",
    "prefecture": "aomori",
    "osm_id": 3750353121,
    "spot_type": "data_spot",
    "data_source": "osm"
  },
  {
    "name": "平舘灯台",
    "name_en": "",
    "lat": 41.1745714,
    "lng": 140.6427308,
    "category": "lighthouse",
    "prefecture": "aomori",
    "osm_id": 3905816823,
    "spot_type": "data_spot",
    "data_source": "osm"
  },
  {
    "name": "中小国",
    "name_en": "Nakaoguni",
    "lat": 41.0514769,
    "lng": 140.5971212,
    "category": "station",
    "prefecture": "aomori",
    "osm_id": 3906277085,
    "spot_type": "data_spot",
    "data_source": "osm"
  },
  {
    "name": "奥津軽いまべつ",
    "name_en": "Okutsugaru-imabetsu",
    "lat": 41.1449446,
    "lng": 140.5157284,
    "category": "station",
    "prefecture": "aomori",
    "osm_id": 3906277087,
    "spot_type": "data_spot",
    "data_source": "osm"
  },
  {
    "name": "蟹田",
    "name_en": "Kanita",
    "lat": 41.0383689,
    "lng": 140.6425216,
    "category": "station",
    "prefecture": "aomori",
    "osm_id": 3906277088,
    "spot_type": "data_spot",
    "data_source": "osm"
  },
  {
    "name": "龍飛埼灯台",
    "name_en": "Cape Tappi Lighthouse",
    "lat": 41.2584925,
    "lng": 140.3424107,
    "category": "lighthouse",
    "prefecture": "aomori",
    "osm_id": 3906862678,
    "spot_type": "data_spot",
    "data_source": "osm"
  },
  {
    "name": "八戸",
    "name_en": "Hachinohe",
    "lat": 40.5093889,
    "lng": 141.4311833,
    "category": "station",
    "prefecture": "aomori",
    "osm_id": 3920556721,
    "spot_type": "data_spot",
    "data_source": "osm"
  },
  {
    "name": "三沢",
    "name_en": "Misawa",
    "lat": 40.6693545,
    "lng": 141.3536492,
    "category": "station",
    "prefecture": "aomori",
    "osm_id": 3920556724,
    "spot_type": "data_spot",
    "data_source": "osm"
  },
  {
    "name": "二戸",
    "name_en": "Ninohe",
    "lat": 40.260138,
    "lng": 141.286006,
    "category": "station",
    "prefecture": "aomori",
    "osm_id": 3920556725,
    "spot_type": "data_spot",
    "data_source": "osm"
  },
  {
    "name": "野辺地",
    "name_en": "Noheji",
    "lat": 40.8554611,
    "lng": 141.1197284,
    "category": "station",
    "prefecture": "aomori",
    "osm_id": 3920556726,
    "spot_type": "data_spot",
    "data_source": "osm"
  },
  {
    "name": "青森",
    "name_en": "Aomori",
    "lat": 40.8299247,
    "lng": 140.7341384,
    "category": "station",
    "prefecture": "aomori",
    "osm_id": 3921351174,
    "spot_type": "data_spot",
    "data_source": "osm"
  },
  {
    "name": "東青森",
    "name_en": "Higashi-Aomori",
    "lat": 40.8101734,
    "lng": 140.7826596,
    "category": "station",
    "prefecture": "aomori",
    "osm_id": 3921351175,
    "spot_type": "data_spot",
    "data_source": "osm"
  },
  {
    "name": "小柳",
    "name_en": "Koyanagi",
    "lat": 40.8179921,
    "lng": 140.7979124,
    "category": "station",
    "prefecture": "aomori",
    "osm_id": 3921351176,
    "spot_type": "data_spot",
    "data_source": "osm"
  },
  {
    "name": "筒井",
    "name_en": "Tsutsui",
    "lat": 40.8057042,
    "lng": 140.7694475,
    "category": "station",
    "prefecture": "aomori",
    "osm_id": 3921351177,
    "spot_type": "data_spot",
    "data_source": "osm"
  },
  {
    "name": "新青森",
    "name_en": "Shin-Aomori",
    "lat": 40.8282447,
    "lng": 140.6934733,
    "category": "station",
    "prefecture": "aomori",
    "osm_id": 3921354047,
    "spot_type": "data_spot",
    "data_source": "osm"
  },
  {
    "name": "よこはま温泉;横浜町老人福祉センター",
    "name_en": "",
    "lat": 41.0823199,
    "lng": 141.2516428,
    "category": "onsen",
    "prefecture": "aomori",
    "osm_id": 4032225408,
    "spot_type": "data_spot",
    "data_source": "osm"
  },
  {
    "name": "陸奥横浜",
    "name_en": "Mutsu-Yokohama",
    "lat": 41.0863776,
    "lng": 141.2498185,
    "category": "station",
    "prefecture": "aomori",
    "osm_id": 4032225420,
    "spot_type": "data_spot",
    "data_source": "osm"
  },
  {
    "name": "弘前東高前",
    "name_en": "Hirosaki-Higashikōmae",
    "lat": 40.5923016,
    "lng": 140.4884227,
    "category": "station",
    "prefecture": "aomori",
    "osm_id": 4143883343,
    "spot_type": "data_spot",
    "data_source": "osm"
  },
  {
    "name": "巌鬼山神社",
    "name_en": "",
    "lat": 40.730121,
    "lng": 140.333446,
    "category": "shrine",
    "prefecture": "aomori",
    "osm_id": 4239824392,
    "spot_type": "data_spot",
    "data_source": "osm"
  },
  {
    "name": "厳島神社",
    "name_en": "ITSUKUSHIMA shrine",
    "lat": 41.362013,
    "lng": 139.8132286,
    "category": "shrine",
    "prefecture": "aomori",
    "osm_id": 4269770127,
    "spot_type": "data_spot",
    "data_source": "osm"
  },
  {
    "name": "松前小島灯台",
    "name_en": "Matsumae Kojima Lighthouse",
    "lat": 41.3634699,
    "lng": 139.8148639,
    "category": "lighthouse",
    "prefecture": "aomori",
    "osm_id": 4269770155,
    "spot_type": "data_spot",
    "data_source": "osm"
  },
  {
    "name": "神名宮",
    "name_en": "",
    "lat": 40.587913,
    "lng": 140.417257,
    "category": "shrine",
    "prefecture": "aomori",
    "osm_id": 4343732189,
    "spot_type": "data_spot",
    "data_source": "osm"
  },
  {
    "name": "福昌寺",
    "name_en": "",
    "lat": 40.5221609,
    "lng": 141.547062,
    "category": "temple",
    "prefecture": "aomori",
    "osm_id": 4388627488,
    "spot_type": "data_spot",
    "data_source": "osm"
  },
  {
    "name": "名称不明",
    "name_en": "",
    "lat": 40.6695218,
    "lng": 140.8802397,
    "category": "shrine",
    "prefecture": "aomori",
    "osm_id": 4390958557,
    "spot_type": "data_spot",
    "data_source": "osm"
  },
  {
    "name": "事代主神社",
    "name_en": "",
    "lat": 40.8304947,
    "lng": 140.7597653,
    "category": "shrine",
    "prefecture": "aomori",
    "osm_id": 4402658465,
    "spot_type": "data_spot",
    "data_source": "osm"
  },
  {
    "name": "名称不明",
    "name_en": "",
    "lat": 40.6589081,
    "lng": 140.8771776,
    "category": "shrine",
    "prefecture": "aomori",
    "osm_id": 4405219544,
    "spot_type": "data_spot",
    "data_source": "osm"
  },
  {
    "name": "名称不明",
    "name_en": "",
    "lat": 40.8356593,
    "lng": 140.7504451,
    "category": "lighthouse",
    "prefecture": "aomori",
    "osm_id": 4415784084,
    "spot_type": "data_spot",
    "data_source": "osm"
  },
  {
    "name": "三嶽神社",
    "name_en": "",
    "lat": 40.5793977,
    "lng": 140.4778998,
    "category": "shrine",
    "prefecture": "aomori",
    "osm_id": 4428055382,
    "spot_type": "data_spot",
    "data_source": "osm"
  },
  {
    "name": "三社神社",
    "name_en": "SANJA shrine",
    "lat": 41.4118396,
    "lng": 140.176806,
    "category": "shrine",
    "prefecture": "aomori",
    "osm_id": 4811134831,
    "spot_type": "data_spot",
    "data_source": "osm"
  },
  {
    "name": "荒谷稲荷神社",
    "name_en": "ARAYA INARI shrine",
    "lat": 41.4193194,
    "lng": 140.1640854,
    "category": "shrine",
    "prefecture": "aomori",
    "osm_id": 4811134838,
    "spot_type": "data_spot",
    "data_source": "osm"
  },
  {
    "name": "法隆寺",
    "name_en": "",
    "lat": 41.430376,
    "lng": 140.1436935,
    "category": "temple",
    "prefecture": "aomori",
    "osm_id": 4811134847,
    "spot_type": "data_spot",
    "data_source": "osm"
  },
  {
    "name": "大澤神社",
    "name_en": "O-SAWA shrine",
    "lat": 41.4300338,
    "lng": 140.1441045,
    "category": "shrine",
    "prefecture": "aomori",
    "osm_id": 4811134848,
    "spot_type": "data_spot",
    "data_source": "osm"
  },
  {
    "name": "狩場神社",
    "name_en": "KARIBA shrine",
    "lat": 41.434953,
    "lng": 140.1311821,
    "category": "shrine",
    "prefecture": "aomori",
    "osm_id": 4811134919,
    "spot_type": "data_spot",
    "data_source": "osm"
  },
  {
    "name": "法華寺",
    "name_en": "",
    "lat": 41.429292,
    "lng": 140.1132307,
    "category": "temple",
    "prefecture": "aomori",
    "osm_id": 4811242598,
    "spot_type": "data_spot",
    "data_source": "osm"
  },
  {
    "name": "正行寺",
    "name_en": "",
    "lat": 41.4297943,
    "lng": 140.1143353,
    "category": "temple",
    "prefecture": "aomori",
    "osm_id": 4811242600,
    "spot_type": "data_spot",
    "data_source": "osm"
  },
  {
    "name": "龍雲院",
    "name_en": "",
    "lat": 41.431315,
    "lng": 140.1069964,
    "category": "temple",
    "prefecture": "aomori",
    "osm_id": 4811242742,
    "spot_type": "data_spot",
    "data_source": "osm"
  },
  {
    "name": "光善寺",
    "name_en": "",
    "lat": 41.4316041,
    "lng": 140.1057405,
    "category": "temple",
    "prefecture": "aomori",
    "osm_id": 4811242743,
    "spot_type": "data_spot",
    "data_source": "osm"
  },
  {
    "name": "松前町郷土資料館",
    "name_en": "",
    "lat": 41.4357549,
    "lng": 140.1119653,
    "category": "museum",
    "prefecture": "aomori",
    "osm_id": 4811242799,
    "spot_type": "data_spot",
    "data_source": "osm"
  },
  {
    "name": "阿吽寺",
    "name_en": "",
    "lat": 41.4318984,
    "lng": 140.1096192,
    "category": "temple",
    "prefecture": "aomori",
    "osm_id": 4811242800,
    "spot_type": "data_spot",
    "data_source": "osm"
  },
  {
    "name": "法源寺",
    "name_en": "",
    "lat": 41.4321125,
    "lng": 140.1075145,
    "category": "temple",
    "prefecture": "aomori",
    "osm_id": 4811242801,
    "spot_type": "data_spot",
    "data_source": "osm"
  },
  {
    "name": "法幢寺",
    "name_en": "",
    "lat": 41.4321593,
    "lng": 140.1067195,
    "category": "temple",
    "prefecture": "aomori",
    "osm_id": 4811242802,
    "spot_type": "data_spot",
    "data_source": "osm"
  },
  {
    "name": "専念寺",
    "name_en": "",
    "lat": 41.4295898,
    "lng": 140.1041747,
    "category": "temple",
    "prefecture": "aomori",
    "osm_id": 4811242805,
    "spot_type": "data_spot",
    "data_source": "osm"
  },
  {
    "name": "鷹揚山 不動寺",
    "name_en": "",
    "lat": 40.594213,
    "lng": 140.449003,
    "category": "temple",
    "prefecture": "aomori",
    "osm_id": 4812415422,
    "spot_type": "data_spot",
    "data_source": "osm"
  },
  {
    "name": "下北",
    "name_en": "Shimokita",
    "lat": 41.2829772,
    "lng": 141.1897987,
    "category": "station",
    "prefecture": "aomori",
    "osm_id": 4837881282,
    "spot_type": "data_spot",
    "data_source": "osm"
  },
  {
    "name": "大湊",
    "name_en": "Ominato",
    "lat": 41.2804269,
    "lng": 141.1615289,
    "category": "station",
    "prefecture": "aomori",
    "osm_id": 4837881283,
    "spot_type": "data_spot",
    "data_source": "osm"
  },
  {
    "name": "三厩",
    "name_en": "Minmaya",
    "lat": 41.1854265,
    "lng": 140.4444712,
    "category": "station",
    "prefecture": "aomori",
    "osm_id": 4837932838,
    "spot_type": "data_spot",
    "data_source": "osm"
  },
  {
    "name": "奥奥八九郎温泉",
    "name_en": "",
    "lat": 40.4079014,
    "lng": 140.7551714,
    "category": "onsen",
    "prefecture": "aomori",
    "osm_id": 4916963622,
    "spot_type": "data_spot",
    "data_source": "osm"
  },
  {
    "name": "正一位稲荷神社",
    "name_en": "",
    "lat": 40.6014365,
    "lng": 141.4490454,
    "category": "shrine",
    "prefecture": "aomori",
    "osm_id": 5039898260,
    "spot_type": "data_spot",
    "data_source": "osm"
  },
  {
    "name": "土鼻神社",
    "name_en": "",
    "lat": 40.6068898,
    "lng": 141.4559191,
    "category": "shrine",
    "prefecture": "aomori",
    "osm_id": 5040684294,
    "spot_type": "data_spot",
    "data_source": "osm"
  },
  {
    "name": "Tarou Onsen",
    "name_en": "",
    "lat": 40.675127,
    "lng": 141.3925411,
    "category": "onsen",
    "prefecture": "aomori",
    "osm_id": 5096680337,
    "spot_type": "data_spot",
    "data_source": "osm"
  },
  {
    "name": "名称不明",
    "name_en": "",
    "lat": 40.6922856,
    "lng": 141.3693081,
    "category": "rest_area",
    "prefecture": "aomori",
    "osm_id": 5132852921,
    "spot_type": "data_spot",
    "data_source": "osm"
  },
  {
    "name": "名称不明",
    "name_en": "",
    "lat": 40.4252901,
    "lng": 140.6561541,
    "category": "rest_area",
    "prefecture": "aomori",
    "osm_id": 5144071825,
    "spot_type": "data_spot",
    "data_source": "osm"
  },
  {
    "name": "弁天神社",
    "name_en": "",
    "lat": 41.5451091,
    "lng": 140.9133306,
    "category": "shrine",
    "prefecture": "aomori",
    "osm_id": 5152077456,
    "spot_type": "data_spot",
    "data_source": "osm"
  },
  {
    "name": "恐山温泉",
    "name_en": "Osorezan Onsen",
    "lat": 41.327711,
    "lng": 141.0899973,
    "category": "onsen",
    "prefecture": "aomori",
    "osm_id": 5152221957,
    "spot_type": "data_spot",
    "data_source": "osm"
  },
  {
    "name": "二見岩",
    "name_en": "",
    "lat": 41.4702937,
    "lng": 141.0883052,
    "category": "shrine",
    "prefecture": "aomori",
    "osm_id": 5290557164,
    "spot_type": "data_spot",
    "data_source": "osm"
  },
  {
    "name": "名称不明",
    "name_en": "",
    "lat": 41.4713298,
    "lng": 141.0936675,
    "category": "lighthouse",
    "prefecture": "aomori",
    "osm_id": 5291017783,
    "spot_type": "data_spot",
    "data_source": "osm"
  },
  {
    "name": "名称不明",
    "name_en": "",
    "lat": 41.454275,
    "lng": 141.1153763,
    "category": "shrine",
    "prefecture": "aomori",
    "osm_id": 5293720265,
    "spot_type": "data_spot",
    "data_source": "osm"
  },
  {
    "name": "折戸神社奥の院　鳥居",
    "name_en": "",
    "lat": 41.522586,
    "lng": 140.9439508,
    "category": "shrine",
    "prefecture": "aomori",
    "osm_id": 5297512948,
    "spot_type": "data_spot",
    "data_source": "osm"
  },
  {
    "name": "名称不明",
    "name_en": "",
    "lat": 41.4898115,
    "lng": 140.9980966,
    "category": "lighthouse",
    "prefecture": "aomori",
    "osm_id": 5301720945,
    "spot_type": "data_spot",
    "data_source": "osm"
  },
  {
    "name": "蓮沼神社",
    "name_en": "",
    "lat": 40.5423554,
    "lng": 141.4908412,
    "category": "shrine",
    "prefecture": "aomori",
    "osm_id": 5341054229,
    "spot_type": "data_spot",
    "data_source": "osm"
  },
  {
    "name": "八戸港河原木西防波堤灯台",
    "name_en": "",
    "lat": 40.5376448,
    "lng": 141.5205091,
    "category": "lighthouse",
    "prefecture": "aomori",
    "osm_id": 5347021521,
    "spot_type": "data_spot",
    "data_source": "osm"
  },
  {
    "name": "八戸港蕪島防波堤灯台",
    "name_en": "",
    "lat": 40.5363402,
    "lng": 141.5552625,
    "category": "lighthouse",
    "prefecture": "aomori",
    "osm_id": 5352305635,
    "spot_type": "data_spot",
    "data_source": "osm"
  },
  {
    "name": "八戸港鮫内防波堤３号灯台",
    "name_en": "",
    "lat": 40.5344796,
    "lng": 141.5524556,
    "category": "lighthouse",
    "prefecture": "aomori",
    "osm_id": 5352305636,
    "spot_type": "data_spot",
    "data_source": "osm"
  },
  {
    "name": "厳島神社",
    "name_en": "",
    "lat": 40.4951486,
    "lng": 141.6321802,
    "category": "shrine",
    "prefecture": "aomori",
    "osm_id": 5354449945,
    "spot_type": "data_spot",
    "data_source": "osm"
  },
  {
    "name": "陸奥市川",
    "name_en": "Mutsu-Ichikawa",
    "lat": 40.5628103,
    "lng": 141.4393199,
    "category": "station",
    "prefecture": "aomori",
    "osm_id": 5357100607,
    "spot_type": "data_spot",
    "data_source": "osm"
  },
  {
    "name": "尻屋埼灯台",
    "name_en": "",
    "lat": 41.4303703,
    "lng": 141.4621416,
    "category": "lighthouse",
    "prefecture": "aomori",
    "osm_id": 5362680663,
    "spot_type": "data_spot",
    "data_source": "osm"
  },
  {
    "name": "是川縄文館分館",
    "name_en": "",
    "lat": 40.474529,
    "lng": 141.4909297,
    "category": "museum",
    "prefecture": "aomori",
    "osm_id": 5368320243,
    "spot_type": "data_spot",
    "data_source": "osm"
  },
  {
    "name": "八戸市埋蔵文化財センター 是川縄文館",
    "name_en": "Korekawa Archaeological Institution",
    "lat": 40.4755644,
    "lng": 141.4884379,
    "category": "museum",
    "prefecture": "aomori",
    "osm_id": 5368320250,
    "spot_type": "data_spot",
    "data_source": "osm"
  },
  {
    "name": "大乗寺",
    "name_en": "",
    "lat": 40.5050138,
    "lng": 141.5512824,
    "category": "temple",
    "prefecture": "aomori",
    "osm_id": 5369915048,
    "spot_type": "data_spot",
    "data_source": "osm"
  },
  {
    "name": "神明宮",
    "name_en": "",
    "lat": 40.828361,
    "lng": 140.6967328,
    "category": "shrine",
    "prefecture": "aomori",
    "osm_id": 5371466564,
    "spot_type": "data_spot",
    "data_source": "osm"
  },
  {
    "name": "陸奥塩釜灯台",
    "name_en": "",
    "lat": 40.8053375,
    "lng": 141.3992532,
    "category": "lighthouse",
    "prefecture": "aomori",
    "osm_id": 5386584781,
    "spot_type": "data_spot",
    "data_source": "osm"
  },
  {
    "name": "陸奥弁天島灯台",
    "name_en": "",
    "lat": 41.1208366,
    "lng": 140.8149783,
    "category": "lighthouse",
    "prefecture": "aomori",
    "osm_id": 5395117888,
    "spot_type": "data_spot",
    "data_source": "osm"
  },
  {
    "name": "八戸ポータルミュージアム はっち",
    "name_en": "Hachinohe Portal Museum \"Hacchi\"",
    "lat": 40.5099057,
    "lng": 141.4905917,
    "category": "museum",
    "prefecture": "aomori",
    "osm_id": 5409447622,
    "spot_type": "data_spot",
    "data_source": "osm"
  },
  {
    "name": "八戸クリニック 街かどミュージアム",
    "name_en": "",
    "lat": 40.5123125,
    "lng": 141.4951787,
    "category": "museum",
    "prefecture": "aomori",
    "osm_id": 5409447647,
    "spot_type": "data_spot",
    "data_source": "osm"
  },
  {
    "name": "嶺法神社",
    "name_en": "",
    "lat": 40.5117226,
    "lng": 141.4999735,
    "category": "shrine",
    "prefecture": "aomori",
    "osm_id": 5411825359,
    "spot_type": "data_spot",
    "data_source": "osm"
  },
  {
    "name": "白竜神社",
    "name_en": "",
    "lat": 40.5029649,
    "lng": 141.4959363,
    "category": "shrine",
    "prefecture": "aomori",
    "osm_id": 5421931241,
    "spot_type": "data_spot",
    "data_source": "osm"
  },
  {
    "name": "熊野神社",
    "name_en": "",
    "lat": 40.5203118,
    "lng": 141.5072274,
    "category": "shrine",
    "prefecture": "aomori",
    "osm_id": 5424061323,
    "spot_type": "data_spot",
    "data_source": "osm"
  },
  {
    "name": "嘉須山稲荷神社",
    "name_en": "",
    "lat": 40.5178998,
    "lng": 141.5047274,
    "category": "shrine",
    "prefecture": "aomori",
    "osm_id": 5424075523,
    "spot_type": "data_spot",
    "data_source": "osm"
  },
  {
    "name": "館越稲荷社",
    "name_en": "",
    "lat": 40.4997938,
    "lng": 141.5041362,
    "category": "shrine",
    "prefecture": "aomori",
    "osm_id": 5426217931,
    "spot_type": "data_spot",
    "data_source": "osm"
  },
  {
    "name": "古峯神社",
    "name_en": "",
    "lat": 40.5217433,
    "lng": 141.522056,
    "category": "shrine",
    "prefecture": "aomori",
    "osm_id": 5426230739,
    "spot_type": "data_spot",
    "data_source": "osm"
  },
  {
    "name": "若宮八幡宮",
    "name_en": "",
    "lat": 40.5286193,
    "lng": 141.4793317,
    "category": "shrine",
    "prefecture": "aomori",
    "osm_id": 5428429556,
    "spot_type": "data_spot",
    "data_source": "osm"
  },
  {
    "name": "貝鞍稲荷神社",
    "name_en": "",
    "lat": 40.5281135,
    "lng": 141.4811238,
    "category": "shrine",
    "prefecture": "aomori",
    "osm_id": 5428429735,
    "spot_type": "data_spot",
    "data_source": "osm"
  },
  {
    "name": "出羽三山神社",
    "name_en": "",
    "lat": 40.5256258,
    "lng": 141.4770558,
    "category": "shrine",
    "prefecture": "aomori",
    "osm_id": 5428441621,
    "spot_type": "data_spot",
    "data_source": "osm"
  },
  {
    "name": "正一位稲荷神社",
    "name_en": "",
    "lat": 40.5599363,
    "lng": 141.4486351,
    "category": "shrine",
    "prefecture": "aomori",
    "osm_id": 5428527533,
    "spot_type": "data_spot",
    "data_source": "osm"
  },
  {
    "name": "髙館蒼前神社",
    "name_en": "",
    "lat": 40.5430946,
    "lng": 141.4657206,
    "category": "shrine",
    "prefecture": "aomori",
    "osm_id": 5428538828,
    "spot_type": "data_spot",
    "data_source": "osm"
  },
  {
    "name": "帆風美術館",
    "name_en": "Vanfu Museum of Art",
    "lat": 40.5470459,
    "lng": 141.4358745,
    "category": "museum",
    "prefecture": "aomori",
    "osm_id": 5430758094,
    "spot_type": "data_spot",
    "data_source": "osm"
  },
  {
    "name": "阿部八幡宮",
    "name_en": "",
    "lat": 40.5395866,
    "lng": 141.4836685,
    "category": "shrine",
    "prefecture": "aomori",
    "osm_id": 5432434623,
    "spot_type": "data_spot",
    "data_source": "osm"
  },
  {
    "name": "堀内八幡宮",
    "name_en": "",
    "lat": 40.5303824,
    "lng": 141.4687973,
    "category": "shrine",
    "prefecture": "aomori",
    "osm_id": 5432838335,
    "spot_type": "data_spot",
    "data_source": "osm"
  },
  {
    "name": "三山神社",
    "name_en": "",
    "lat": 40.5227685,
    "lng": 141.4671414,
    "category": "shrine",
    "prefecture": "aomori",
    "osm_id": 5432838527,
    "spot_type": "data_spot",
    "data_source": "osm"
  },
  {
    "name": "凉雲院",
    "name_en": "",
    "lat": 40.4794406,
    "lng": 141.4266135,
    "category": "temple",
    "prefecture": "aomori",
    "osm_id": 5447319029,
    "spot_type": "data_spot",
    "data_source": "osm"
  },
  {
    "name": "月山神社",
    "name_en": "",
    "lat": 40.4667491,
    "lng": 141.3908016,
    "category": "shrine",
    "prefecture": "aomori",
    "osm_id": 5447319035,
    "spot_type": "data_spot",
    "data_source": "osm"
  },
  {
    "name": "東円寺",
    "name_en": "",
    "lat": 40.4547155,
    "lng": 141.3438009,
    "category": "temple",
    "prefecture": "aomori",
    "osm_id": 5447319043,
    "spot_type": "data_spot",
    "data_source": "osm"
  },
  {
    "name": "諏訪神社",
    "name_en": "",
    "lat": 40.4450068,
    "lng": 141.3396958,
    "category": "shrine",
    "prefecture": "aomori",
    "osm_id": 5447319049,
    "spot_type": "data_spot",
    "data_source": "osm"
  },
  {
    "name": "陽広寺",
    "name_en": "",
    "lat": 40.4447362,
    "lng": 141.3392252,
    "category": "temple",
    "prefecture": "aomori",
    "osm_id": 5447319050,
    "spot_type": "data_spot",
    "data_source": "osm"
  },
  {
    "name": "常安寺",
    "name_en": "",
    "lat": 40.4818135,
    "lng": 141.4311247,
    "category": "temple",
    "prefecture": "aomori",
    "osm_id": 5447319625,
    "spot_type": "data_spot",
    "data_source": "osm"
  },
  {
    "name": "苫米地神明宮",
    "name_en": "",
    "lat": 40.4668824,
    "lng": 141.378014,
    "category": "shrine",
    "prefecture": "aomori",
    "osm_id": 5447319637,
    "spot_type": "data_spot",
    "data_source": "osm"
  },
  {
    "name": "諏訪神社",
    "name_en": "",
    "lat": 40.4145748,
    "lng": 141.2896034,
    "category": "shrine",
    "prefecture": "aomori",
    "osm_id": 5447542427,
    "spot_type": "data_spot",
    "data_source": "osm"
  },
  {
    "name": "向大神宮",
    "name_en": "",
    "lat": 40.3973444,
    "lng": 141.2714105,
    "category": "shrine",
    "prefecture": "aomori",
    "osm_id": 5447542437,
    "spot_type": "data_spot",
    "data_source": "osm"
  },
  {
    "name": "龍川寺",
    "name_en": "",
    "lat": 40.3879609,
    "lng": 141.2636155,
    "category": "temple",
    "prefecture": "aomori",
    "osm_id": 5447542443,
    "spot_type": "data_spot",
    "data_source": "osm"
  },
  {
    "name": "悟真寺",
    "name_en": "",
    "lat": 40.3766031,
    "lng": 141.2554783,
    "category": "temple",
    "prefecture": "aomori",
    "osm_id": 5447542457,
    "spot_type": "data_spot",
    "data_source": "osm"
  },
  {
    "name": "平良ヶ崎城跡",
    "name_en": "",
    "lat": 40.4126151,
    "lng": 141.2772335,
    "category": "castle",
    "prefecture": "aomori",
    "osm_id": 5447544648,
    "spot_type": "data_spot",
    "data_source": "osm"
  },
  {
    "name": "本三戸八幡宮",
    "name_en": "",
    "lat": 40.4082984,
    "lng": 141.2678173,
    "category": "shrine",
    "prefecture": "aomori",
    "osm_id": 5447544656,
    "spot_type": "data_spot",
    "data_source": "osm"
  },
  {
    "name": "長谷山神社",
    "name_en": "",
    "lat": 40.403163,
    "lng": 141.2704483,
    "category": "shrine",
    "prefecture": "aomori",
    "osm_id": 5447544659,
    "spot_type": "data_spot",
    "data_source": "osm"
  },
  {
    "name": "馬暦神社",
    "name_en": "",
    "lat": 40.3963358,
    "lng": 141.2644949,
    "category": "shrine",
    "prefecture": "aomori",
    "osm_id": 5447544679,
    "spot_type": "data_spot",
    "data_source": "osm"
  },
  {
    "name": "法泉寺",
    "name_en": "",
    "lat": 40.3852554,
    "lng": 141.2597205,
    "category": "temple",
    "prefecture": "aomori",
    "osm_id": 5447544684,
    "spot_type": "data_spot",
    "data_source": "osm"
  },
  {
    "name": "門住稲荷神社",
    "name_en": "",
    "lat": 40.3789241,
    "lng": 141.2602683,
    "category": "shrine",
    "prefecture": "aomori",
    "osm_id": 5447544703,
    "spot_type": "data_spot",
    "data_source": "osm"
  },
  {
    "name": "観福寺",
    "name_en": "",
    "lat": 40.3779282,
    "lng": 141.2528853,
    "category": "temple",
    "prefecture": "aomori",
    "osm_id": 5449463048,
    "spot_type": "data_spot",
    "data_source": "osm"
  },
  {
    "name": "長栄寺",
    "name_en": "",
    "lat": 40.375531,
    "lng": 141.2476792,
    "category": "temple",
    "prefecture": "aomori",
    "osm_id": 5449463340,
    "spot_type": "data_spot",
    "data_source": "osm"
  },
  {
    "name": "能持寺 大館別院",
    "name_en": "",
    "lat": 40.2806843,
    "lng": 140.5624815,
    "category": "temple",
    "prefecture": "aomori",
    "osm_id": 5466413132,
    "spot_type": "data_spot",
    "data_source": "osm"
  },
  {
    "name": "妙乗寺",
    "name_en": "",
    "lat": 40.9038102,
    "lng": 140.4553475,
    "category": "temple",
    "prefecture": "aomori",
    "osm_id": 5504856550,
    "spot_type": "data_spot",
    "data_source": "osm"
  },
  {
    "name": "雲祥寺",
    "name_en": "",
    "lat": 40.9040204,
    "lng": 140.4547053,
    "category": "temple",
    "prefecture": "aomori",
    "osm_id": 5504876821,
    "spot_type": "data_spot",
    "data_source": "osm"
  },
  {
    "name": "金木八幡宮",
    "name_en": "",
    "lat": 40.9031028,
    "lng": 140.4538837,
    "category": "shrine",
    "prefecture": "aomori",
    "osm_id": 5504924324,
    "spot_type": "data_spot",
    "data_source": "osm"
  },
  {
    "name": "南台寺",
    "name_en": "",
    "lat": 40.902889,
    "lng": 140.4530117,
    "category": "temple",
    "prefecture": "aomori",
    "osm_id": 5504925023,
    "spot_type": "data_spot",
    "data_source": "osm"
  },
  {
    "name": "照蓮院",
    "name_en": "",
    "lat": 40.902984,
    "lng": 140.4524688,
    "category": "temple",
    "prefecture": "aomori",
    "osm_id": 5504951722,
    "spot_type": "data_spot",
    "data_source": "osm"
  },
  {
    "name": "円誠寺",
    "name_en": "",
    "lat": 40.8599484,
    "lng": 141.1273198,
    "category": "temple",
    "prefecture": "aomori",
    "osm_id": 5539942603,
    "spot_type": "data_spot",
    "data_source": "osm"
  },
  {
    "name": "西福寺",
    "name_en": "",
    "lat": 41.0840697,
    "lng": 141.2484872,
    "category": "temple",
    "prefecture": "aomori",
    "osm_id": 5539945137,
    "spot_type": "data_spot",
    "data_source": "osm"
  },
  {
    "name": "西光寺",
    "name_en": "",
    "lat": 40.8624277,
    "lng": 141.129243,
    "category": "temple",
    "prefecture": "aomori",
    "osm_id": 5539977530,
    "spot_type": "data_spot",
    "data_source": "osm"
  },
  {
    "name": "神明宮",
    "name_en": "",
    "lat": 40.8648101,
    "lng": 141.1267399,
    "category": "shrine",
    "prefecture": "aomori",
    "osm_id": 5539977541,
    "spot_type": "data_spot",
    "data_source": "osm"
  },
  {
    "name": "海中寺",
    "name_en": "",
    "lat": 40.8634304,
    "lng": 141.1303565,
    "category": "temple",
    "prefecture": "aomori",
    "osm_id": 5541792352,
    "spot_type": "data_spot",
    "data_source": "osm"
  },
  {
    "name": "野辺地町 歴史民俗資料館",
    "name_en": "",
    "lat": 40.8646658,
    "lng": 141.1242943,
    "category": "museum",
    "prefecture": "aomori",
    "osm_id": 5541792421,
    "spot_type": "data_spot",
    "data_source": "osm"
  },
  {
    "name": "常光寺",
    "name_en": "",
    "lat": 40.8640346,
    "lng": 141.1291845,
    "category": "temple",
    "prefecture": "aomori",
    "osm_id": 5541792633,
    "spot_type": "data_spot",
    "data_source": "osm"
  },
  {
    "name": "東福寺",
    "name_en": "",
    "lat": 40.9259961,
    "lng": 140.9549101,
    "category": "temple",
    "prefecture": "aomori",
    "osm_id": 5549111753,
    "spot_type": "data_spot",
    "data_source": "osm"
  },
  {
    "name": "照護寺",
    "name_en": "",
    "lat": 40.923372,
    "lng": 140.9547912,
    "category": "temple",
    "prefecture": "aomori",
    "osm_id": 5549111755,
    "spot_type": "data_spot",
    "data_source": "osm"
  },
  {
    "name": "平内町 歴史民俗資料館",
    "name_en": "",
    "lat": 40.9288481,
    "lng": 140.9544737,
    "category": "museum",
    "prefecture": "aomori",
    "osm_id": 5549153729,
    "spot_type": "data_spot",
    "data_source": "osm"
  },
  {
    "name": "浄林寺",
    "name_en": "",
    "lat": 40.9252738,
    "lng": 140.954738,
    "category": "temple",
    "prefecture": "aomori",
    "osm_id": 5549153734,
    "spot_type": "data_spot",
    "data_source": "osm"
  },
  {
    "name": "正行寺",
    "name_en": "",
    "lat": 41.1824079,
    "lng": 140.4762336,
    "category": "temple",
    "prefecture": "aomori",
    "osm_id": 5549483034,
    "spot_type": "data_spot",
    "data_source": "osm"
  },
  {
    "name": "今別八幡宮",
    "name_en": "",
    "lat": 41.1819021,
    "lng": 140.4859443,
    "category": "shrine",
    "prefecture": "aomori",
    "osm_id": 5549483124,
    "spot_type": "data_spot",
    "data_source": "osm"
  },
  {
    "name": "弁天宮",
    "name_en": "Bentengu Shrine",
    "lat": 41.0164841,
    "lng": 140.8716533,
    "category": "shrine",
    "prefecture": "aomori",
    "osm_id": 5576292919,
    "spot_type": "data_spot",
    "data_source": "osm"
  },
  {
    "name": "陸奥大島灯台",
    "name_en": "",
    "lat": 41.016227,
    "lng": 140.8718571,
    "category": "lighthouse",
    "prefecture": "aomori",
    "osm_id": 5576292920,
    "spot_type": "data_spot",
    "data_source": "osm"
  },
  {
    "name": "風ノ神",
    "name_en": "",
    "lat": 40.4308913,
    "lng": 140.8915655,
    "category": "shrine",
    "prefecture": "aomori",
    "osm_id": 5599655348,
    "spot_type": "data_spot",
    "data_source": "osm"
  },
  {
    "name": "火ノ神",
    "name_en": "",
    "lat": 40.4310038,
    "lng": 140.8915371,
    "category": "shrine",
    "prefecture": "aomori",
    "osm_id": 5599655384,
    "spot_type": "data_spot",
    "data_source": "osm"
  },
  {
    "name": "高野埼灯台",
    "name_en": "",
    "lat": 41.2279317,
    "lng": 140.5485794,
    "category": "lighthouse",
    "prefecture": "aomori",
    "osm_id": 5602286573,
    "spot_type": "data_spot",
    "data_source": "osm"
  },
  {
    "name": "鳥居埼灯台",
    "name_en": "",
    "lat": 40.7470855,
    "lng": 140.0012277,
    "category": "lighthouse",
    "prefecture": "aomori",
    "osm_id": 5602492756,
    "spot_type": "data_spot",
    "data_source": "osm"
  },
  {
    "name": "南祖院",
    "name_en": "",
    "lat": 40.4287889,
    "lng": 140.8988604,
    "category": "temple",
    "prefecture": "aomori",
    "osm_id": 5604791081,
    "spot_type": "data_spot",
    "data_source": "osm"
  },
  {
    "name": "花染の湯",
    "name_en": "Hanazome-no-yu",
    "lat": 41.3283697,
    "lng": 141.0916615,
    "category": "onsen",
    "prefecture": "aomori",
    "osm_id": 5607598292,
    "spot_type": "data_spot",
    "data_source": "osm"
  },
  {
    "name": "稲荷大明神",
    "name_en": "Inari Daimyojin",
    "lat": 41.3275338,
    "lng": 141.0914925,
    "category": "shrine",
    "prefecture": "aomori",
    "osm_id": 5607598293,
    "spot_type": "data_spot",
    "data_source": "osm"
  },
  {
    "name": "古滝の湯",
    "name_en": "Furutaki-no-yu",
    "lat": 41.327622,
    "lng": 141.0898349,
    "category": "onsen",
    "prefecture": "aomori",
    "osm_id": 5607598302,
    "spot_type": "data_spot",
    "data_source": "osm"
  },
  {
    "name": "冷抜の湯",
    "name_en": "Hienuki-no-yu",
    "lat": 41.3277407,
    "lng": 141.0898362,
    "category": "onsen",
    "prefecture": "aomori",
    "osm_id": 5607598303,
    "spot_type": "data_spot",
    "data_source": "osm"
  },
  {
    "name": "薬師の湯",
    "name_en": "Yakushi-no-yu",
    "lat": 41.3278279,
    "lng": 141.0903425,
    "category": "onsen",
    "prefecture": "aomori",
    "osm_id": 5607598304,
    "spot_type": "data_spot",
    "data_source": "osm"
  },
  {
    "name": "東通村保健福祉センター;野花菖蒲の里",
    "name_en": "",
    "lat": 41.2762997,
    "lng": 141.3377362,
    "category": "onsen",
    "prefecture": "aomori",
    "osm_id": 5614927820,
    "spot_type": "data_spot",
    "data_source": "osm"
  },
  {
    "name": "稲荷さん",
    "name_en": "",
    "lat": 40.2200731,
    "lng": 141.3004674,
    "category": "shrine",
    "prefecture": "aomori",
    "osm_id": 5628294479,
    "spot_type": "data_spot",
    "data_source": "osm"
  },
  {
    "name": "不動明王",
    "name_en": "",
    "lat": 40.2186557,
    "lng": 141.2982593,
    "category": "shrine",
    "prefecture": "aomori",
    "osm_id": 5628294480,
    "spot_type": "data_spot",
    "data_source": "osm"
  },
  {
    "name": "小瀧神社",
    "name_en": "",
    "lat": 40.2144593,
    "lng": 141.2751219,
    "category": "shrine",
    "prefecture": "aomori",
    "osm_id": 5628294481,
    "spot_type": "data_spot",
    "data_source": "osm"
  },
  {
    "name": "小川滝大明神",
    "name_en": "",
    "lat": 40.2168022,
    "lng": 141.3521499,
    "category": "shrine",
    "prefecture": "aomori",
    "osm_id": 5628306993,
    "spot_type": "data_spot",
    "data_source": "osm"
  },
  {
    "name": "廣田神社",
    "name_en": "",
    "lat": 40.8224856,
    "lng": 140.7426408,
    "category": "shrine",
    "prefecture": "aomori",
    "osm_id": 5651283773,
    "spot_type": "data_spot",
    "data_source": "osm"
  },
  {
    "name": "蓮華寺",
    "name_en": "",
    "lat": 40.8240813,
    "lng": 140.7493736,
    "category": "temple",
    "prefecture": "aomori",
    "osm_id": 5651344764,
    "spot_type": "data_spot",
    "data_source": "osm"
  },
  {
    "name": "足湯跡",
    "name_en": "",
    "lat": 40.5761699,
    "lng": 140.9790894,
    "category": "onsen",
    "prefecture": "aomori",
    "osm_id": 5698397074,
    "spot_type": "data_spot",
    "data_source": "osm"
  },
  {
    "name": "小泊岬南灯台",
    "name_en": "",
    "lat": 41.1240471,
    "lng": 140.2495497,
    "category": "lighthouse",
    "prefecture": "aomori",
    "osm_id": 5705335092,
    "spot_type": "data_spot",
    "data_source": "osm"
  },
  {
    "name": "脇元岩木山神社",
    "name_en": "",
    "lat": 41.0883073,
    "lng": 140.3307831,
    "category": "shrine",
    "prefecture": "aomori",
    "osm_id": 5705335094,
    "spot_type": "data_spot",
    "data_source": "osm"
  },
  {
    "name": "熊野神社",
    "name_en": "KUMANO Shrine",
    "lat": 41.42607,
    "lng": 140.0966609,
    "category": "shrine",
    "prefecture": "aomori",
    "osm_id": 5766035512,
    "spot_type": "data_spot",
    "data_source": "osm"
  },
  {
    "name": "福島町 青函トンネル記念館",
    "name_en": "",
    "lat": 41.485363,
    "lng": 140.2547121,
    "category": "museum",
    "prefecture": "aomori",
    "osm_id": 5766084789,
    "spot_type": "data_spot",
    "data_source": "osm"
  },
  {
    "name": "横綱千代の山・千代の富士記念館",
    "name_en": "",
    "lat": 41.4791179,
    "lng": 140.2556351,
    "category": "museum",
    "prefecture": "aomori",
    "osm_id": 5766084797,
    "spot_type": "data_spot",
    "data_source": "osm"
  },
  {
    "name": "福島大神宮",
    "name_en": "FUKUSHIMA DAIJINGU shrine",
    "lat": 41.4772728,
    "lng": 140.2546021,
    "category": "shrine",
    "prefecture": "aomori",
    "osm_id": 5766084806,
    "spot_type": "data_spot",
    "data_source": "osm"
  },
  {
    "name": "熊野宮",
    "name_en": "",
    "lat": 40.5785483,
    "lng": 140.5072649,
    "category": "shrine",
    "prefecture": "aomori",
    "osm_id": 5779052426,
    "spot_type": "data_spot",
    "data_source": "osm"
  },
  {
    "name": "十二所",
    "name_en": "Junisho",
    "lat": 40.2144009,
    "lng": 140.6678939,
    "category": "station",
    "prefecture": "aomori",
    "osm_id": 5793768685,
    "spot_type": "data_spot",
    "data_source": "osm"
  },
  {
    "name": "沢尻",
    "name_en": "Sawajiri",
    "lat": 40.2302933,
    "lng": 140.6933118,
    "category": "station",
    "prefecture": "aomori",
    "osm_id": 5793768704,
    "spot_type": "data_spot",
    "data_source": "osm"
  },
  {
    "name": "土深井",
    "name_en": "Dobukai",
    "lat": 40.2224499,
    "lng": 140.7127981,
    "category": "station",
    "prefecture": "aomori",
    "osm_id": 5793768711,
    "spot_type": "data_spot",
    "data_source": "osm"
  },
  {
    "name": "扇田",
    "name_en": "Ogita",
    "lat": 40.2293308,
    "lng": 140.5725065,
    "category": "station",
    "prefecture": "aomori",
    "osm_id": 5799300241,
    "spot_type": "data_spot",
    "data_source": "osm"
  },
  {
    "name": "東大館",
    "name_en": "Higashi-Odate",
    "lat": 40.266195,
    "lng": 140.5546859,
    "category": "station",
    "prefecture": "aomori",
    "osm_id": 5799301079,
    "spot_type": "data_spot",
    "data_source": "osm"
  },
  {
    "name": "十和田南",
    "name_en": "Towada-Minami",
    "lat": 40.2558668,
    "lng": 140.7706533,
    "category": "station",
    "prefecture": "aomori",
    "osm_id": 5801702890,
    "spot_type": "data_spot",
    "data_source": "osm"
  },
  {
    "name": "名称不明",
    "name_en": "",
    "lat": 40.9352567,
    "lng": 141.2637031,
    "category": "shrine",
    "prefecture": "aomori",
    "osm_id": 5871263953,
    "spot_type": "data_spot",
    "data_source": "osm"
  },
  {
    "name": "名称不明",
    "name_en": "",
    "lat": 40.9682513,
    "lng": 141.3723342,
    "category": "shrine",
    "prefecture": "aomori",
    "osm_id": 5895755810,
    "spot_type": "data_spot",
    "data_source": "osm"
  },
  {
    "name": "名称不明",
    "name_en": "",
    "lat": 40.9464226,
    "lng": 141.2914353,
    "category": "shrine",
    "prefecture": "aomori",
    "osm_id": 5902074907,
    "spot_type": "data_spot",
    "data_source": "osm"
  },
  {
    "name": "北野辺地",
    "name_en": "Kita-Noheji",
    "lat": 40.8711076,
    "lng": 141.1342547,
    "category": "station",
    "prefecture": "aomori",
    "osm_id": 5994202571,
    "spot_type": "data_spot",
    "data_source": "osm"
  },
  {
    "name": "大神宮",
    "name_en": "",
    "lat": 40.8112501,
    "lng": 140.3807595,
    "category": "shrine",
    "prefecture": "aomori",
    "osm_id": 5997350517,
    "spot_type": "data_spot",
    "data_source": "osm"
  },
  {
    "name": "八森",
    "name_en": "Hachimori",
    "lat": 40.370987,
    "lng": 140.0181367,
    "category": "station",
    "prefecture": "aomori",
    "osm_id": 6031697462,
    "spot_type": "data_spot",
    "data_source": "osm"
  },
  {
    "name": "撫牛子",
    "name_en": "Naijoshi",
    "lat": 40.6218286,
    "lng": 140.4980715,
    "category": "station",
    "prefecture": "aomori",
    "osm_id": 6067523339,
    "spot_type": "data_spot",
    "data_source": "osm"
  },
  {
    "name": "清部八幡神社",
    "name_en": "KIYOBE HACHIMAN shrine",
    "lat": 41.5233882,
    "lng": 140.0055374,
    "category": "shrine",
    "prefecture": "aomori",
    "osm_id": 6078277330,
    "spot_type": "data_spot",
    "data_source": "osm"
  },
  {
    "name": "江良八幡神社",
    "name_en": "ERA HACHIMAN shrine",
    "lat": 41.5472251,
    "lng": 139.9960799,
    "category": "shrine",
    "prefecture": "aomori",
    "osm_id": 6078286543,
    "spot_type": "data_spot",
    "data_source": "osm"
  },
  {
    "name": "弁天神社",
    "name_en": "BENTEN shrine",
    "lat": 41.4225891,
    "lng": 140.0889747,
    "category": "shrine",
    "prefecture": "aomori",
    "osm_id": 6078320793,
    "spot_type": "data_spot",
    "data_source": "osm"
  },
  {
    "name": "天満神社",
    "name_en": "TENMAN shrine",
    "lat": 41.4320934,
    "lng": 140.1269137,
    "category": "shrine",
    "prefecture": "aomori",
    "osm_id": 6078353526,
    "spot_type": "data_spot",
    "data_source": "osm"
  },
  {
    "name": "月崎神社",
    "name_en": "TSUKISAKI shrine",
    "lat": 41.4819577,
    "lng": 140.2592593,
    "category": "shrine",
    "prefecture": "aomori",
    "osm_id": 6078394080,
    "spot_type": "data_spot",
    "data_source": "osm"
  },
  {
    "name": "白符大神宮",
    "name_en": "SHIRAFU DAIJINGU shrine",
    "lat": 41.4656911,
    "lng": 140.2463563,
    "category": "shrine",
    "prefecture": "aomori",
    "osm_id": 6078398155,
    "spot_type": "data_spot",
    "data_source": "osm"
  },
  {
    "name": "宮歌八幡神社",
    "name_en": "MIYAUTA HACHIMAN shrine",
    "lat": 41.4566251,
    "lng": 140.2431385,
    "category": "shrine",
    "prefecture": "aomori",
    "osm_id": 6078416988,
    "spot_type": "data_spot",
    "data_source": "osm"
  },
  {
    "name": "吉岡八幡神社",
    "name_en": "YOSHIOKA HACHIMAN shrine",
    "lat": 41.446642,
    "lng": 140.2357412,
    "category": "shrine",
    "prefecture": "aomori",
    "osm_id": 6078421895,
    "spot_type": "data_spot",
    "data_source": "osm"
  },
  {
    "name": "吉野八幡神社",
    "name_en": "YOSHINO HACHIMAN shrine",
    "lat": 41.4307377,
    "lng": 140.2213812,
    "category": "shrine",
    "prefecture": "aomori",
    "osm_id": 6078429762,
    "spot_type": "data_spot",
    "data_source": "osm"
  },
  {
    "name": "白神神社",
    "name_en": "SHIRAKAMI shrine",
    "lat": 41.420487,
    "lng": 140.2195736,
    "category": "shrine",
    "prefecture": "aomori",
    "osm_id": 6079954980,
    "spot_type": "data_spot",
    "data_source": "osm"
  },
  {
    "name": "白符漁港灯台",
    "name_en": "SHIRAFU fishing port lighthouse",
    "lat": 41.4619596,
    "lng": 140.2498987,
    "category": "lighthouse",
    "prefecture": "aomori",
    "osm_id": 6079989908,
    "spot_type": "data_spot",
    "data_source": "osm"
  },
  {
    "name": "福島漁港灯台",
    "name_en": "FUKUSHIMA fishing port lighthouse",
    "lat": 41.4779912,
    "lng": 140.2615166,
    "category": "lighthouse",
    "prefecture": "aomori",
    "osm_id": 6080013612,
    "spot_type": "data_spot",
    "data_source": "osm"
  },
  {
    "name": "福島港灯台",
    "name_en": "FUKUSHIMA port lighthouse",
    "lat": 41.476402,
    "lng": 140.262533,
    "category": "lighthouse",
    "prefecture": "aomori",
    "osm_id": 6080018132,
    "spot_type": "data_spot",
    "data_source": "osm"
  },
  {
    "name": "矢越岬灯台",
    "name_en": "YAGOSHI cape lighthouse",
    "lat": 41.517462,
    "lng": 140.4081424,
    "category": "lighthouse",
    "prefecture": "aomori",
    "osm_id": 6080031467,
    "spot_type": "data_spot",
    "data_source": "osm"
  },
  {
    "name": "浦和漁港灯台",
    "name_en": "URAWA fishing port lighthouse",
    "lat": 41.4892644,
    "lng": 140.2940167,
    "category": "lighthouse",
    "prefecture": "aomori",
    "osm_id": 6080037394,
    "spot_type": "data_spot",
    "data_source": "osm"
  },
  {
    "name": "岩部漁港灯台",
    "name_en": "IWABE fishing port lighthouse",
    "lat": 41.50555,
    "lng": 140.3410231,
    "category": "lighthouse",
    "prefecture": "aomori",
    "osm_id": 6080045275,
    "spot_type": "data_spot",
    "data_source": "osm"
  },
  {
    "name": "千軒神社",
    "name_en": "SENGEN shrine",
    "lat": 41.5592778,
    "lng": 140.2713066,
    "category": "shrine",
    "prefecture": "aomori",
    "osm_id": 6080070085,
    "spot_type": "data_spot",
    "data_source": "osm"
  },
  {
    "name": "大鰐温泉",
    "name_en": "Owani-Onsen",
    "lat": 40.521471,
    "lng": 140.5670401,
    "category": "station",
    "prefecture": "aomori",
    "osm_id": 6110900832,
    "spot_type": "data_spot",
    "data_source": "osm"
  },
  {
    "name": "長峰",
    "name_en": "Nagamine",
    "lat": 40.5158944,
    "lng": 140.6031226,
    "category": "station",
    "prefecture": "aomori",
    "osm_id": 6110900862,
    "spot_type": "data_spot",
    "data_source": "osm"
  },
  {
    "name": "白沢",
    "name_en": "Shirasawa",
    "lat": 40.3384424,
    "lng": 140.5919123,
    "category": "station",
    "prefecture": "aomori",
    "osm_id": 6111096462,
    "spot_type": "data_spot",
    "data_source": "osm"
  },
  {
    "name": "下川沿",
    "name_en": "Shimokawazoi",
    "lat": 40.2766005,
    "lng": 140.4977128,
    "category": "station",
    "prefecture": "aomori",
    "osm_id": 6111097330,
    "spot_type": "data_spot",
    "data_source": "osm"
  },
  {
    "name": "羽仁もと子記念館 八戸友の家",
    "name_en": "",
    "lat": 40.4958703,
    "lng": 141.4715341,
    "category": "museum",
    "prefecture": "aomori",
    "osm_id": 6212311120,
    "spot_type": "data_spot",
    "data_source": "osm"
  },
  {
    "name": "駒峯神社",
    "name_en": "",
    "lat": 40.5869351,
    "lng": 141.4391649,
    "category": "shrine",
    "prefecture": "aomori",
    "osm_id": 6240875808,
    "spot_type": "data_spot",
    "data_source": "osm"
  },
  {
    "name": "足湯",
    "name_en": "",
    "lat": 41.3088505,
    "lng": 141.1647312,
    "category": "onsen",
    "prefecture": "aomori",
    "osm_id": 6301142752,
    "spot_type": "data_spot",
    "data_source": "osm"
  },
  {
    "name": "あおもり健康ランド",
    "name_en": "",
    "lat": 40.8340119,
    "lng": 140.6922307,
    "category": "onsen",
    "prefecture": "aomori",
    "osm_id": 6302677970,
    "spot_type": "data_spot",
    "data_source": "osm"
  },
  {
    "name": "奥入瀬グリーンホテル",
    "name_en": "",
    "lat": 40.5774313,
    "lng": 140.9946325,
    "category": "onsen",
    "prefecture": "aomori",
    "osm_id": 6332962509,
    "spot_type": "data_spot",
    "data_source": "osm"
  },
  {
    "name": "野の花；焼山荘",
    "name_en": "",
    "lat": 40.5779047,
    "lng": 140.9946717,
    "category": "onsen",
    "prefecture": "aomori",
    "osm_id": 6332965080,
    "spot_type": "data_spot",
    "data_source": "osm"
  },
  {
    "name": "常光寺",
    "name_en": "Jokoji",
    "lat": 40.8247491,
    "lng": 140.7464912,
    "category": "temple",
    "prefecture": "aomori",
    "osm_id": 6354665842,
    "spot_type": "data_spot",
    "data_source": "osm"
  },
  {
    "name": "名称不明",
    "name_en": "",
    "lat": 40.8244524,
    "lng": 140.7475036,
    "category": "temple",
    "prefecture": "aomori",
    "osm_id": 6355529940,
    "spot_type": "data_spot",
    "data_source": "osm"
  },
  {
    "name": "名称不明",
    "name_en": "",
    "lat": 40.8242921,
    "lng": 140.7485041,
    "category": "temple",
    "prefecture": "aomori",
    "osm_id": 6355529941,
    "spot_type": "data_spot",
    "data_source": "osm"
  },
  {
    "name": "浜町神明宮",
    "name_en": "",
    "lat": 40.8274611,
    "lng": 140.7493107,
    "category": "shrine",
    "prefecture": "aomori",
    "osm_id": 6359218502,
    "spot_type": "data_spot",
    "data_source": "osm"
  },
  {
    "name": "大鰐",
    "name_en": "Ōwani",
    "lat": 40.5218329,
    "lng": 140.5670254,
    "category": "station",
    "prefecture": "aomori",
    "osm_id": 6374717354,
    "spot_type": "data_spot",
    "data_source": "osm"
  },
  {
    "name": "小松野温泉;旬楽",
    "name_en": "",
    "lat": 40.6162472,
    "lng": 140.3340852,
    "category": "onsen",
    "prefecture": "aomori",
    "osm_id": 6407839701,
    "spot_type": "data_spot",
    "data_source": "osm"
  },
  {
    "name": "青森競輪場温泉",
    "name_en": "",
    "lat": 40.7972674,
    "lng": 140.6644507,
    "category": "onsen",
    "prefecture": "aomori",
    "osm_id": 6408008447,
    "spot_type": "data_spot",
    "data_source": "osm"
  },
  {
    "name": "五代温泉;玉の湯",
    "name_en": "",
    "lat": 40.6133074,
    "lng": 140.4074393,
    "category": "onsen",
    "prefecture": "aomori",
    "osm_id": 6408172367,
    "spot_type": "data_spot",
    "data_source": "osm"
  },
  {
    "name": "御所温泉;相馬やすらぎ館",
    "name_en": "",
    "lat": 40.5858356,
    "lng": 140.3971847,
    "category": "onsen",
    "prefecture": "aomori",
    "osm_id": 6408259209,
    "spot_type": "data_spot",
    "data_source": "osm"
  },
  {
    "name": "田舎館村老人憩の家",
    "name_en": "",
    "lat": 40.632658,
    "lng": 140.5508655,
    "category": "onsen",
    "prefecture": "aomori",
    "osm_id": 6408687851,
    "spot_type": "data_spot",
    "data_source": "osm"
  },
  {
    "name": "喜龍温泉;玉の湯",
    "name_en": "",
    "lat": 40.6554678,
    "lng": 140.5060062,
    "category": "onsen",
    "prefecture": "aomori",
    "osm_id": 6408756000,
    "spot_type": "data_spot",
    "data_source": "osm"
  },
  {
    "name": "高増温泉；不動の湯",
    "name_en": "",
    "lat": 40.7177329,
    "lng": 140.4887005,
    "category": "onsen",
    "prefecture": "aomori",
    "osm_id": 6408773646,
    "spot_type": "data_spot",
    "data_source": "osm"
  },
  {
    "name": "二双子温泉共同浴場",
    "name_en": "",
    "lat": 40.6797781,
    "lng": 140.6039197,
    "category": "onsen",
    "prefecture": "aomori",
    "osm_id": 6408942667,
    "spot_type": "data_spot",
    "data_source": "osm"
  },
  {
    "name": "細野相沢温泉;山の湯",
    "name_en": "",
    "lat": 40.6937048,
    "lng": 140.6603469,
    "category": "onsen",
    "prefecture": "aomori",
    "osm_id": 6408985193,
    "spot_type": "data_spot",
    "data_source": "osm"
  },
  {
    "name": "湯野川温泉;濃々園",
    "name_en": "",
    "lat": 41.3166404,
    "lng": 140.9594553,
    "category": "onsen",
    "prefecture": "aomori",
    "osm_id": 6531464850,
    "spot_type": "data_spot",
    "data_source": "osm"
  },
  {
    "name": "道の駅浅虫温泉;ゆ～さ浅虫",
    "name_en": "",
    "lat": 40.8917306,
    "lng": 140.8613943,
    "category": "onsen",
    "prefecture": "aomori",
    "osm_id": 6531622910,
    "spot_type": "data_spot",
    "data_source": "osm"
  },
  {
    "name": "板柳町ふるさとセンター",
    "name_en": "",
    "lat": 40.6886457,
    "lng": 140.4633755,
    "category": "onsen",
    "prefecture": "aomori",
    "osm_id": 6532088133,
    "spot_type": "data_spot",
    "data_source": "osm"
  },
  {
    "name": "温泉浴場;三沢市民の森",
    "name_en": "",
    "lat": 40.7328598,
    "lng": 141.3592846,
    "category": "onsen",
    "prefecture": "aomori",
    "osm_id": 6532240976,
    "spot_type": "data_spot",
    "data_source": "osm"
  },
  {
    "name": "鹿角市大湯温泉保養センター;湯都里",
    "name_en": "",
    "lat": 40.2964006,
    "lng": 140.8232691,
    "category": "onsen",
    "prefecture": "aomori",
    "osm_id": 6532270391,
    "spot_type": "data_spot",
    "data_source": "osm"
  },
  {
    "name": "愛宕神社",
    "name_en": "",
    "lat": 40.8617533,
    "lng": 141.1357121,
    "category": "shrine",
    "prefecture": "aomori",
    "osm_id": 6612475123,
    "spot_type": "data_spot",
    "data_source": "osm"
  },
  {
    "name": "熊野神社",
    "name_en": "",
    "lat": 40.7371412,
    "lng": 141.1658629,
    "category": "shrine",
    "prefecture": "aomori",
    "osm_id": 6620335877,
    "spot_type": "data_spot",
    "data_source": "osm"
  },
  {
    "name": "大浴場 アルビレオ",
    "name_en": "",
    "lat": 40.572161,
    "lng": 140.3887737,
    "category": "onsen",
    "prefecture": "aomori",
    "osm_id": 6681139512,
    "spot_type": "data_spot",
    "data_source": "osm"
  },
  {
    "name": "舮作埼灯台",
    "name_en": "",
    "lat": 40.6125129,
    "lng": 139.8637488,
    "category": "lighthouse",
    "prefecture": "aomori",
    "osm_id": 6844694037,
    "spot_type": "data_spot",
    "data_source": "osm"
  },