[
  {
    "name": "志比堺",
    "name_en": "Shiizakai",
    "lat": 36.0979842,
    "lng": 136.3112661,
    "category": "station",
    "prefecture": "gifu",
    "osm_id": 264458454,
    "spot_type": "data_spot",
    "data_source": "osm"
  },
  {
    "name": "追分口",
    "name_en": "Oiwakeguchi",
    "lat": 36.08268,
    "lng": 136.261708,
    "category": "station",
    "prefecture": "gifu",
    "osm_id": 264458485,
    "spot_type": "data_spot",
    "data_source": "osm"
  },
  {
    "name": "下志比",
    "name_en": "Shimoshii",
    "lat": 36.0907156,
    "lng": 136.3362477,
    "category": "station",
    "prefecture": "gifu",
    "osm_id": 264458516,
    "spot_type": "data_spot",
    "data_source": "osm"
  },
  {
    "name": "光明寺",
    "name_en": "Kōmyōji",
    "lat": 36.0885598,
    "lng": 136.3442476,
    "category": "station",
    "prefecture": "gifu",
    "osm_id": 264458526,
    "spot_type": "data_spot",
    "data_source": "osm"
  },
  {
    "name": "轟",
    "name_en": "Domeki",
    "lat": 36.0868404,
    "lng": 136.3609869,
    "category": "station",
    "prefecture": "gifu",
    "osm_id": 264458550,
    "spot_type": "data_spot",
    "data_source": "osm"
  },
  {
    "name": "永平寺口",
    "name_en": "Eiheijiguchi",
    "lat": 36.0958797,
    "lng": 136.3266649,
    "category": "station",
    "prefecture": "gifu",
    "osm_id": 264458631,
    "spot_type": "data_spot",
    "data_source": "osm"
  },
  {
    "name": "小舟渡",
    "name_en": "Kobunato",
    "lat": 36.0755223,
    "lng": 136.4340138,
    "category": "station",
    "prefecture": "gifu",
    "osm_id": 264458643,
    "spot_type": "data_spot",
    "data_source": "osm"
  },
  {
    "name": "松岡",
    "name_en": "Matsuoka",
    "lat": 36.0939788,
    "lng": 136.3018447,
    "category": "station",
    "prefecture": "gifu",
    "osm_id": 264458709,
    "spot_type": "data_spot",
    "data_source": "osm"
  },
  {
    "name": "発坂",
    "name_en": "Hossaka",
    "lat": 36.0726192,
    "lng": 136.4657594,
    "category": "station",
    "prefecture": "gifu",
    "osm_id": 264458788,
    "spot_type": "data_spot",
    "data_source": "osm"
  },
  {
    "name": "越前野中",
    "name_en": "Echizen-Nonaka",
    "lat": 36.0829283,
    "lng": 136.3767745,
    "category": "station",
    "prefecture": "gifu",
    "osm_id": 264458809,
    "spot_type": "data_spot",
    "data_source": "osm"
  },
  {
    "name": "観音町",
    "name_en": "Kannonmachi",
    "lat": 36.0917593,
    "lng": 136.2900808,
    "category": "station",
    "prefecture": "gifu",
    "osm_id": 264458958,
    "spot_type": "data_spot",
    "data_source": "osm"
  },
  {
    "name": "越前島橋",
    "name_en": "Echizen-Shimabashi",
    "lat": 36.0900612,
    "lng": 136.2771814,
    "category": "station",
    "prefecture": "gifu",
    "osm_id": 264458968,
    "spot_type": "data_spot",
    "data_source": "osm"
  },
  {
    "name": "山王",
    "name_en": "Sannō",
    "lat": 36.0792111,
    "lng": 136.3924928,
    "category": "station",
    "prefecture": "gifu",
    "osm_id": 264458987,
    "spot_type": "data_spot",
    "data_source": "osm"
  },
  {
    "name": "東藤島",
    "name_en": "Higashi-Fujishima",
    "lat": 36.0866145,
    "lng": 136.2698858,
    "category": "station",
    "prefecture": "gifu",
    "osm_id": 264458989,
    "spot_type": "data_spot",
    "data_source": "osm"
  },
  {
    "name": "越前竹原",
    "name_en": "Echizen-Takehara",
    "lat": 36.0741138,
    "lng": 136.4130339,
    "category": "station",
    "prefecture": "gifu",
    "osm_id": 264459036,
    "spot_type": "data_spot",
    "data_source": "osm"
  },
  {
    "name": "保田",
    "name_en": "Hota",
    "lat": 36.0698779,
    "lng": 136.4515005,
    "category": "station",
    "prefecture": "gifu",
    "osm_id": 264459080,
    "spot_type": "data_spot",
    "data_source": "osm"
  },
  {
    "name": "久々野",
    "name_en": "Kuguno",
    "lat": 36.052522,
    "lng": 137.2766536,
    "category": "station",
    "prefecture": "gifu",
    "osm_id": 265828119,
    "spot_type": "data_spot",
    "data_source": "osm"
  },
  {
    "name": "渚",
    "name_en": "Nagisa",
    "lat": 36.0015549,
    "lng": 137.2880335,
    "category": "station",
    "prefecture": "gifu",
    "osm_id": 265828438,
    "spot_type": "data_spot",
    "data_source": "osm"
  },
  {
    "name": "杉崎",
    "name_en": "Sugisaki",
    "lat": 36.2500708,
    "lng": 137.1687142,
    "category": "station",
    "prefecture": "gifu",
    "osm_id": 265828618,
    "spot_type": "data_spot",
    "data_source": "osm"
  },
  {
    "name": "打保",
    "name_en": "Utsubo",
    "lat": 36.3836922,
    "lng": 137.1820267,
    "category": "station",
    "prefecture": "gifu",
    "osm_id": 265828691,
    "spot_type": "data_spot",
    "data_source": "osm"
  },
  {
    "name": "飛驒細江",
    "name_en": "Hida-Hosoe",
    "lat": 36.2610176,
    "lng": 137.1460663,
    "category": "station",
    "prefecture": "gifu",
    "osm_id": 265828894,
    "spot_type": "data_spot",
    "data_source": "osm"
  },
  {
    "name": "坂上",
    "name_en": "Sakakami",
    "lat": 36.3276988,
    "lng": 137.141042,
    "category": "station",
    "prefecture": "gifu",
    "osm_id": 265829488,
    "spot_type": "data_spot",
    "data_source": "osm"
  },
  {
    "name": "角川",
    "name_en": "Tsunogawa",
    "lat": 36.300239,
    "lng": 137.1133298,
    "category": "station",
    "prefecture": "gifu",
    "osm_id": 265829533,
    "spot_type": "data_spot",
    "data_source": "osm"
  },
  {
    "name": "上枝",
    "name_en": "Hozue",
    "lat": 36.1802604,
    "lng": 137.2456319,
    "category": "station",
    "prefecture": "gifu",
    "osm_id": 265829538,
    "spot_type": "data_spot",
    "data_source": "osm"
  },
  {
    "name": "杉原",
    "name_en": "Sugihara",
    "lat": 36.4157527,
    "lng": 137.1922638,
    "category": "station",
    "prefecture": "gifu",
    "osm_id": 265829727,
    "spot_type": "data_spot",
    "data_source": "osm"
  },
  {
    "name": "高山",
    "name_en": "Takayama",
    "lat": 36.141126,
    "lng": 137.2512848,
    "category": "station",
    "prefecture": "gifu",
    "osm_id": 265830186,
    "spot_type": "data_spot",
    "data_source": "osm"
  },
  {
    "name": "飛驒国府",
    "name_en": "Hida-Kokufu",
    "lat": 36.2112755,
    "lng": 137.2157892,
    "category": "station",
    "prefecture": "gifu",
    "osm_id": 265830187,
    "spot_type": "data_spot",
    "data_source": "osm"
  },
  {
    "name": "下油井",
    "name_en": "Shimo-Yui",
    "lat": 35.6334528,
    "lng": 137.1831146,
    "category": "station",
    "prefecture": "gifu",
    "osm_id": 265830339,
    "spot_type": "data_spot",
    "data_source": "osm"
  },
  {
    "name": "白川口",
    "name_en": "Shirakawaguchi",
    "lat": 35.5797277,
    "lng": 137.1842244,
    "category": "station",
    "prefecture": "gifu",
    "osm_id": 265830341,
    "spot_type": "data_spot",
    "data_source": "osm"
  },
  {
    "name": "上呂",
    "name_en": "Joro",
    "lat": 35.910732,
    "lng": 137.2047097,
    "category": "station",
    "prefecture": "gifu",
    "osm_id": 265830360,
    "spot_type": "data_spot",
    "data_source": "osm"
  },
  {
    "name": "飛騨小坂",
    "name_en": "Hida-Osaka",
    "lat": 35.9507258,
    "lng": 137.2569639,
    "category": "station",
    "prefecture": "gifu",
    "osm_id": 265831246,
    "spot_type": "data_spot",
    "data_source": "osm"
  },
  {
    "name": "焼石",
    "name_en": "Yakeishi",
    "lat": 35.7255114,
    "lng": 137.2006354,
    "category": "station",
    "prefecture": "gifu",
    "osm_id": 265831250,
    "spot_type": "data_spot",
    "data_source": "osm"
  },
  {
    "name": "古井",
    "name_en": "Kobi",
    "lat": 35.4575928,
    "lng": 137.0478971,
    "category": "station",
    "prefecture": "gifu",
    "osm_id": 265831264,
    "spot_type": "data_spot",
    "data_source": "osm"
  },
  {
    "name": "下麻生",
    "name_en": "Shimoasō",
    "lat": 35.5150121,
    "lng": 137.0870977,
    "category": "station",
    "prefecture": "gifu",
    "osm_id": 265831278,
    "spot_type": "data_spot",
    "data_source": "osm"
  },
  {
    "name": "飛騨金山",
    "name_en": "Hida-Kanayama",
    "lat": 35.661947,
    "lng": 137.1645555,
    "category": "station",
    "prefecture": "gifu",
    "osm_id": 265831286,
    "spot_type": "data_spot",
    "data_source": "osm"
  },
  {
    "name": "飛驒萩原",
    "name_en": "Hida-Hagiwara",
    "lat": 35.8745851,
    "lng": 137.2138028,
    "category": "station",
    "prefecture": "gifu",
    "osm_id": 265831722,
    "spot_type": "data_spot",
    "data_source": "osm"
  },
  {
    "name": "下呂",
    "name_en": "Gero",
    "lat": 35.8058151,
    "lng": 137.2395509,
    "category": "station",
    "prefecture": "gifu",
    "osm_id": 265832445,
    "spot_type": "data_spot",
    "data_source": "osm"
  },
  {
    "name": "上麻生",
    "name_en": "Kamiaso",
    "lat": 35.5413606,
    "lng": 137.1189163,
    "category": "station",
    "prefecture": "gifu",
    "osm_id": 265832653,
    "spot_type": "data_spot",
    "data_source": "osm"
  },
  {
    "name": "中川辺",
    "name_en": "Nakakawabe",
    "lat": 35.4874239,
    "lng": 137.0652094,
    "category": "station",
    "prefecture": "gifu",
    "osm_id": 265832820,
    "spot_type": "data_spot",
    "data_source": "osm"
  },
  {
    "name": "飛驒宮田",
    "name_en": "Hida-Miyada",
    "lat": 35.9284357,
    "lng": 137.2355569,
    "category": "station",
    "prefecture": "gifu",
    "osm_id": 265832827,
    "spot_type": "data_spot",
    "data_source": "osm"
  },
  {
    "name": "禅昌寺",
    "name_en": "Zenshoji",
    "lat": 35.8489993,
    "lng": 137.2253071,
    "category": "station",
    "prefecture": "gifu",
    "osm_id": 265834376,
    "spot_type": "data_spot",
    "data_source": "osm"
  },
  {
    "name": "八田",
    "name_en": "Hatta",
    "lat": 35.1489761,
    "lng": 136.8523706,
    "category": "station",
    "prefecture": "gifu",
    "osm_id": 265835724,
    "spot_type": "data_spot",
    "data_source": "osm"
  },
  {
    "name": "春田",
    "name_en": "Haruta",
    "lat": 35.1431465,
    "lng": 136.8136626,
    "category": "station",
    "prefecture": "gifu",
    "osm_id": 265835730,
    "spot_type": "data_spot",
    "data_source": "osm"
  },
  {
    "name": "蟹江",
    "name_en": "Kanie",
    "lat": 35.1420198,
    "lng": 136.7937101,
    "category": "station",
    "prefecture": "gifu",
    "osm_id": 265835731,
    "spot_type": "data_spot",
    "data_source": "osm"
  },
  {
    "name": "岐南",
    "name_en": "Ginan",
    "lat": 35.3898505,
    "lng": 136.7692028,
    "category": "station",
    "prefecture": "gifu",
    "osm_id": 266043526,
    "spot_type": "data_spot",
    "data_source": "osm"
  },
  {
    "name": "能美根上",
    "name_en": "Nomi-Neagari",
    "lat": 36.4518274,
    "lng": 136.4595421,
    "category": "station",
    "prefecture": "gifu",
    "osm_id": 267306898,
    "spot_type": "data_spot",
    "data_source": "osm"
  },
  {
    "name": "動橋",
    "name_en": "Iburihashi",
    "lat": 36.3283587,
    "lng": 136.3830171,
    "category": "station",
    "prefecture": "gifu",
    "osm_id": 267307344,
    "spot_type": "data_spot",
    "data_source": "osm"
  },
  {
    "name": "明峰",
    "name_en": "Meihō",
    "lat": 36.4247198,
    "lng": 136.4630942,
    "category": "station",
    "prefecture": "gifu",
    "osm_id": 267307956,
    "spot_type": "data_spot",
    "data_source": "osm"
  },
  {
    "name": "粟津",
    "name_en": "Awazu",
    "lat": 36.3555113,
    "lng": 136.4244391,
    "category": "station",
    "prefecture": "gifu",
    "osm_id": 267307984,
    "spot_type": "data_spot",
    "data_source": "osm"
  },
  {
    "name": "牛ノ谷",
    "name_en": "Ushinoya",
    "lat": 36.2587248,
    "lng": 136.2814036,
    "category": "station",
    "prefecture": "gifu",
    "osm_id": 267308141,
    "spot_type": "data_spot",
    "data_source": "osm"
  },
  {
    "name": "牛ケ原",
    "name_en": "Ushigahara",
    "lat": 35.9986582,
    "lng": 136.4676954,
    "category": "station",
    "prefecture": "gifu",
    "osm_id": 267448890,
    "spot_type": "data_spot",
    "data_source": "osm"
  },
  {
    "name": "越前田野",
    "name_en": "Echizen-Tano",
    "lat": 35.9870211,
    "lng": 136.5266892,
    "category": "station",
    "prefecture": "gifu",
    "osm_id": 267448953,
    "spot_type": "data_spot",
    "data_source": "osm"
  },
  {
    "name": "越前富田",
    "name_en": "Echizen-Tomida",
    "lat": 35.991227,
    "lng": 136.5411772,
    "category": "station",
    "prefecture": "gifu",
    "osm_id": 267448955,
    "spot_type": "data_spot",
    "data_source": "osm"
  },
  {
    "name": "計石",
    "name_en": "Hakariishi",
    "lat": 35.9976236,
    "lng": 136.434484,
    "category": "station",
    "prefecture": "gifu",
    "osm_id": 267448957,
    "spot_type": "data_spot",
    "data_source": "osm"
  },
  {
    "name": "小和清水",
    "name_en": "Kowashōzu",
    "lat": 36.017426,
    "lng": 136.350708,
    "category": "station",
    "prefecture": "gifu",
    "osm_id": 267449013,
    "spot_type": "data_spot",
    "data_source": "osm"
  },
  {
    "name": "下唯野",
    "name_en": "Shimo-Yuino",
    "lat": 35.9740208,
    "lng": 136.5604723,
    "category": "station",
    "prefecture": "gifu",
    "osm_id": 267449030,
    "spot_type": "data_spot",
    "data_source": "osm"
  },
  {
    "name": "越前薬師",
    "name_en": "Echizen-Yakushi",
    "lat": 36.0053162,
    "lng": 136.3843061,
    "category": "station",
    "prefecture": "gifu",
    "osm_id": 267449031,
    "spot_type": "data_spot",
    "data_source": "osm"
  },
  {
    "name": "北大野",
    "name_en": "Kita-Ono",
    "lat": 35.9979595,
    "lng": 136.4882674,
    "category": "station",
    "prefecture": "gifu",
    "osm_id": 267449124,
    "spot_type": "data_spot",
    "data_source": "osm"
  },
  {
    "name": "越前東郷",
    "name_en": "Echizen-Tōgō",
    "lat": 36.0182871,
    "lng": 136.2735924,
    "category": "station",
    "prefecture": "gifu",
    "osm_id": 267449139,
    "spot_type": "data_spot",
    "data_source": "osm"
  },
  {
    "name": "市波",
    "name_en": "Ichinami",
    "lat": 36.02,
    "lng": 136.33015,
    "category": "station",
    "prefecture": "gifu",
    "osm_id": 267449183,
    "spot_type": "data_spot",
    "data_source": "osm"
  },
  {
    "name": "越前高田",
    "name_en": "Echizen-Takada",
    "lat": 36.024837,
    "lng": 136.3187875,
    "category": "station",
    "prefecture": "gifu",
    "osm_id": 267449283,
    "spot_type": "data_spot",
    "data_source": "osm"
  },
  {
    "name": "越前大野",
    "name_en": "Echizen-Ono",
    "lat": 35.9832744,
    "lng": 136.4969352,
    "category": "station",
    "prefecture": "gifu",
    "osm_id": 267449284,
    "spot_type": "data_spot",
    "data_source": "osm"
  },
  {
    "name": "柿ケ島",
    "name_en": "Kakigashima",
    "lat": 35.9725606,
    "lng": 136.5713305,
    "category": "station",
    "prefecture": "gifu",
    "osm_id": 267449875,
    "spot_type": "data_spot",
    "data_source": "osm"
  },
  {
    "name": "一乗谷",
    "name_en": "Ichijōdani",
    "lat": 36.0137208,
    "lng": 136.29745,
    "category": "station",
    "prefecture": "gifu",
    "osm_id": 267450570,
    "spot_type": "data_spot",
    "data_source": "osm"
  },
  {
    "name": "越前大宮",
    "name_en": "Echizen-Ōmiya",
    "lat": 35.9999944,
    "lng": 136.4102194,
    "category": "station",
    "prefecture": "gifu",
    "osm_id": 267450574,
    "spot_type": "data_spot",
    "data_source": "osm"
  },
  {
    "name": "越前下山",
    "name_en": "Echizen-Shimoyama",
    "lat": 35.9205882,
    "lng": 136.6347769,
    "category": "station",
    "prefecture": "gifu",
    "osm_id": 267451324,
    "spot_type": "data_spot",
    "data_source": "osm"
  },
  {
    "name": "勝原",
    "name_en": "Kadohara",
    "lat": 35.96738,
    "lng": 136.597601,
    "category": "station",
    "prefecture": "gifu",
    "osm_id": 267451487,
    "spot_type": "data_spot",
    "data_source": "osm"
  },
  {
    "name": "十九条",
    "name_en": "Jūkujō",
    "lat": 35.3958908,
    "lng": 136.6609576,
    "category": "station",
    "prefecture": "gifu",
    "osm_id": 270865273,
    "spot_type": "data_spot",
    "data_source": "osm"
  },
  {
    "name": "本巣",
    "name_en": "Motosu",
    "lat": 35.4877573,
    "lng": 136.6698472,
    "category": "station",
    "prefecture": "gifu",
    "osm_id": 270865274,
    "spot_type": "data_spot",
    "data_source": "osm"
  },
  {
    "name": "木知原",
    "name_en": "Kochibora",
    "lat": 35.5177643,
    "lng": 136.6500756,
    "category": "station",
    "prefecture": "gifu",
    "osm_id": 270865277,
    "spot_type": "data_spot",
    "data_source": "osm"
  },
  {
    "name": "美江寺",
    "name_en": "Mieji",
    "lat": 35.4134526,
    "lng": 136.6614287,
    "category": "station",
    "prefecture": "gifu",
    "osm_id": 270865330,
    "spot_type": "data_spot",
    "data_source": "osm"
  },
  {
    "name": "東大垣",
    "name_en": "Higashi-Ōgaki",
    "lat": 35.3751889,
    "lng": 136.6463467,
    "category": "station",
    "prefecture": "gifu",
    "osm_id": 270865353,
    "spot_type": "data_spot",
    "data_source": "osm"
  },
  {
    "name": "織部",
    "name_en": "Oribe",
    "lat": 35.498881,
    "lng": 136.6673199,
    "category": "station",
    "prefecture": "gifu",
    "osm_id": 270865354,
    "spot_type": "data_spot",
    "data_source": "osm"
  },
  {
    "name": "横屋",
    "name_en": "Yokoya",
    "lat": 35.3872545,
    "lng": 136.6595332,
    "category": "station",
    "prefecture": "gifu",
    "osm_id": 270865476,
    "spot_type": "data_spot",
    "data_source": "osm"
  },
  {
    "name": "糸貫",
    "name_en": "Itonuki",
    "lat": 35.462828,
    "lng": 136.6697386,
    "category": "station",
    "prefecture": "gifu",
    "osm_id": 270865477,
    "spot_type": "data_spot",
    "data_source": "osm"
  },
  {
    "name": "北方真桑",
    "name_en": "Kitagata-Makuwa",
    "lat": 35.4396143,
    "lng": 136.6741034,
    "category": "station",
    "prefecture": "gifu",
    "osm_id": 270865520,
    "spot_type": "data_spot",
    "data_source": "osm"
  },
  {
    "name": "鍋原",
    "name_en": "Nabera",
    "lat": 35.5658209,
    "lng": 136.6365623,
    "category": "station",
    "prefecture": "gifu",
    "osm_id": 270865550,
    "spot_type": "data_spot",
    "data_source": "osm"
  },
  {
    "name": "谷汲口",
    "name_en": "Tanigumi-guchi",
    "lat": 35.5270669,
    "lng": 136.6422181,
    "category": "station",
    "prefecture": "gifu",
    "osm_id": 270865554,
    "spot_type": "data_spot",
    "data_source": "osm"
  },
  {
    "name": "樽見",
    "name_en": "Tarumi",
    "lat": 35.6355039,
    "lng": 136.615428,
    "category": "station",
    "prefecture": "gifu",
    "osm_id": 270865556,
    "spot_type": "data_spot",
    "data_source": "osm"
  },
  {
    "name": "高尾",
    "name_en": "Takao",
    "lat": 35.6010272,
    "lng": 136.6257677,
    "category": "station",
    "prefecture": "gifu",
    "osm_id": 270865558,
    "spot_type": "data_spot",
    "data_source": "osm"
  },
  {
    "name": "神海",
    "name_en": "Kōmi",
    "lat": 35.5425424,
    "lng": 136.6415315,
    "category": "station",
    "prefecture": "gifu",
    "osm_id": 270865670,
    "spot_type": "data_spot",
    "data_source": "osm"
  },
  {
    "name": "高科",
    "name_en": "Takashina",
    "lat": 35.555457,
    "lng": 136.6401978,
    "category": "station",
    "prefecture": "gifu",
    "osm_id": 270865673,
    "spot_type": "data_spot",
    "data_source": "osm"
  },
  {
    "name": "日当",
    "name_en": "Hinata",
    "lat": 35.5824958,
    "lng": 136.6314276,
    "category": "station",
    "prefecture": "gifu",
    "osm_id": 270865693,
    "spot_type": "data_spot",
    "data_source": "osm"
  },
  {
    "name": "水鳥",
    "name_en": "Midori",
    "lat": 35.6178004,
    "lng": 136.6207462,
    "category": "station",
    "prefecture": "gifu",
    "osm_id": 270865878,
    "spot_type": "data_spot",
    "data_source": "osm"
  },
  {
    "name": "本殿",
    "name_en": "",
    "lat": 36.0438651,
    "lng": 136.5421396,
    "category": "shrine",
    "prefecture": "gifu",
    "osm_id": 294370839,
    "spot_type": "data_spot",
    "data_source": "osm"
  },
  {
    "name": "飛驒古川",
    "name_en": "Hida-Furukawa",
    "lat": 36.2368453,
    "lng": 137.1896144,
    "category": "station",
    "prefecture": "gifu",
    "osm_id": 294483184,
    "spot_type": "data_spot",
    "data_source": "osm"
  },
  {
    "name": "円光寺",
    "name_en": "Enkō Temple",
    "lat": 36.2359002,
    "lng": 137.1863343,
    "category": "temple",
    "prefecture": "gifu",
    "osm_id": 294483280,
    "spot_type": "data_spot",
    "data_source": "osm"
  },
  {
    "name": "長浜城歴史博物館",
    "name_en": "Nagahama castle museum",
    "lat": 35.377657,
    "lng": 136.261281,
    "category": "museum",
    "prefecture": "gifu",
    "osm_id": 298348191,
    "spot_type": "data_spot",
    "data_source": "osm"
  },
  {
    "name": "総持寺",
    "name_en": "",
    "lat": 35.3848216,
    "lng": 136.2901212,
    "category": "temple",
    "prefecture": "gifu",
    "osm_id": 391076163,
    "spot_type": "data_spot",
    "data_source": "osm"
  },
  {
    "name": "岡神社",
    "name_en": "",
    "lat": 35.385507,
    "lng": 136.3673868,
    "category": "shrine",
    "prefecture": "gifu",
    "osm_id": 401498382,
    "spot_type": "data_spot",
    "data_source": "osm"
  },
  {
    "name": "八幡神社",
    "name_en": "",
    "lat": 35.3762195,
    "lng": 136.3328466,
    "category": "shrine",
    "prefecture": "gifu",
    "osm_id": 402522606,
    "spot_type": "data_spot",
    "data_source": "osm"
  },
  {
    "name": "八幡神社",
    "name_en": "",
    "lat": 35.3890834,
    "lng": 136.3741993,
    "category": "shrine",
    "prefecture": "gifu",
    "osm_id": 402522607,
    "spot_type": "data_spot",
    "data_source": "osm"
  },
  {
    "name": "八幡神社",
    "name_en": "",
    "lat": 35.3945409,
    "lng": 136.3675075,
    "category": "shrine",
    "prefecture": "gifu",
    "osm_id": 402522608,
    "spot_type": "data_spot",
    "data_source": "osm"
  },
  {
    "name": "日枝神社",
    "name_en": "",
    "lat": 35.3827965,
    "lng": 136.2930138,
    "category": "shrine",
    "prefecture": "gifu",
    "osm_id": 402522609,
    "spot_type": "data_spot",
    "data_source": "osm"
  },
  {
    "name": "天満神社",
    "name_en": "",
    "lat": 35.3798551,
    "lng": 136.271103,
    "category": "shrine",
    "prefecture": "gifu",
    "osm_id": 402522610,
    "spot_type": "data_spot",
    "data_source": "osm"
  },
  {
    "name": "郷里神社",
    "name_en": "",
    "lat": 35.4023055,
    "lng": 136.2948818,
    "category": "shrine",
    "prefecture": "gifu",
    "osm_id": 402522613,
    "spot_type": "data_spot",
    "data_source": "osm"
  },
  {
    "name": "稲荷神社",
    "name_en": "",
    "lat": 35.3829903,
    "lng": 136.2706484,
    "category": "shrine",
    "prefecture": "gifu",
    "osm_id": 402522614,
    "spot_type": "data_spot",
    "data_source": "osm"
  },
  {
    "name": "日吉神社",
    "name_en": "",
    "lat": 35.3828463,
    "lng": 136.2701627,
    "category": "shrine",
    "prefecture": "gifu",
    "osm_id": 402522615,
    "spot_type": "data_spot",
    "data_source": "osm"
  },
  {
    "name": "八幡神社",
    "name_en": "",
    "lat": 35.3848807,
    "lng": 136.3417728,
    "category": "shrine",
    "prefecture": "gifu",
    "osm_id": 402522632,
    "spot_type": "data_spot",
    "data_source": "osm"
  },
  {
    "name": "稲荷神社",
    "name_en": "",
    "lat": 35.3754586,
    "lng": 136.2687744,
    "category": "shrine",
    "prefecture": "gifu",
    "osm_id": 402522635,
    "spot_type": "data_spot",
    "data_source": "osm"
  },
  {
    "name": "浄土真宗本願寺派長浜別院",
    "name_en": "",
    "lat": 35.3828676,
    "lng": 136.2646614,
    "category": "temple",
    "prefecture": "gifu",
    "osm_id": 406813604,
    "spot_type": "data_spot",
    "data_source": "osm"
  },
  {
    "name": "真宗佛光派長浜別院",
    "name_en": "",
    "lat": 35.3857727,
    "lng": 136.2676395,
    "category": "temple",
    "prefecture": "gifu",
    "osm_id": 406813609,
    "spot_type": "data_spot",
    "data_source": "osm"
  },
  {
    "name": "日出山神照寺",
    "name_en": "",
    "lat": 35.4026319,
    "lng": 136.2743885,
    "category": "temple",
    "prefecture": "gifu",
    "osm_id": 410416993,
    "spot_type": "data_spot",
    "data_source": "osm"
  },
  {
    "name": "和泉神社",
    "name_en": "",
    "lat": 35.4788772,
    "lng": 136.2678877,
    "category": "shrine",
    "prefecture": "gifu",
    "osm_id": 411183988,
    "spot_type": "data_spot",
    "data_source": "osm"
  },
  {
    "name": "吉野神社",
    "name_en": "",
    "lat": 35.4585108,
    "lng": 136.356185,
    "category": "shrine",
    "prefecture": "gifu",
    "osm_id": 411183993,
    "spot_type": "data_spot",
    "data_source": "osm"
  },
  {
    "name": "鹿座神社",
    "name_en": "",
    "lat": 35.406096,
    "lng": 136.3136679,
    "category": "shrine",
    "prefecture": "gifu",
    "osm_id": 411183998,
    "spot_type": "data_spot",
    "data_source": "osm"
  },
  {
    "name": "上坂神社",
    "name_en": "",
    "lat": 35.4063871,
    "lng": 136.3187001,
    "category": "shrine",
    "prefecture": "gifu",
    "osm_id": 411184001,
    "spot_type": "data_spot",
    "data_source": "osm"
  },
  {
    "name": "白山神社",
    "name_en": "",
    "lat": 35.3963691,
    "lng": 136.3047491,
    "category": "shrine",
    "prefecture": "gifu",
    "osm_id": 411184003,
    "spot_type": "data_spot",
    "data_source": "osm"
  },
  {
    "name": "湯次神社",
    "name_en": "",
    "lat": 35.4239934,
    "lng": 136.3021276,
    "category": "shrine",
    "prefecture": "gifu",
    "osm_id": 411184020,
    "spot_type": "data_spot",
    "data_source": "osm"
  },
  {
    "name": "坂田神明宮",
    "name_en": "",
    "lat": 35.3373081,
    "lng": 136.2870373,
    "category": "shrine",
    "prefecture": "gifu",
    "osm_id": 411184024,
    "spot_type": "data_spot",
    "data_source": "osm"
  },
  {
    "name": "坂田神明宮",
    "name_en": "",
    "lat": 35.3375042,
    "lng": 136.2874285,
    "category": "shrine",
    "prefecture": "gifu",
    "osm_id": 411184027,
    "spot_type": "data_spot",
    "data_source": "osm"
  },
  {
    "name": "長浜市立曳山博物館",
    "name_en": "",
    "lat": 35.3813046,
    "lng": 136.2689049,
    "category": "museum",
    "prefecture": "gifu",
    "osm_id": 411308398,
    "spot_type": "data_spot",
    "data_source": "osm"
  },
  {
    "name": "天神神社",
    "name_en": "",
    "lat": 35.392145,
    "lng": 136.2726437,
    "category": "shrine",
    "prefecture": "gifu",
    "osm_id": 411308401,
    "spot_type": "data_spot",
    "data_source": "osm"
  },
  {
    "name": "若宮神社",
    "name_en": "",
    "lat": 35.3961998,
    "lng": 136.2773536,
    "category": "shrine",
    "prefecture": "gifu",
    "osm_id": 411308402,
    "spot_type": "data_spot",
    "data_source": "osm"
  },
  {
    "name": "住吉神社",
    "name_en": "",
    "lat": 35.3760514,
    "lng": 136.2770949,
    "category": "shrine",
    "prefecture": "gifu",
    "osm_id": 411308403,
    "spot_type": "data_spot",
    "data_source": "osm"
  },
  {
    "name": "生駒神社",
    "name_en": "",
    "lat": 35.3732709,
    "lng": 136.2717353,
    "category": "shrine",
    "prefecture": "gifu",
    "osm_id": 412643507,
    "spot_type": "data_spot",
    "data_source": "osm"
  },
  {
    "name": "貴船神社",
    "name_en": "",
    "lat": 35.3747508,
    "lng": 136.2681016,
    "category": "shrine",
    "prefecture": "gifu",
    "osm_id": 412643508,
    "spot_type": "data_spot",
    "data_source": "osm"
  },
  {
    "name": "秀鐘館",
    "name_en": "",
    "lat": 35.3765274,
    "lng": 136.2680638,
    "category": "museum",
    "prefecture": "gifu",
    "osm_id": 412643509,
    "spot_type": "data_spot",
    "data_source": "osm"
  },
  {
    "name": "宝生山勝安寺知善院",
    "name_en": "",
    "lat": 35.3836045,
    "lng": 136.2671937,
    "category": "temple",
    "prefecture": "gifu",
    "osm_id": 412643510,
    "spot_type": "data_spot",
    "data_source": "osm"
  },
  {
    "name": "長尾山妙法寺",
    "name_en": "",
    "lat": 35.3796364,
    "lng": 136.2699254,
    "category": "temple",
    "prefecture": "gifu",
    "osm_id": 412643511,
    "spot_type": "data_spot",
    "data_source": "osm"
  },
  {
    "name": "興福山徳勝寺",
    "name_en": "",
    "lat": 35.373549,
    "lng": 136.2716555,
    "category": "temple",
    "prefecture": "gifu",
    "osm_id": 412643512,
    "spot_type": "data_spot",
    "data_source": "osm"
  },
  {
    "name": "伊富貴山観音護国寺",
    "name_en": "",
    "lat": 35.3893564,
    "lng": 136.3378563,
    "category": "temple",
    "prefecture": "gifu",
    "osm_id": 412643513,
    "spot_type": "data_spot",
    "data_source": "osm"
  },
  {
    "name": "長浜八幡宮御旅所",
    "name_en": "",
    "lat": 35.3807767,
    "lng": 136.2657855,
    "category": "shrine",
    "prefecture": "gifu",
    "osm_id": 412643515,
    "spot_type": "data_spot",
    "data_source": "osm"
  },
  {
    "name": "天守神社",
    "name_en": "",
    "lat": 35.3779531,
    "lng": 136.2609478,
    "category": "shrine",
    "prefecture": "gifu",
    "osm_id": 412680006,
    "spot_type": "data_spot",
    "data_source": "osm"
  },
  {
    "name": "後鳥羽神社",
    "name_en": "",
    "lat": 35.3581956,
    "lng": 136.3209612,
    "category": "shrine",
    "prefecture": "gifu",
    "osm_id": 412723466,
    "spot_type": "data_spot",
    "data_source": "osm"
  },
  {
    "name": "若宮神社",
    "name_en": "",
    "lat": 35.3558008,
    "lng": 136.3049881,
    "category": "shrine",
    "prefecture": "gifu",
    "osm_id": 412723467,
    "spot_type": "data_spot",
    "data_source": "osm"
  },
  {
    "name": "日枝神社",
    "name_en": "",
    "lat": 35.3777265,
    "lng": 136.2930878,
    "category": "shrine",
    "prefecture": "gifu",
    "osm_id": 412723468,
    "spot_type": "data_spot",
    "data_source": "osm"
  },
  {
    "name": "足柄神社",
    "name_en": "",
    "lat": 35.3757629,
    "lng": 136.3126762,
    "category": "shrine",
    "prefecture": "gifu",
    "osm_id": 412723473,
    "spot_type": "data_spot",
    "data_source": "osm"
  },
  {
    "name": "加茂神社",
    "name_en": "",
    "lat": 35.4070821,
    "lng": 136.2818207,
    "category": "shrine",
    "prefecture": "gifu",
    "osm_id": 413317485,
    "spot_type": "data_spot",
    "data_source": "osm"
  },
  {
    "name": "大井神社",
    "name_en": "",
    "lat": 35.4184429,
    "lng": 136.2643278,
    "category": "shrine",
    "prefecture": "gifu",
    "osm_id": 413317486,
    "spot_type": "data_spot",
    "data_source": "osm"
  },
  {
    "name": "虎御前神社",
    "name_en": "",
    "lat": 35.4429198,
    "lng": 136.2681553,
    "category": "shrine",
    "prefecture": "gifu",
    "osm_id": 413317489,
    "spot_type": "data_spot",
    "data_source": "osm"
  },
  {
    "name": "日枝神社",
    "name_en": "",
    "lat": 35.4085071,
    "lng": 136.2722064,
    "category": "shrine",
    "prefecture": "gifu",
    "osm_id": 413317490,
    "spot_type": "data_spot",
    "data_source": "osm"
  },
  {
    "name": "日吉神社",
    "name_en": "",
    "lat": 35.4107538,
    "lng": 136.282846,
    "category": "shrine",
    "prefecture": "gifu",
    "osm_id": 413317491,
    "spot_type": "data_spot",
    "data_source": "osm"
  },
  {
    "name": "橋本神社",
    "name_en": "",
    "lat": 35.4041127,
    "lng": 136.284388,
    "category": "shrine",
    "prefecture": "gifu",
    "osm_id": 413317493,
    "spot_type": "data_spot",
    "data_source": "osm"
  },
  {
    "name": "三の宮神社",
    "name_en": "",
    "lat": 35.3786969,
    "lng": 136.2783983,
    "category": "shrine",
    "prefecture": "gifu",
    "osm_id": 413317495,
    "spot_type": "data_spot",
    "data_source": "osm"
  },
  {
    "name": "豊受稲荷神社",
    "name_en": "",
    "lat": 35.3786347,
    "lng": 136.278678,
    "category": "shrine",
    "prefecture": "gifu",
    "osm_id": 413317496,
    "spot_type": "data_spot",
    "data_source": "osm"
  },
  {
    "name": "八坂神社",
    "name_en": "",
    "lat": 35.4016602,
    "lng": 136.2706711,
    "category": "shrine",
    "prefecture": "gifu",
    "osm_id": 413317498,
    "spot_type": "data_spot",
    "data_source": "osm"
  },
  {
    "name": "三ツ矢大神宮",
    "name_en": "",
    "lat": 35.3841721,
    "lng": 136.2676458,
    "category": "shrine",
    "prefecture": "gifu",
    "osm_id": 413317499,
    "spot_type": "data_spot",
    "data_source": "osm"
  },
  {
    "name": "郡上太神宮",
    "name_en": "",
    "lat": 35.3840396,
    "lng": 136.2658089,
    "category": "shrine",
    "prefecture": "gifu",
    "osm_id": 413317500,
    "spot_type": "data_spot",
    "data_source": "osm"
  },
  {
    "name": "八幡神社",
    "name_en": "",
    "lat": 35.3865245,
    "lng": 136.2691998,
    "category": "shrine",
    "prefecture": "gifu",
    "osm_id": 413317501,
    "spot_type": "data_spot",
    "data_source": "osm"
  },
  {
    "name": "五所神社",
    "name_en": "",
    "lat": 35.3861542,
    "lng": 136.2882965,
    "category": "shrine",
    "prefecture": "gifu",
    "osm_id": 413317502,
    "spot_type": "data_spot",
    "data_source": "osm"
  },
  {
    "name": "三島神社",
    "name_en": "",
    "lat": 35.3741726,
    "lng": 136.3569851,
    "category": "shrine",
    "prefecture": "gifu",
    "osm_id": 413406079,
    "spot_type": "data_spot",
    "data_source": "osm"
  },
  {
    "name": "愛宕神社",
    "name_en": "",
    "lat": 35.3772484,
    "lng": 136.3563168,
    "category": "shrine",
    "prefecture": "gifu",
    "osm_id": 413406080,
    "spot_type": "data_spot",
    "data_source": "osm"
  },
  {
    "name": "光専寺",
    "name_en": "",
    "lat": 35.3794692,
    "lng": 136.3552864,
    "category": "temple",
    "prefecture": "gifu",
    "osm_id": 413406081,
    "spot_type": "data_spot",
    "data_source": "osm"
  },
  {
    "name": "鎌足神社",
    "name_en": "",
    "lat": 35.3799652,
    "lng": 136.3548635,
    "category": "shrine",
    "prefecture": "gifu",
    "osm_id": 413406083,
    "spot_type": "data_spot",
    "data_source": "osm"
  },
  {
    "name": "八幡神社",
    "name_en": "",
    "lat": 35.3821564,
    "lng": 136.3571843,
    "category": "shrine",
    "prefecture": "gifu",
    "osm_id": 413406084,
    "spot_type": "data_spot",
    "data_source": "osm"
  },
  {
    "name": "五十鈴神社",
    "name_en": "",
    "lat": 35.3786926,
    "lng": 136.3634118,
    "category": "shrine",
    "prefecture": "gifu",
    "osm_id": 413406085,
    "spot_type": "data_spot",
    "data_source": "osm"
  },
  {
    "name": "都久夫須麻神社",
    "name_en": "",
    "lat": 35.3762091,
    "lng": 136.3584985,
    "category": "shrine",
    "prefecture": "gifu",
    "osm_id": 413406086,
    "spot_type": "data_spot",
    "data_source": "osm"
  },
  {
    "name": "八幡神社",
    "name_en": "",
    "lat": 35.3356559,
    "lng": 136.3589548,
    "category": "shrine",
    "prefecture": "gifu",
    "osm_id": 413406087,
    "spot_type": "data_spot",
    "data_source": "osm"
  },
  {
    "name": "八相宮",
    "name_en": "",
    "lat": 35.3631195,
    "lng": 136.4006191,
    "category": "shrine",
    "prefecture": "gifu",
    "osm_id": 413735514,
    "spot_type": "data_spot",
    "data_source": "osm"
  },
  {
    "name": "泉神社",
    "name_en": "",
    "lat": 35.3749896,
    "lng": 136.4011335,
    "category": "shrine",
    "prefecture": "gifu",
    "osm_id": 413735515,
    "spot_type": "data_spot",
    "data_source": "osm"
  },
  {
    "name": "八阪神社",
    "name_en": "",
    "lat": 35.383908,
    "lng": 136.4180467,
    "category": "shrine",
    "prefecture": "gifu",
    "osm_id": 413735516,
    "spot_type": "data_spot",
    "data_source": "osm"
  },
  {
    "name": "八幡神社",
    "name_en": "",
    "lat": 35.3449815,
    "lng": 136.4049018,
    "category": "shrine",
    "prefecture": "gifu",
    "osm_id": 413735517,
    "spot_type": "data_spot",
    "data_source": "osm"
  },
  {
    "name": "津島神社",
    "name_en": "",
    "lat": 35.3386309,
    "lng": 136.3959938,
    "category": "shrine",
    "prefecture": "gifu",
    "osm_id": 413735518,
    "spot_type": "data_spot",
    "data_source": "osm"
  },
  {
    "name": "勝居神社",
    "name_en": "",
    "lat": 35.3707731,
    "lng": 136.3859389,
    "category": "shrine",
    "prefecture": "gifu",
    "osm_id": 413735519,
    "spot_type": "data_spot",
    "data_source": "osm"
  },
  {
    "name": "千福神社",
    "name_en": "",
    "lat": 35.3761351,
    "lng": 136.3811236,
    "category": "shrine",
    "prefecture": "gifu",
    "osm_id": 413735520,
    "spot_type": "data_spot",
    "data_source": "osm"
  },
  {
    "name": "伊夫岐神社",
    "name_en": "",
    "lat": 35.4026894,
    "lng": 136.3770224,
    "category": "shrine",
    "prefecture": "gifu",
    "osm_id": 413735521,
    "spot_type": "data_spot",
    "data_source": "osm"
  },
  {
    "name": "不断光院",
    "name_en": "",
    "lat": 35.3658924,
    "lng": 136.2858551,
    "category": "temple",
    "prefecture": "gifu",
    "osm_id": 415123777,
    "spot_type": "data_spot",
    "data_source": "osm"
  },
  {
    "name": "慈雲山浄琳寺",
    "name_en": "",
    "lat": 35.380202,
    "lng": 136.2674156,
    "category": "temple",
    "prefecture": "gifu",
    "osm_id": 415123846,
    "spot_type": "data_spot",
    "data_source": "osm"
  },
  {
    "name": "長福山一心寺",
    "name_en": "",
    "lat": 35.3799088,
    "lng": 136.2683112,
    "category": "temple",
    "prefecture": "gifu",
    "osm_id": 415123848,
    "spot_type": "data_spot",
    "data_source": "osm"
  },
  {
    "name": "天華山安浄寺",
    "name_en": "",
    "lat": 35.3809885,
    "lng": 136.2681426,
    "category": "temple",
    "prefecture": "gifu",
    "osm_id": 415123851,
    "spot_type": "data_spot",
    "data_source": "osm"
  },
  {
    "name": "無垢輪山願養寺",
    "name_en": "",
    "lat": 35.3821159,
    "lng": 136.2666258,
    "category": "temple",
    "prefecture": "gifu",
    "osm_id": 415123854,
    "spot_type": "data_spot",
    "data_source": "osm"
  },
  {
    "name": "弘宣山勝福寺",
    "name_en": "",
    "lat": 35.3812385,
    "lng": 136.2671765,
    "category": "temple",
    "prefecture": "gifu",
    "osm_id": 415123857,
    "spot_type": "data_spot",
    "data_source": "osm"
  },
  {
    "name": "真行寺",
    "name_en": "",
    "lat": 35.3757331,
    "lng": 136.2688828,
    "category": "temple",
    "prefecture": "gifu",
    "osm_id": 415123859,
    "spot_type": "data_spot",
    "data_source": "osm"
  },
  {
    "name": "大永山覚応寺",
    "name_en": "",
    "lat": 35.3782476,
    "lng": 136.2690097,
    "category": "temple",
    "prefecture": "gifu",
    "osm_id": 415123862,
    "spot_type": "data_spot",
    "data_source": "osm"
  },
  {
    "name": "昌徳寺",
    "name_en": "",
    "lat": 35.3768944,
    "lng": 136.293023,
    "category": "temple",
    "prefecture": "gifu",
    "osm_id": 415123864,
    "spot_type": "data_spot",
    "data_source": "osm"
  },
  {
    "name": "仏巌寺",
    "name_en": "",
    "lat": 35.3755662,
    "lng": 136.2927008,
    "category": "temple",
    "prefecture": "gifu",
    "osm_id": 415123867,
    "spot_type": "data_spot",
    "data_source": "osm"
  },
  {
    "name": "真願寺",
    "name_en": "",
    "lat": 35.3805178,
    "lng": 136.2691966,
    "category": "temple",
    "prefecture": "gifu",
    "osm_id": 415123870,
    "spot_type": "data_spot",
    "data_source": "osm"
  },
  {
    "name": "蔵六山善隆寺",
    "name_en": "",
    "lat": 35.3820208,
    "lng": 136.2675363,
    "category": "temple",
    "prefecture": "gifu",
    "osm_id": 415123872,
    "spot_type": "data_spot",
    "data_source": "osm"
  },
  {
    "name": "今浜山宗円寺",
    "name_en": "",
    "lat": 35.3784658,
    "lng": 136.2688384,
    "category": "temple",
    "prefecture": "gifu",
    "osm_id": 415123875,
    "spot_type": "data_spot",
    "data_source": "osm"
  },
  {
    "name": "安養山浄国寺",
    "name_en": "",
    "lat": 35.3784795,
    "lng": 136.2664821,
    "category": "temple",
    "prefecture": "gifu",
    "osm_id": 415123878,
    "spot_type": "data_spot",
    "data_source": "osm"
  },
  {
    "name": "滋賀信行会長浜大師堂",
    "name_en": "",
    "lat": 35.3837638,
    "lng": 136.271877,
    "category": "temple",
    "prefecture": "gifu",
    "osm_id": 415123880,
    "spot_type": "data_spot",
    "data_source": "osm"
  },
  {
    "name": "八幡神社",
    "name_en": "",
    "lat": 35.4173191,
    "lng": 136.3338294,
    "category": "shrine",
    "prefecture": "gifu",
    "osm_id": 416218853,
    "spot_type": "data_spot",
    "data_source": "osm"
  },
  {
    "name": "轟神社",
    "name_en": "",
    "lat": 35.4149041,
    "lng": 136.3320562,
    "category": "shrine",
    "prefecture": "gifu",
    "osm_id": 416218855,
    "spot_type": "data_spot",
    "data_source": "osm"
  },
  {
    "name": "三島池ビジターセンター",
    "name_en": "",
    "lat": 35.3729996,
    "lng": 136.3584115,
    "category": "museum",
    "prefecture": "gifu",
    "osm_id": 416362429,
    "spot_type": "data_spot",
    "data_source": "osm"
  },
  {
    "name": "平安山良畴寺",
    "name_en": "",
    "lat": 35.3679457,
    "lng": 136.2742096,
    "category": "temple",
    "prefecture": "gifu",
    "osm_id": 416778315,
    "spot_type": "data_spot",
    "data_source": "osm"
  },
  {
    "name": "無量山帰命寺",
    "name_en": "",
    "lat": 35.3879481,
    "lng": 136.26252,
    "category": "temple",
    "prefecture": "gifu",
    "osm_id": 416847011,
    "spot_type": "data_spot",
    "data_source": "osm"
  },
  {
    "name": "都久夫須麻神社",
    "name_en": "",
    "lat": 35.3877082,
    "lng": 136.2630516,
    "category": "shrine",
    "prefecture": "gifu",
    "osm_id": 416847015,
    "spot_type": "data_spot",
    "data_source": "osm"
  },
  {
    "name": "八幡神社",
    "name_en": "",
    "lat": 35.4360826,
    "lng": 136.2925237,
    "category": "shrine",
    "prefecture": "gifu",
    "osm_id": 419537832,
    "spot_type": "data_spot",
    "data_source": "osm"
  },
  {
    "name": "秋葉神社",
    "name_en": "",
    "lat": 35.4351541,
    "lng": 136.2977417,
    "category": "shrine",
    "prefecture": "gifu",
    "osm_id": 419537833,
    "spot_type": "data_spot",
    "data_source": "osm"
  },
  {
    "name": "春日神社",
    "name_en": "",
    "lat": 35.3666602,
    "lng": 136.3444779,
    "category": "shrine",
    "prefecture": "gifu",
    "osm_id": 419604562,
    "spot_type": "data_spot",
    "data_source": "osm"
  },
  {
    "name": "天満神社",
    "name_en": "",
    "lat": 35.3751513,
    "lng": 136.3702616,
    "category": "shrine",
    "prefecture": "gifu",
    "osm_id": 419604564,
    "spot_type": "data_spot",
    "data_source": "osm"
  },
  {
    "name": "八幡神社",
    "name_en": "",
    "lat": 35.4351424,
    "lng": 136.272674,
    "category": "shrine",
    "prefecture": "gifu",
    "osm_id": 420025705,
    "spot_type": "data_spot",
    "data_source": "osm"
  },
  {
    "name": "北野神社",
    "name_en": "",
    "lat": 35.4201878,
    "lng": 136.3178396,
    "category": "shrine",
    "prefecture": "gifu",
    "osm_id": 420025706,
    "spot_type": "data_spot",
    "data_source": "osm"
  },
  {
    "name": "忍海神社",
    "name_en": "",
    "lat": 35.3607339,
    "lng": 136.2876538,
    "category": "shrine",
    "prefecture": "gifu",
    "osm_id": 420052617,
    "spot_type": "data_spot",
    "data_source": "osm"
  },
  {
    "name": "春日神社",
    "name_en": "",
    "lat": 35.377508,
    "lng": 136.3013982,
    "category": "shrine",
    "prefecture": "gifu",
    "osm_id": 420052620,
    "spot_type": "data_spot",
    "data_source": "osm"
  },
  {
    "name": "足柄神社",
    "name_en": "",
    "lat": 35.3883389,
    "lng": 136.3128185,
    "category": "shrine",
    "prefecture": "gifu",
    "osm_id": 420052622,
    "spot_type": "data_spot",
    "data_source": "osm"
  },
  {
    "name": "日吉神社",
    "name_en": "",
    "lat": 35.3891133,
    "lng": 136.3234847,
    "category": "shrine",
    "prefecture": "gifu",
    "osm_id": 420052623,
    "spot_type": "data_spot",
    "data_source": "osm"
  },
  {
    "name": "熊岡神社",
    "name_en": "",
    "lat": 35.366408,
    "lng": 136.3156262,
    "category": "shrine",
    "prefecture": "gifu",
    "osm_id": 420456681,
    "spot_type": "data_spot",
    "data_source": "osm"
  },
  {
    "name": "流岡神社",
    "name_en": "",
    "lat": 35.4106019,
    "lng": 136.3170769,
    "category": "shrine",
    "prefecture": "gifu",
    "osm_id": 426589731,
    "spot_type": "data_spot",
    "data_source": "osm"
  },
  {
    "name": "八幡神社",
    "name_en": "",
    "lat": 35.3988654,
    "lng": 136.3346835,
    "category": "shrine",
    "prefecture": "gifu",
    "osm_id": 426589742,
    "spot_type": "data_spot",
    "data_source": "osm"
  },
  {
    "name": "若宮八幡神社",
    "name_en": "",
    "lat": 35.3958718,
    "lng": 136.3574782,
    "category": "shrine",
    "prefecture": "gifu",
    "osm_id": 426589743,
    "spot_type": "data_spot",
    "data_source": "osm"
  },
  {
    "name": "天満宮",
    "name_en": "",
    "lat": 35.3990106,
    "lng": 136.2890854,
    "category": "shrine",
    "prefecture": "gifu",
    "osm_id": 426589746,
    "spot_type": "data_spot",
    "data_source": "osm"
  },
  {
    "name": "天満宮",
    "name_en": "",
    "lat": 35.3918777,
    "lng": 136.2836042,
    "category": "shrine",
    "prefecture": "gifu",
    "osm_id": 426589748,
    "spot_type": "data_spot",
    "data_source": "osm"
  },
  {
    "name": "日吉神社",
    "name_en": "",
    "lat": 35.3935371,
    "lng": 136.2891619,
    "category": "shrine",
    "prefecture": "gifu",
    "osm_id": 426589751,
    "spot_type": "data_spot",
    "data_source": "osm"
  },
  {
    "name": "金蓮寺",
    "name_en": "",
    "lat": 35.4118444,
    "lng": 136.3382222,
    "category": "temple",
    "prefecture": "gifu",
    "osm_id": 426589753,
    "spot_type": "data_spot",
    "data_source": "osm"
  },
  {
    "name": "古矢真神社",
    "name_en": "",
    "lat": 35.4426383,
    "lng": 136.2757945,
    "category": "shrine",
    "prefecture": "gifu",
    "osm_id": 429910370,
    "spot_type": "data_spot",
    "data_source": "osm"
  },
  {
    "name": "三輪神社",
    "name_en": "",
    "lat": 35.4756567,
    "lng": 136.2897303,
    "category": "shrine",
    "prefecture": "gifu",
    "osm_id": 429910409,
    "spot_type": "data_spot",
    "data_source": "osm"
  },
  {
    "name": "神明神社",
    "name_en": "",
    "lat": 35.3952048,
    "lng": 136.2652903,
    "category": "shrine",
    "prefecture": "gifu",
    "osm_id": 440009152,
    "spot_type": "data_spot",
    "data_source": "osm"
  },
  {
    "name": "烏江",
    "name_en": "Karasue",
    "lat": 35.3055599,
    "lng": 136.5915173,
    "category": "station",
    "prefecture": "gifu",
    "osm_id": 448109443,
    "spot_type": "data_spot",
    "data_source": "osm"
  },
  {
    "name": "石津",
    "name_en": "Ishizu",
    "lat": 35.1807896,
    "lng": 136.6275383,
    "category": "station",
    "prefecture": "gifu",
    "osm_id": 448109807,
    "spot_type": "data_spot",
    "data_source": "osm"
  },
  {
    "name": "池野",
    "name_en": "Ikeno",
    "lat": 35.4365779,
    "lng": 136.5785423,
    "category": "station",
    "prefecture": "gifu",
    "osm_id": 448110169,
    "spot_type": "data_spot",
    "data_source": "osm"
  },
  {
    "name": "駒野",
    "name_en": "Komano",
    "lat": 35.2238134,
    "lng": 136.6032939,
    "category": "station",
    "prefecture": "gifu",
    "osm_id": 448110770,
    "spot_type": "data_spot",
    "data_source": "osm"
  },
  {
    "name": "北神戸",
    "name_en": "Kita-Godo",
    "lat": 35.4299706,
    "lng": 136.5945546,
    "category": "station",
    "prefecture": "gifu",
    "osm_id": 448111478,
    "spot_type": "data_spot",
    "data_source": "osm"
  },
  {
    "name": "室",
    "name_en": "Muro",
    "lat": 35.3672567,
    "lng": 136.6066467,
    "category": "station",
    "prefecture": "gifu",
    "osm_id": 448111483,
    "spot_type": "data_spot",
    "data_source": "osm"
  },
  {
    "name": "北池野",
    "name_en": "Kita-Ikeno",
    "lat": 35.4431365,
    "lng": 136.5738413,
    "category": "station",
    "prefecture": "gifu",
    "osm_id": 448111565,
    "spot_type": "data_spot",
    "data_source": "osm"
  },
  {
    "name": "揖斐",
    "name_en": "Ibi",
    "lat": 35.4703264,
    "lng": 136.572435,
    "category": "station",
    "prefecture": "gifu",
    "osm_id": 448112045,
    "spot_type": "data_spot",
    "data_source": "osm"
  },
  {
    "name": "北大垣",
    "name_en": "Kita-Ōgaki",
    "lat": 35.3755004,
    "lng": 136.6020405,
    "category": "station",
    "prefecture": "gifu",
    "osm_id": 448112051,
    "spot_type": "data_spot",
    "data_source": "osm"
  },
  {
    "name": "養老",
    "name_en": "Yoro",
    "lat": 35.2868893,
    "lng": 136.556809,
    "category": "station",
    "prefecture": "gifu",
    "osm_id": 448112072,
    "spot_type": "data_spot",
    "data_source": "osm"
  },
  {
    "name": "大外羽",
    "name_en": "Otoba",
    "lat": 35.3153435,
    "lng": 136.5973783,
    "category": "station",
    "prefecture": "gifu",
    "osm_id": 448112098,
    "spot_type": "data_spot",
    "data_source": "osm"
  },
  {
    "name": "西大垣",
    "name_en": "Nishi-Ogaki",
    "lat": 35.3602833,
    "lng": 136.6033135,
    "category": "station",
    "prefecture": "gifu",
    "osm_id": 448112600,
    "spot_type": "data_spot",
    "data_source": "osm"
  },
  {
    "name": "美濃山崎",
    "name_en": "Mino-Yamazaki",
    "lat": 35.198843,
    "lng": 136.6215188,
    "category": "station",
    "prefecture": "gifu",
    "osm_id": 448112612,
    "spot_type": "data_spot",
    "data_source": "osm"
  },
  {
    "name": "美濃松山",
    "name_en": "Mino-Matsuyama",
    "lat": 35.1608635,
    "lng": 136.632688,
    "category": "station",
    "prefecture": "gifu",
    "osm_id": 448113817,
    "spot_type": "data_spot",
    "data_source": "osm"
  },
  {
    "name": "広神戸",
    "name_en": "Hiro-Godo",
    "lat": 35.4196841,
    "lng": 136.6020539,
    "category": "station",
    "prefecture": "gifu",
    "osm_id": 448114121,
    "spot_type": "data_spot",
    "data_source": "osm"
  },
  {
    "name": "友江",
    "name_en": "Tomoe",
    "lat": 35.3265404,
    "lng": 136.6007687,
    "category": "station",
    "prefecture": "gifu",
    "osm_id": 448114284,
    "spot_type": "data_spot",
    "data_source": "osm"
  },
  {
    "name": "美濃津屋",
    "name_en": "Mino-Tsuya",
    "lat": 35.2513864,
    "lng": 136.5667322,
    "category": "station",
    "prefecture": "gifu",
    "osm_id": 448114471,
    "spot_type": "data_spot",
    "data_source": "osm"
  },
  {
    "name": "美濃本郷",
    "name_en": "Mino-Hongo",
    "lat": 35.4499757,
    "lng": 136.5718481,
    "category": "station",
    "prefecture": "gifu",
    "osm_id": 448115217,
    "spot_type": "data_spot",
    "data_source": "osm"
  },
  {
    "name": "美濃青柳",
    "name_en": "Mino-Yanagi",
    "lat": 35.3437973,
    "lng": 136.6038394,
    "category": "station",
    "prefecture": "gifu",
    "osm_id": 448115227,
    "spot_type": "data_spot",
    "data_source": "osm"
  },
  {
    "name": "美濃高田",
    "name_en": "Mino-Takada",
    "lat": 35.3090638,
    "lng": 136.5635438,
    "category": "station",
    "prefecture": "gifu",
    "osm_id": 448116619,
    "spot_type": "data_spot",
    "data_source": "osm"
  },
  {
    "name": "深戸",
    "name_en": "Fukado",
    "lat": 35.6865137,
    "lng": 136.9623819,
    "category": "station",
    "prefecture": "gifu",
    "osm_id": 452815205,
    "spot_type": "data_spot",
    "data_source": "osm"
  },
  {
    "name": "美濃市",
    "name_en": "Minoshi",
    "lat": 35.5394706,
    "lng": 136.9153413,
    "category": "station",
    "prefecture": "gifu",
    "osm_id": 452815261,
    "spot_type": "data_spot",
    "data_source": "osm"
  },
  {
    "name": "加茂野",
    "name_en": "Kamono",
    "lat": 35.4610279,
    "lng": 136.9850828,
    "category": "station",
    "prefecture": "gifu",
    "osm_id": 452815262,
    "spot_type": "data_spot",
    "data_source": "osm"
  },
  {
    "name": "福野",
    "name_en": "Fukuno",
    "lat": 35.646046,
    "lng": 136.951462,
    "category": "station",
    "prefecture": "gifu",
    "osm_id": 452815292,
    "spot_type": "data_spot",
    "data_source": "osm"
  },
  {
    "name": "関口",
    "name_en": "Seki-guchi",
    "lat": 35.479923,
    "lng": 136.92928,
    "category": "station",
    "prefecture": "gifu",
    "osm_id": 452815294,
    "spot_type": "data_spot",
    "data_source": "osm"
  },
  {
    "name": "木尾",
    "name_en": "Konno",
    "lat": 35.6061879,
    "lng": 136.9381678,
    "category": "station",
    "prefecture": "gifu",
    "osm_id": 452815299,
    "spot_type": "data_spot",
    "data_source": "osm"
  },
  {
    "name": "関市役所前",
    "name_en": "Seki-Shiyakusho-mae",
    "lat": 35.499322,
    "lng": 136.912877,
    "category": "station",
    "prefecture": "gifu",
    "osm_id": 452815300,
    "spot_type": "data_spot",
    "data_source": "osm"
  },
  {
    "name": "北濃",
    "name_en": "Hokunō",
    "lat": 35.9304277,
    "lng": 136.8298041,
    "category": "station",
    "prefecture": "gifu",
    "osm_id": 452815302,
    "spot_type": "data_spot",
    "data_source": "osm"
  },
  {
    "name": "大矢",
    "name_en": "Ōya",
    "lat": 35.638089,
    "lng": 136.950003,
    "category": "station",
    "prefecture": "gifu",
    "osm_id": 452815345,
    "spot_type": "data_spot",
    "data_source": "osm"
  },
  {
    "name": "富加",
    "name_en": "Tomika",
    "lat": 35.4752456,
    "lng": 136.9691834,
    "category": "station",
    "prefecture": "gifu",
    "osm_id": 452815354,
    "spot_type": "data_spot",
    "data_source": "osm"
  },
  {
    "name": "郡上大和",
    "name_en": "Gujō-Yamato",
    "lat": 35.8150787,
    "lng": 136.8950107,
    "category": "station",
    "prefecture": "gifu",
    "osm_id": 452815371,
    "spot_type": "data_spot",
    "data_source": "osm"
  },
  {
    "name": "八坂",
    "name_en": "Yasaka",
    "lat": 35.620247,
    "lng": 136.945466,
    "category": "station",
    "prefecture": "gifu",
    "osm_id": 452815420,
    "spot_type": "data_spot",
    "data_source": "osm"
  },
  {
    "name": "関",
    "name_en": "Seki",
    "lat": 35.4897741,
    "lng": 136.9127756,
    "category": "station",
    "prefecture": "gifu",
    "osm_id": 452815422,
    "spot_type": "data_spot",
    "data_source": "osm"
  },
  {
    "name": "松森",
    "name_en": "Matsumori",
    "lat": 35.5265535,
    "lng": 136.9155718,
    "category": "station",
    "prefecture": "gifu",
    "osm_id": 452815752,
    "spot_type": "data_spot",
    "data_source": "osm"
  },
  {
    "name": "万場",
    "name_en": "Manba",
    "lat": 35.8336096,
    "lng": 136.8832317,
    "category": "station",
    "prefecture": "gifu",
    "osm_id": 452815760,
    "spot_type": "data_spot",
    "data_source": "osm"
  },
  {
    "name": "みなみ子宝温泉",
    "name_en": "Minami-Kodakara-Onsen",
    "lat": 35.627986,
    "lng": 136.950658,
    "category": "station",
    "prefecture": "gifu",
    "osm_id": 452815825,
    "spot_type": "data_spot",
    "data_source": "osm"
  },
  {
    "name": "せきてらす前",
    "name_en": "Sekiterasu-mae",
    "lat": 35.4833334,
    "lng": 136.9142209,
    "category": "station",
    "prefecture": "gifu",
    "osm_id": 452815839,
    "spot_type": "data_spot",
    "data_source": "osm"
  },
  {
    "name": "赤池",
    "name_en": "Akaike",
    "lat": 35.672097,
    "lng": 136.961369,
    "category": "station",
    "prefecture": "gifu",
    "osm_id": 452815866,
    "spot_type": "data_spot",
    "data_source": "osm"
  },
  {
    "name": "美濃白鳥",
    "name_en": "Mino-Shirotori",
    "lat": 35.884948,
    "lng": 136.860729,
    "category": "station",
    "prefecture": "gifu",
    "osm_id": 452815904,
    "spot_type": "data_spot",
    "data_source": "osm"
  },
  {
    "name": "母野",
    "name_en": "Hanno",
    "lat": 35.5985875,
    "lng": 136.9421298,
    "category": "station",
    "prefecture": "gifu",
    "osm_id": 452815908,
    "spot_type": "data_spot",
    "data_source": "osm"
  },
  {
    "name": "郡上八幡",
    "name_en": "Gujō-Hachiman",
    "lat": 35.7418904,
    "lng": 136.9473551,
    "category": "station",
    "prefecture": "gifu",
    "osm_id": 452816029,
    "spot_type": "data_spot",
    "data_source": "osm"
  },
  {
    "name": "湯の洞温泉口",
    "name_en": "Yunohora-Onsen-guchi",
    "lat": 35.5712307,
    "lng": 136.9312948,
    "category": "station",
    "prefecture": "gifu",
    "osm_id": 452816045,
    "spot_type": "data_spot",
    "data_source": "osm"
  },
  {
    "name": "山田",
    "name_en": "Yamada",
    "lat": 35.788171,
    "lng": 136.911822,
    "category": "station",
    "prefecture": "gifu",
    "osm_id": 452816066,
    "spot_type": "data_spot",
    "data_source": "osm"
  },
  {
    "name": "前平公園",
    "name_en": "Maehira-Kōen",
    "lat": 35.4498526,
    "lng": 137.00146,
    "category": "station",
    "prefecture": "gifu",
    "osm_id": 452816069,
    "spot_type": "data_spot",
    "data_source": "osm"
  },
  {
    "name": "相生",
    "name_en": "Aioi",
    "lat": 35.7151807,
    "lng": 136.9504392,
    "category": "station",
    "prefecture": "gifu",
    "osm_id": 452816077,
    "spot_type": "data_spot",
    "data_source": "osm"
  },
  {
    "name": "梅山",
    "name_en": "Umeyama",
    "lat": 35.5493431,
    "lng": 136.9178691,
    "category": "station",
    "prefecture": "gifu",
    "osm_id": 452816293,
    "spot_type": "data_spot",
    "data_source": "osm"
  },
  {
    "name": "関下有知",
    "name_en": "Seki-Shimouchi",
    "lat": 35.5136636,
    "lng": 136.914643,
    "category": "station",
    "prefecture": "gifu",
    "osm_id": 452816334,
    "spot_type": "data_spot",
    "data_source": "osm"
  },
  {
    "name": "白鳥高原",
    "name_en": "Shirotori-Kōgen",
    "lat": 35.9126108,
    "lng": 136.8430605,
    "category": "station",
    "prefecture": "gifu",
    "osm_id": 452816337,
    "spot_type": "data_spot",
    "data_source": "osm"
  },
  {
    "name": "上万場",
    "name_en": "Kami-Manba",
    "lat": 35.8444404,
    "lng": 136.8767728,
    "category": "station",
    "prefecture": "gifu",
    "osm_id": 452816403,
    "spot_type": "data_spot",
    "data_source": "osm"
  },
  {
    "name": "大中",
    "name_en": "Ōnaka",
    "lat": 35.8537689,
    "lng": 136.8683192,
    "category": "station",
    "prefecture": "gifu",
    "osm_id": 452816409,
    "spot_type": "data_spot",
    "data_source": "osm"
  },
  {
    "name": "美並苅安",
    "name_en": "Minami-Kariyasu",
    "lat": 35.660451,
    "lng": 136.955079,
    "category": "station",
    "prefecture": "gifu",
    "osm_id": 452816446,
    "spot_type": "data_spot",
    "data_source": "osm"
  },
  {
    "name": "徳永",
    "name_en": "Tokunaga",
    "lat": 35.8045536,
    "lng": 136.9038159,
    "category": "station",
    "prefecture": "gifu",
    "osm_id": 452816508,
    "spot_type": "data_spot",
    "data_source": "osm"
  },
  {
    "name": "自然園前",
    "name_en": "Shizen'en-mae",
    "lat": 35.7700885,
    "lng": 136.9316791,
    "category": "station",
    "prefecture": "gifu",
    "osm_id": 452816647,
    "spot_type": "data_spot",
    "data_source": "osm"
  },
  {
    "name": "関富岡",
    "name_en": "Seki-Tomioka",
    "lat": 35.4785816,
    "lng": 136.9450889,
    "category": "station",
    "prefecture": "gifu",
    "osm_id": 452816946,
    "spot_type": "data_spot",
    "data_source": "osm"
  },
  {
    "name": "洲原",
    "name_en": "Suhara",
    "lat": 35.5887121,
    "lng": 136.9447294,
    "category": "station",
    "prefecture": "gifu",
    "osm_id": 452816957,
    "spot_type": "data_spot",
    "data_source": "osm"
  },
  {
    "name": "白山長滝",
    "name_en": "Hakusan-Nagataki",
    "lat": 35.9196455,
    "lng": 136.8324904,
    "category": "station",
    "prefecture": "gifu",
    "osm_id": 452817229,
    "spot_type": "data_spot",
    "data_source": "osm"
  },
  {
    "name": "一箕山多田幸寺",
    "name_en": "",
    "lat": 35.3589335,
    "lng": 136.2868756,
    "category": "temple",
    "prefecture": "gifu",
    "osm_id": 467007463,
    "spot_type": "data_spot",
    "data_source": "osm"
  },
  {
    "name": "長沢御坊",
    "name_en": "",
    "lat": 35.3510236,
    "lng": 136.2851302,
    "category": "temple",
    "prefecture": "gifu",
    "osm_id": 467007465,
    "spot_type": "data_spot",
    "data_source": "osm"
  },
  {
    "name": "蛭子神社",
    "name_en": "",
    "lat": 35.3315753,
    "lng": 136.2736567,
    "category": "shrine",
    "prefecture": "gifu",
    "osm_id": 469088529,
    "spot_type": "data_spot",
    "data_source": "osm"
  },
  {
    "name": "朝妻神社",
    "name_en": "",
    "lat": 35.3288174,
    "lng": 136.2726625,
    "category": "shrine",
    "prefecture": "gifu",
    "osm_id": 469088530,
    "spot_type": "data_spot",
    "data_source": "osm"
  },
  {
    "name": "春日神社",
    "name_en": "",
    "lat": 35.3348776,
    "lng": 136.2747042,
    "category": "shrine",
    "prefecture": "gifu",
    "osm_id": 469088531,
    "spot_type": "data_spot",
    "data_source": "osm"
  },
  {
    "name": "中嶋神社",
    "name_en": "",
    "lat": 35.3265456,
    "lng": 136.2712077,
    "category": "shrine",
    "prefecture": "gifu",
    "osm_id": 469088532,
    "spot_type": "data_spot",
    "data_source": "osm"
  },
  {
    "name": "久遠山養善寺",
    "name_en": "",
    "lat": 35.3727676,
    "lng": 136.2998975,
    "category": "temple",
    "prefecture": "gifu",
    "osm_id": 474161385,
    "spot_type": "data_spot",
    "data_source": "osm"
  },
  {
    "name": "花養寺",
    "name_en": "",
    "lat": 35.3841395,
    "lng": 136.2903409,
    "category": "temple",
    "prefecture": "gifu",
    "osm_id": 476024418,
    "spot_type": "data_spot",
    "data_source": "osm"
  },
  {
    "name": "八幡神社",
    "name_en": "",
    "lat": 35.391673,
    "lng": 136.3073454,
    "category": "shrine",
    "prefecture": "gifu",
    "osm_id": 476270446,
    "spot_type": "data_spot",
    "data_source": "osm"
  },
  {
    "name": "豊島神社",
    "name_en": "",
    "lat": 35.3569716,
    "lng": 136.3046167,
    "category": "shrine",
    "prefecture": "gifu",
    "osm_id": 477197831,
    "spot_type": "data_spot",
    "data_source": "osm"
  },
  {
    "name": "北野山徳満寺",
    "name_en": "",
    "lat": 35.3916519,
    "lng": 136.2719387,
    "category": "temple",
    "prefecture": "gifu",
    "osm_id": 506072223,
    "spot_type": "data_spot",
    "data_source": "osm"
  },
  {
    "name": "名称不明",
    "name_en": "",
    "lat": 35.3944579,
    "lng": 136.2701219,
    "category": "shrine",
    "prefecture": "gifu",
    "osm_id": 506072245,
    "spot_type": "data_spot",
    "data_source": "osm"
  },
  {
    "name": "稲荷神社",
    "name_en": "",
    "lat": 35.3285714,
    "lng": 136.2969381,
    "category": "shrine",
    "prefecture": "gifu",
    "osm_id": 508262049,
    "spot_type": "data_spot",
    "data_source": "osm"
  },
  {
    "name": "西羅神社",
    "name_en": "",
    "lat": 35.3233927,
    "lng": 136.3241557,
    "category": "shrine",
    "prefecture": "gifu",
    "osm_id": 508262724,
    "spot_type": "data_spot",
    "data_source": "osm"
  },
  {
    "name": "名称不明",
    "name_en": "",
    "lat": 35.3487706,
    "lng": 136.2940553,
    "category": "shrine",
    "prefecture": "gifu",
    "osm_id": 510115765,
    "spot_type": "data_spot",
    "data_source": "osm"
  },
  {
    "name": "日撫神社",
    "name_en": "",
    "lat": 35.3389627,
    "lng": 136.3077998,
    "category": "shrine",
    "prefecture": "gifu",
    "osm_id": 510115961,
    "spot_type": "data_spot",
    "data_source": "osm"
  },
  {
    "name": "八幡神社",
    "name_en": "",
    "lat": 35.3335812,
    "lng": 136.3034288,
    "category": "shrine",
    "prefecture": "gifu",
    "osm_id": 510306097,
    "spot_type": "data_spot",
    "data_source": "osm"
  },
  {
    "name": "足柄神社",
    "name_en": "",
    "lat": 35.3730634,
    "lng": 136.3148173,
    "category": "shrine",
    "prefecture": "gifu",
    "osm_id": 510306112,
    "spot_type": "data_spot",
    "data_source": "osm"
  },
  {
    "name": "荒尾",
    "name_en": "Arao",
    "lat": 35.3734058,
    "lng": 136.5834752,
    "category": "station",
    "prefecture": "gifu",
    "osm_id": 513182492,
    "spot_type": "data_spot",
    "data_source": "osm"
  },
  {
    "name": "法城山西蓮寺",
    "name_en": "",
    "lat": 35.3833591,
    "lng": 136.2902492,
    "category": "temple",
    "prefecture": "gifu",
    "osm_id": 527737528,
    "spot_type": "data_spot",
    "data_source": "osm"
  },
  {
    "name": "寳成山浄休寺",
    "name_en": "",
    "lat": 35.3831265,
    "lng": 136.2906772,
    "category": "temple",
    "prefecture": "gifu",
    "osm_id": 527737529,
    "spot_type": "data_spot",
    "data_source": "osm"
  },
  {
    "name": "黒田山満立寺",
    "name_en": "",
    "lat": 35.3818006,
    "lng": 136.2930172,
    "category": "temple",
    "prefecture": "gifu",
    "osm_id": 527737542,
    "spot_type": "data_spot",
    "data_source": "osm"
  },
  {
    "name": "極安寺",
    "name_en": "",
    "lat": 35.3839333,
    "lng": 136.2878934,
    "category": "temple",
    "prefecture": "gifu",
    "osm_id": 527811714,
    "spot_type": "data_spot",
    "data_source": "osm"
  },
  {
    "name": "日吉神社",
    "name_en": "",
    "lat": 35.3865865,
    "lng": 136.2933087,
    "category": "shrine",
    "prefecture": "gifu",
    "osm_id": 527811832,
    "spot_type": "data_spot",
    "data_source": "osm"
  },
  {
    "name": "福永山極安寺",
    "name_en": "",
    "lat": 35.3863466,
    "lng": 136.2938757,
    "category": "temple",
    "prefecture": "gifu",
    "osm_id": 527811850,
    "spot_type": "data_spot",
    "data_source": "osm"
  },
  {
    "name": "宮尾山光臺寺",
    "name_en": "",
    "lat": 35.3810431,
    "lng": 136.3044873,
    "category": "temple",
    "prefecture": "gifu",
    "osm_id": 527811880,
    "spot_type": "data_spot",
    "data_source": "osm"
  },
  {
    "name": "天満神社",
    "name_en": "",
    "lat": 35.3816223,
    "lng": 136.3043283,
    "category": "shrine",
    "prefecture": "gifu",
    "osm_id": 527811953,
    "spot_type": "data_spot",
    "data_source": "osm"
  },
  {
    "name": "日前神社",
    "name_en": "",
    "lat": 35.4199153,
    "lng": 136.2614253,
    "category": "shrine",
    "prefecture": "gifu",
    "osm_id": 529286959,
    "spot_type": "data_spot",
    "data_source": "osm"
  },
  {
    "name": "矢合神社",
    "name_en": "",
    "lat": 35.4327032,
    "lng": 136.2604532,
    "category": "shrine",
    "prefecture": "gifu",
    "osm_id": 529287359,
    "spot_type": "data_spot",
    "data_source": "osm"
  },
  {
    "name": "八坂神社",
    "name_en": "",
    "lat": 35.4054585,
    "lng": 136.2694218,
    "category": "shrine",
    "prefecture": "gifu",
    "osm_id": 534502395,
    "spot_type": "data_spot",
    "data_source": "osm"
  },
  {
    "name": "黒壁美術館",
    "name_en": "",
    "lat": 35.3810716,
    "lng": 136.2667137,
    "category": "museum",
    "prefecture": "gifu",
    "osm_id": 534529037,
    "spot_type": "data_spot",
    "data_source": "osm"
  },
  {
    "name": "河姫稲荷神社",
    "name_en": "",
    "lat": 35.3845628,
    "lng": 136.2660449,
    "category": "shrine",
    "prefecture": "gifu",
    "osm_id": 534529040,
    "spot_type": "data_spot",
    "data_source": "osm"
  },
  {
    "name": "長谷山利覚寺",
    "name_en": "",
    "lat": 35.3944208,
    "lng": 136.3238122,
    "category": "temple",
    "prefecture": "gifu",
    "osm_id": 567790156,
    "spot_type": "data_spot",
    "data_source": "osm"
  },
  {
    "name": "八幡神社",
    "name_en": "",
    "lat": 35.3951299,
    "lng": 136.325351,
    "category": "shrine",
    "prefecture": "gifu",
    "osm_id": 567790160,
    "spot_type": "data_spot",
    "data_source": "osm"
  },
  {
    "name": "持法山皆念寺",
    "name_en": "",
    "lat": 35.3984244,
    "lng": 136.3187341,
    "category": "temple",
    "prefecture": "gifu",
    "osm_id": 567790163,
    "spot_type": "data_spot",
    "data_source": "osm"
  },
  {
    "name": "臥龍山念力寺",
    "name_en": "",
    "lat": 35.3988566,
    "lng": 136.3275294,
    "category": "temple",
    "prefecture": "gifu",
    "osm_id": 567790175,
    "spot_type": "data_spot",
    "data_source": "osm"
  },
  {
    "name": "法性山通念寺",
    "name_en": "",
    "lat": 35.4028017,
    "lng": 136.3280522,
    "category": "temple",
    "prefecture": "gifu",
    "osm_id": 567790176,
    "spot_type": "data_spot",
    "data_source": "osm"
  },
  {
    "name": "天満神社",
    "name_en": "",
    "lat": 35.4032453,
    "lng": 136.3307733,
    "category": "shrine",
    "prefecture": "gifu",
    "osm_id": 567790205,
    "spot_type": "data_spot",
    "data_source": "osm"
  },
  {
    "name": "関ケ原町歴史民俗資料館",
    "name_en": "",
    "lat": 35.3659134,
    "lng": 136.4662762,
    "category": "museum",
    "prefecture": "gifu",
    "osm_id": 573247664,
    "spot_type": "data_spot",
    "data_source": "osm"
  },
  {
    "name": "北野神社",
    "name_en": "",
    "lat": 35.3703361,
    "lng": 136.4697477,
    "category": "shrine",
    "prefecture": "gifu",
    "osm_id": 573247687,
    "spot_type": "data_spot",
    "data_source": "osm"
  },
  {
    "name": "瑞龍寺",
    "name_en": "",
    "lat": 35.3713211,
    "lng": 136.4701287,
    "category": "temple",
    "prefecture": "gifu",
    "osm_id": 573247715,
    "spot_type": "data_spot",
    "data_source": "osm"
  },
  {
    "name": "金刀比羅神社",
    "name_en": "",
    "lat": 35.3692456,
    "lng": 136.470796,
    "category": "shrine",
    "prefecture": "gifu",
    "osm_id": 573731381,
    "spot_type": "data_spot",
    "data_source": "osm"
  },
  {
    "name": "熊野神社",
    "name_en": "",
    "lat": 35.2956892,
    "lng": 136.7714412,
    "category": "shrine",
    "prefecture": "gifu",
    "osm_id": 603712452,
    "spot_type": "data_spot",
    "data_source": "osm"
  },
  {
    "name": "石川県九谷焼美術館",
    "name_en": "",
    "lat": 36.3028094,
    "lng": 136.3102176,
    "category": "museum",
    "prefecture": "gifu",
    "osm_id": 662020877,
    "spot_type": "data_spot",
    "data_source": "osm"
  },
  {
    "name": "八幡神社",
    "name_en": "",
    "lat": 35.2919956,
    "lng": 136.7758879,
    "category": "shrine",
    "prefecture": "gifu",
    "osm_id": 665424200,
    "spot_type": "data_spot",
    "data_source": "osm"
  },
  {
    "name": "茶臼山高原の美術館",
    "name_en": "",
    "lat": 35.22095,
    "lng": 137.6581898,
    "category": "museum",
    "prefecture": "gifu",
    "osm_id": 667238506,
    "spot_type": "data_spot",
    "data_source": "osm"
  },
  {
    "name": "高牟神社",
    "name_en": "",
    "lat": 35.1692522,
    "lng": 136.9324109,
    "category": "shrine",
    "prefecture": "gifu",
    "osm_id": 671554436,
    "spot_type": "data_spot",
    "data_source": "osm"
  },
  {
    "name": "一畑山薬師寺　名古屋別院",
    "name_en": "",
    "lat": 35.1651205,
    "lng": 136.9426254,
    "category": "temple",
    "prefecture": "gifu",
    "osm_id": 671554437,
    "spot_type": "data_spot",
    "data_source": "osm"
  },
  {
    "name": "浄信寺",
    "name_en": "",
    "lat": 35.1700263,
    "lng": 136.8913892,
    "category": "temple",
    "prefecture": "gifu",
    "osm_id": 683381657,
    "spot_type": "data_spot",
    "data_source": "osm"
  },
  {
    "name": "神明社",
    "name_en": "",
    "lat": 35.1705636,
    "lng": 136.891488,
    "category": "shrine",
    "prefecture": "gifu",
    "osm_id": 683381669,
    "spot_type": "data_spot",
    "data_source": "osm"
  },
  {
    "name": "光明院",
    "name_en": "",
    "lat": 35.1711819,
    "lng": 136.8914452,
    "category": "temple",
    "prefecture": "gifu",
    "osm_id": 691823194,
    "spot_type": "data_spot",
    "data_source": "osm"
  },
  {
    "name": "金刀比羅社",
    "name_en": "",
    "lat": 35.1554336,
    "lng": 136.8819703,
    "category": "shrine",
    "prefecture": "gifu",
    "osm_id": 701223670,
    "spot_type": "data_spot",
    "data_source": "osm"
  },
  {
    "name": "道の温泉駅かれん",
    "name_en": "",
    "lat": 35.6682915,
    "lng": 137.1472386,
    "category": "onsen",
    "prefecture": "gifu",
    "osm_id": 707419943,
    "spot_type": "data_spot",
    "data_source": "osm"
  },
  {
    "name": "野志",
    "name_en": "Noshi",
    "lat": 35.322302,
    "lng": 137.3891563,
    "category": "station",
    "prefecture": "gifu",
    "osm_id": 722149281,
    "spot_type": "data_spot",
    "data_source": "osm"
  },
  {
    "name": "岩村",
    "name_en": "Iwamura",
    "lat": 35.3689033,
    "lng": 137.434364,
    "category": "station",
    "prefecture": "gifu",
    "osm_id": 722149364,
    "spot_type": "data_spot",
    "data_source": "osm"
  },
  {
    "name": "飯羽間",
    "name_en": "Iibama",
    "lat": 35.3869284,
    "lng": 137.4373163,
    "category": "station",
    "prefecture": "gifu",
    "osm_id": 722149377,
    "spot_type": "data_spot",
    "data_source": "osm"
  },
  {
    "name": "明智",
    "name_en": "Akechi",
    "lat": 35.3061728,
    "lng": 137.3874775,
    "category": "station",
    "prefecture": "gifu",
    "osm_id": 722149463,
    "spot_type": "data_spot",
    "data_source": "osm"
  },
  {
    "name": "山岡",
    "name_en": "Yamaoka",
    "lat": 35.3499523,
    "lng": 137.395676,
    "category": "station",
    "prefecture": "gifu",
    "osm_id": 722149636,
    "spot_type": "data_spot",
    "data_source": "osm"
  },
  {
    "name": "花白温泉",
    "name_en": "Hanashiro Onsen",
    "lat": 35.3550878,
    "lng": 137.4067318,
    "category": "station",
    "prefecture": "gifu",
    "osm_id": 722149649,
    "spot_type": "data_spot",
    "data_source": "osm"
  },
  {
    "name": "東野",
    "name_en": "Higashino",
    "lat": 35.4461812,
    "lng": 137.4289568,
    "category": "station",
    "prefecture": "gifu",
    "osm_id": 722149752,
    "spot_type": "data_spot",
    "data_source": "osm"
  },
  {
    "name": "阿木",
    "name_en": "Agi",
    "lat": 35.4000446,
    "lng": 137.4589243,
    "category": "station",
    "prefecture": "gifu",
    "osm_id": 722149894,
    "spot_type": "data_spot",
    "data_source": "osm"
  },
  {
    "name": "飯沼",
    "name_en": "Iinuma",
    "lat": 35.4184022,
    "lng": 137.4611046,
    "category": "station",
    "prefecture": "gifu",
    "osm_id": 722149909,
    "spot_type": "data_spot",
    "data_source": "osm"
  },
  {
    "name": "八草",
    "name_en": "Yakusa",
    "lat": 35.1761472,
    "lng": 137.1066646,
    "category": "station",
    "prefecture": "gifu",
    "osm_id": 722165142,
    "spot_type": "data_spot",
    "data_source": "osm"
  },
  {
    "name": "篠原",
    "name_en": "Sasabara",
    "lat": 35.154801,
    "lng": 137.1207127,
    "category": "station",
    "prefecture": "gifu",
    "osm_id": 722169842,
    "spot_type": "data_spot",
    "data_source": "osm"
  },
  {
    "name": "椿神明社",
    "name_en": "Tsubaki Shinmeisha Shrine",
    "lat": 35.1704073,
    "lng": 136.8778512,
    "category": "shrine",
    "prefecture": "gifu",
    "osm_id": 726399371,
    "spot_type": "data_spot",
    "data_source": "osm"
  },
  {
    "name": "西祐寺",
    "name_en": "",
    "lat": 35.1740276,
    "lng": 136.8862228,
    "category": "temple",
    "prefecture": "gifu",
    "osm_id": 726437401,
    "spot_type": "data_spot",
    "data_source": "osm"
  },
  {
    "name": "SL名古屋駅",
    "name_en": "",
    "lat": 35.3436624,
    "lng": 136.9897989,
    "category": "station",
    "prefecture": "gifu",
    "osm_id": 726581547,
    "spot_type": "data_spot",
    "data_source": "osm"
  },
  {
    "name": "SL 東京駅",
    "name_en": "",
    "lat": 35.3486777,
    "lng": 136.9882887,
    "category": "station",
    "prefecture": "gifu",
    "osm_id": 726581578,
    "spot_type": "data_spot",
    "data_source": "osm"
  },
  {
    "name": "八幡神社",
    "name_en": "",
    "lat": 35.386648,
    "lng": 136.3222115,
    "category": "shrine",
    "prefecture": "gifu",
    "osm_id": 736014335,
    "spot_type": "data_spot",
    "data_source": "osm"
  },
  {
    "name": "神社",
    "name_en": "",
    "lat": 35.2999577,
    "lng": 136.7712227,
    "category": "shrine",
    "prefecture": "gifu",
    "osm_id": 745778836,
    "spot_type": "data_spot",
    "data_source": "osm"
  },
  {
    "name": "品川燈台",
    "name_en": "",
    "lat": 35.3415977,
    "lng": 136.9941302,
    "category": "lighthouse",
    "prefecture": "gifu",
    "osm_id": 746458514,
    "spot_type": "data_spot",
    "data_source": "osm"
  },
  {
    "name": "一眼龍神社",
    "name_en": "",
    "lat": 35.2936907,
    "lng": 136.76101,
    "category": "shrine",
    "prefecture": "gifu",
    "osm_id": 765221527,
    "spot_type": "data_spot",
    "data_source": "osm"
  },
  {
    "name": "黒龍大龍神社",
    "name_en": "",
    "lat": 35.2937477,
    "lng": 136.7610436,
    "category": "shrine",
    "prefecture": "gifu",
    "osm_id": 765221528,
    "spot_type": "data_spot",
    "data_source": "osm"
  },
  {
    "name": "誓願時",
    "name_en": "",
    "lat": 35.2893727,
    "lng": 136.7823959,
    "category": "temple",
    "prefecture": "gifu",
    "osm_id": 765221653,
    "spot_type": "data_spot",
    "data_source": "osm"
  },
  {
    "name": "蓮照寺",
    "name_en": "",
    "lat": 35.2918106,
    "lng": 136.7812026,
    "category": "temple",
    "prefecture": "gifu",
    "osm_id": 765221686,
    "spot_type": "data_spot",
    "data_source": "osm"
  },
  {
    "name": "柳里神社",
    "name_en": "",
    "lat": 35.1671643,
    "lng": 136.8864813,
    "category": "shrine",
    "prefecture": "gifu",
    "osm_id": 797932616,
    "spot_type": "data_spot",
    "data_source": "osm"
  },
  {
    "name": "福森稲荷社",
    "name_en": "",
    "lat": 35.3012624,
    "lng": 136.7735039,
    "category": "shrine",
    "prefecture": "gifu",
    "osm_id": 821946988,
    "spot_type": "data_spot",
    "data_source": "osm"
  },
  {
    "name": "天神社",
    "name_en": "",
    "lat": 35.2724665,
    "lng": 136.9347048,
    "category": "shrine",
    "prefecture": "gifu",
    "osm_id": 870542629,
    "spot_type": "data_spot",
    "data_source": "osm"
  },
  {
    "name": "小牧市歴史館",
    "name_en": "Komaki City Historical Museum",
    "lat": 35.2925017,
    "lng": 136.9134245,
    "category": "museum",
    "prefecture": "gifu",
    "osm_id": 873822477,
    "spot_type": "data_spot",
    "data_source": "osm"
  },
  {
    "name": "子安山願林寺",
    "name_en": "",
    "lat": 35.2907176,
    "lng": 136.7616804,
    "category": "temple",
    "prefecture": "gifu",
    "osm_id": 906953820,
    "spot_type": "data_spot",
    "data_source": "osm"
  },
  {
    "name": "神社",
    "name_en": "",
    "lat": 35.3037413,
    "lng": 136.7666037,
    "category": "shrine",
    "prefecture": "gifu",
    "osm_id": 916949764,
    "spot_type": "data_spot",
    "data_source": "osm"
  },
  {
    "name": "愛宕社",
    "name_en": "",
    "lat": 35.3119935,
    "lng": 136.7679945,
    "category": "shrine",
    "prefecture": "gifu",
    "osm_id": 936815705,
    "spot_type": "data_spot",
    "data_source": "osm"
  },
  {
    "name": "李登勝美術館",
    "name_en": "",
    "lat": 35.1620559,
    "lng": 137.6310432,
    "category": "museum",
    "prefecture": "gifu",
    "osm_id": 938459586,
    "spot_type": "data_spot",
    "data_source": "osm"
  },
  {
    "name": "金龍寺",
    "name_en": "",
    "lat": 35.1698533,
    "lng": 137.6215368,
    "category": "temple",
    "prefecture": "gifu",
    "osm_id": 945648929,
    "spot_type": "data_spot",
    "data_source": "osm"
  },
  {
    "name": "桃巌寺",
    "name_en": "",
    "lat": 35.161062,
    "lng": 136.9646536,
    "category": "temple",
    "prefecture": "gifu",
    "osm_id": 956645286,
    "spot_type": "data_spot",
    "data_source": "osm"
  },
  {
    "name": "岐阜かかみがはら航空宇宙博物館",
    "name_en": "",
    "lat": 35.3877149,
    "lng": 136.8613529,
    "category": "museum",
    "prefecture": "gifu",
    "osm_id": 963510925,
    "spot_type": "data_spot",
    "data_source": "osm"
  },
  {
    "name": "針綱神社",
    "name_en": "",
    "lat": 35.387327,
    "lng": 136.9398404,
    "category": "shrine",
    "prefecture": "gifu",
    "osm_id": 964921968,
    "spot_type": "data_spot",
    "data_source": "osm"
  },
  {
    "name": "三光稲荷神社",
    "name_en": "",
    "lat": 35.3868969,
    "lng": 136.9391618,
    "category": "shrine",
    "prefecture": "gifu",
    "osm_id": 964922252,
    "spot_type": "data_spot",
    "data_source": "osm"
  },
  {
    "name": "津具八幡宮",
    "name_en": "",
    "lat": 35.1760474,
    "lng": 137.6223824,
    "category": "shrine",
    "prefecture": "gifu",
    "osm_id": 967476709,
    "spot_type": "data_spot",
    "data_source": "osm"
  },
  {
    "name": "勝川",
    "name_en": "Kachigawa",
    "lat": 35.2303081,
    "lng": 136.957003,
    "category": "station",
    "prefecture": "gifu",
    "osm_id": 971461747,
    "spot_type": "data_spot",
    "data_source": "osm"
  },
  {
    "name": "崇彦寺（勝川大弘法）",
    "name_en": "",
    "lat": 35.2335876,
    "lng": 136.9548625,
    "category": "temple",
    "prefecture": "gifu",
    "osm_id": 971649049,
    "spot_type": "data_spot",
    "data_source": "osm"
  },
  {
    "name": "白鳥神社",
    "name_en": "",
    "lat": 35.1566997,
    "lng": 137.6497733,
    "category": "shrine",
    "prefecture": "gifu",
    "osm_id": 1036681469,
    "spot_type": "data_spot",
    "data_source": "osm"
  },
  {
    "name": "小鷹神社",
    "name_en": "",
    "lat": 35.1500455,
    "lng": 137.5394862,
    "category": "shrine",
    "prefecture": "gifu",
    "osm_id": 1053516616,
    "spot_type": "data_spot",
    "data_source": "osm"
  },
  {
    "name": "深川神社",
    "name_en": "",
    "lat": 35.2280121,
    "lng": 137.102691,
    "category": "shrine",
    "prefecture": "gifu",
    "osm_id": 1201900985,
    "spot_type": "data_spot",
    "data_source": "osm"
  },
  {
    "name": "名称不明",
    "name_en": "",
    "lat": 35.3101647,
    "lng": 136.8027966,
    "category": "shrine",
    "prefecture": "gifu",
    "osm_id": 1257959991,
    "spot_type": "data_spot",
    "data_source": "osm"
  },
  {
    "name": "岩崎城歴史記念館",
    "name_en": "",
    "lat": 35.1453932,
    "lng": 137.0421262,
    "category": "museum",
    "prefecture": "gifu",
    "osm_id": 1313804244,
    "spot_type": "data_spot",
    "data_source": "osm"
  },
  {
    "name": "岩崎城",
    "name_en": "Iwasaki Castle",
    "lat": 35.1450554,
    "lng": 137.04255,
    "category": "castle",
    "prefecture": "gifu",
    "osm_id": 1313804250,
    "spot_type": "data_spot",
    "data_source": "osm"
  },
  {
    "name": "神明神社",
    "name_en": "",
    "lat": 35.1457316,
    "lng": 137.0350292,
    "category": "shrine",
    "prefecture": "gifu",
    "osm_id": 1319170079,
    "spot_type": "data_spot",
    "data_source": "osm"
  },
  {
    "name": "長久手市郷土資料室",
    "name_en": "",
    "lat": 35.1732378,
    "lng": 137.0484666,
    "category": "museum",
    "prefecture": "gifu",
    "osm_id": 1319911990,
    "spot_type": "data_spot",
    "data_source": "osm"
  },
  {
    "name": "岩崎御嶽神社",
    "name_en": "",
    "lat": 35.1528101,
    "lng": 137.0435528,
    "category": "shrine",
    "prefecture": "gifu",
    "osm_id": 1319912078,
    "spot_type": "data_spot",
    "data_source": "osm"
  },
  {
    "name": "大桑観音",
    "name_en": "",
    "lat": 35.1623366,
    "lng": 137.6147418,
    "category": "shrine",
    "prefecture": "gifu",
    "osm_id": 1344176352,
    "spot_type": "data_spot",
    "data_source": "osm"
  },
  {
    "name": "津具文化資料展示センター",
    "name_en": "",
    "lat": 35.162208,
    "lng": 137.6282419,
    "category": "museum",
    "prefecture": "gifu",
    "osm_id": 1345506156,
    "spot_type": "data_spot",
    "data_source": "osm"
  },
  {
    "name": "たいら郷土館",
    "name_en": "",
    "lat": 36.445563,
    "lng": 136.975154,
    "category": "museum",
    "prefecture": "gifu",
    "osm_id": 1420913085,
    "spot_type": "data_spot",
    "data_source": "osm"
  },
  {
    "name": "南砺市そばの館",
    "name_en": "",
    "lat": 36.421314,
    "lng": 137.005192,
    "category": "museum",
    "prefecture": "gifu",
    "osm_id": 1420913944,
    "spot_type": "data_spot",
    "data_source": "osm"
  },
  {
    "name": "南砺市利賀民俗館",
    "name_en": "",
    "lat": 36.457393,
    "lng": 137.028167,
    "category": "museum",
    "prefecture": "gifu",
    "osm_id": 1420913949,
    "spot_type": "data_spot",
    "data_source": "osm"
  },
  {
    "name": "南砺市立五箇山民俗館",
    "name_en": "Gokayama folklore museum",
    "lat": 36.404476,
    "lng": 136.886852,
    "category": "museum",
    "prefecture": "gifu",
    "osm_id": 1420913955,
    "spot_type": "data_spot",
    "data_source": "osm"
  },
  {
    "name": "南砺市立塩硝の館",
    "name_en": "Salpeter museum",
    "lat": 36.4041163,
    "lng": 136.8869617,
    "category": "museum",
    "prefecture": "gifu",
    "osm_id": 1420913961,
    "spot_type": "data_spot",
    "data_source": "osm"
  },
  {
    "name": "南砺市立相倉民俗館",
    "name_en": "Nanto Municipal Ainokura Folk Museum",
    "lat": 36.425285,
    "lng": 136.935077,
    "category": "museum",
    "prefecture": "gifu",
    "osm_id": 1420913963,
    "spot_type": "data_spot",
    "data_source": "osm"
  },
  {
    "name": "九谷焼窯跡展示館",
    "name_en": "",
    "lat": 36.293953,
    "lng": 136.366236,
    "category": "museum",
    "prefecture": "gifu",
    "osm_id": 1420924713,
    "spot_type": "data_spot",
    "data_source": "osm"
  },
  {
    "name": "加賀市美術館",
    "name_en": "",
    "lat": 36.3190993,
    "lng": 136.3514995,
    "category": "museum",
    "prefecture": "gifu",
    "osm_id": 1420926318,
    "spot_type": "data_spot",
    "data_source": "osm"
  },
  {
    "name": "加賀市中谷宇吉郎雪の科学館",
    "name_en": "",
    "lat": 36.351907,
    "lng": 136.362213,
    "category": "museum",
    "prefecture": "gifu",
    "osm_id": 1420926347,
    "spot_type": "data_spot",
    "data_source": "osm"
  },
  {
    "name": "加賀市歴史民俗資料館",
    "name_en": "",
    "lat": 36.3044361,
    "lng": 136.318966,
    "category": "museum",
    "prefecture": "gifu",
    "osm_id": 1420926406,
    "spot_type": "data_spot",
    "data_source": "osm"
  },
  {
    "name": "加賀市鴨池観察館",
    "name_en": "",
    "lat": 36.321716,
    "lng": 136.294102,
    "category": "zoo",
    "prefecture": "gifu",
    "osm_id": 1420926488,
    "spot_type": "data_spot",
    "data_source": "osm"
  },
  {
    "name": "北前船の里資料館",
    "name_en": "",
    "lat": 36.3508699,
    "lng": 136.3103597,
    "category": "museum",
    "prefecture": "gifu",
    "osm_id": 1420926673,
    "spot_type": "data_spot",
    "data_source": "osm"
  },
  {
    "name": "北前船主屋敷蔵六園",
    "name_en": "",
    "lat": 36.34881,
    "lng": 136.309858,
    "category": "museum",
    "prefecture": "gifu",
    "osm_id": 1420926675,
    "spot_type": "data_spot",
    "data_source": "osm"
  },
  {
    "name": "小松市立博物館",
    "name_en": "Komatsu City Museum",
    "lat": 36.4088471,
    "lng": 136.4483449,
    "category": "museum",
    "prefecture": "gifu",
    "osm_id": 1420929638,
    "spot_type": "data_spot",
    "data_source": "osm"
  },
  {
    "name": "小松市立宮本三郎美術館",
    "name_en": "",
    "lat": 36.408039,
    "lng": 136.448284,
    "category": "museum",
    "prefecture": "gifu",
    "osm_id": 1420929646,
    "spot_type": "data_spot",
    "data_source": "osm"
  },
  {
    "name": "小松市立宮本三郎美術館分館・宮本三郎ふるさと館",
    "name_en": "",
    "lat": 36.375986,
    "lng": 136.410596,
    "category": "museum",
    "prefecture": "gifu",
    "osm_id": 1420929649,
    "spot_type": "data_spot",
    "data_source": "osm"
  },
  {
    "name": "小松市立本陣記念美術館",
    "name_en": "",
    "lat": 36.409067,
    "lng": 136.449201,
    "category": "museum",
    "prefecture": "gifu",
    "osm_id": 1420929651,
    "spot_type": "data_spot",
    "data_source": "osm"
  },
  {
    "name": "小松市立河田山古墳群史跡資料館",
    "name_en": "",
    "lat": 36.411978,
    "lng": 136.516961,
    "category": "museum",
    "prefecture": "gifu",
    "osm_id": 1420929660,
    "spot_type": "data_spot",
    "data_source": "osm"
  },
  {
    "name": "手取川総合開発記念館",
    "name_en": "",
    "lat": 36.1997296,
    "lng": 136.6295219,
    "category": "museum",
    "prefecture": "gifu",
    "osm_id": 1420932068,
    "spot_type": "data_spot",
    "data_source": "osm"
  },
  {
    "name": "浅蔵五十吉美術館（能美市九谷焼美術館）",
    "name_en": "",
    "lat": 36.430415,
    "lng": 136.521219,
    "category": "museum",
    "prefecture": "gifu",
    "osm_id": 1420932632,
    "spot_type": "data_spot",
    "data_source": "osm"
  },
  {
    "name": "無限庵",
    "name_en": "",
    "lat": 36.240677,
    "lng": 136.372452,
    "category": "museum",
    "prefecture": "gifu",
    "osm_id": 1420932717,
    "spot_type": "data_spot",
    "data_source": "osm"
  },
  {
    "name": "白山市立鳥越歴史民俗資料館",
    "name_en": "",
    "lat": 36.358593,
    "lng": 136.604279,
    "category": "museum",
    "prefecture": "gifu",
    "osm_id": 1420933223,
    "spot_type": "data_spot",
    "data_source": "osm"
  },
  {
    "name": "白山市立鶴来博物館(閉鎖)",
    "name_en": "",
    "lat": 36.4477863,
    "lng": 136.6322394,
    "category": "museum",
    "prefecture": "gifu",
    "osm_id": 1420933224,
    "spot_type": "data_spot",
    "data_source": "osm"
  },
  {
    "name": "石川県ふれあい昆虫館",
    "name_en": "Ishikawa Prefectural Insect Museum",
    "lat": 36.444136,
    "lng": 136.632329,
    "category": "museum",
    "prefecture": "gifu",
    "osm_id": 1420933409,
    "spot_type": "data_spot",
    "data_source": "osm"
  },
  {
    "name": "石川県林業試験場展示館",
    "name_en": "Ishikawa Forestry Experiment Exhibition Hall",
    "lat": 36.43074,
    "lng": 136.640814,
    "category": "museum",
    "prefecture": "gifu",
    "osm_id": 1420933436,
    "spot_type": "data_spot",
    "data_source": "osm"
  },
  {
    "name": "石川県白山自然保護センター・中宮展示館",
    "name_en": "",
    "lat": 36.263068,
    "lng": 136.760621,
    "category": "museum",
    "prefecture": "gifu",
    "osm_id": 1420933443,
    "spot_type": "data_spot",
    "data_source": "osm"
  },
  {
    "name": "石川県立尾小屋鉱山資料館",
    "name_en": "",
    "lat": 36.296763,
    "lng": 136.536796,
    "category": "museum",
    "prefecture": "gifu",
    "osm_id": 1420933467,
    "spot_type": "data_spot",
    "data_source": "osm"
  },
  {
    "name": "石川県立白山ろく民俗資料館",
    "name_en": "",
    "lat": 36.179796,
    "lng": 136.622524,
    "category": "museum",
    "prefecture": "gifu",
    "osm_id": 1420933475,
    "spot_type": "data_spot",
    "data_source": "osm"
  },
  {
    "name": "石川県立航空プラザ",
    "name_en": "Prefectural Aviation Plaza",
    "lat": 36.404371,
    "lng": 136.410844,
    "category": "museum",
    "prefecture": "gifu",
    "osm_id": 1420933489,
    "spot_type": "data_spot",
    "data_source": "osm"
  },
  {
    "name": "能美市九谷焼資料館",
    "name_en": "",
    "lat": 36.4289282,
    "lng": 136.5206036,
    "category": "museum",
    "prefecture": "gifu",
    "osm_id": 1420934405,
    "spot_type": "data_spot",
    "data_source": "osm"
  },
  {
    "name": "能美市立歴史民俗資料館",
    "name_en": "",
    "lat": 36.4424753,
    "lng": 136.5050936,
    "category": "museum",
    "prefecture": "gifu",
    "osm_id": 1420934410,
    "spot_type": "data_spot",
    "data_source": "osm"
  },
  {
    "name": "那谷寺普門閣宝物館",
    "name_en": "",
    "lat": 36.309747,
    "lng": 136.420485,
    "category": "museum",
    "prefecture": "gifu",
    "osm_id": 1420934751,
    "spot_type": "data_spot",
    "data_source": "osm"
  },
  {
    "name": "勝山城博物館",
    "name_en": "Katsuyama Castle",
    "lat": 36.042756,
    "lng": 136.52068,
    "category": "museum",
    "prefecture": "gifu",
    "osm_id": 1420945298,
    "spot_type": "data_spot",
    "data_source": "osm"
  },
  {
    "name": "坂井市丸岡歴史民俗資料館",
    "name_en": "",
    "lat": 36.152181,
    "lng": 136.274304,
    "category": "museum",
    "prefecture": "gifu",
    "osm_id": 1420946125,
    "spot_type": "data_spot",
    "data_source": "osm"
  },
  {
    "name": "大野市歴史民俗資料館",
    "name_en": "",
    "lat": 35.980643,
    "lng": 136.489257,
    "category": "museum",
    "prefecture": "gifu",
    "osm_id": 1420946421,
    "spot_type": "data_spot",
    "data_source": "osm"
  },
  {
    "name": "大野市民俗資料館",
    "name_en": "Ono Folklore Museum",
    "lat": 35.984923,
    "lng": 136.484477,
    "category": "museum",
    "prefecture": "gifu",
    "osm_id": 1420946452,
    "spot_type": "data_spot",
    "data_source": "osm"
  },
  {
    "name": "武家屋敷旧内山家",
    "name_en": "",
    "lat": 35.985488,
    "lng": 136.486866,
    "category": "museum",
    "prefecture": "gifu",
    "osm_id": 1420948539,
    "spot_type": "data_spot",
    "data_source": "osm"
  },
  {
    "name": "永平寺町緑の村四季の森文化館",
    "name_en": "",
    "lat": 36.087871,
    "lng": 136.324784,
    "category": "museum",
    "prefecture": "gifu",
    "osm_id": 1420948626,
    "spot_type": "data_spot",
    "data_source": "osm"
  },
  {
    "name": "福井県立一乗谷朝倉氏遺跡博物館",
    "name_en": "",
    "lat": 36.0149845,
    "lng": 136.2983643,
    "category": "museum",
    "prefecture": "gifu",
    "osm_id": 1420949537,
    "spot_type": "data_spot",
    "data_source": "osm"
  },
  {
    "name": "福井県立恐竜博物館",
    "name_en": "",
    "lat": 36.0823042,
    "lng": 136.5065708,
    "category": "museum",
    "prefecture": "gifu",
    "osm_id": 1420949543,
    "spot_type": "data_spot",
    "data_source": "osm"
  },
  {
    "name": "福井県自然保護センター",
    "name_en": "",
    "lat": 36.020537,
    "lng": 136.581256,
    "category": "museum",
    "prefecture": "gifu",
    "osm_id": 1420949560,
    "spot_type": "data_spot",
    "data_source": "osm"
  },
  {
    "name": "能楽の里能面美術館",
    "name_en": "",
    "lat": 35.8616238,
    "lng": 136.362789,
    "category": "museum",
    "prefecture": "gifu",
    "osm_id": 1420949783,
    "spot_type": "data_spot",
    "data_source": "osm"
  },
  {
    "name": "越前大野城",
    "name_en": "",
    "lat": 35.9865611,
    "lng": 136.4831911,
    "category": "museum",
    "prefecture": "gifu",
    "osm_id": 1420949911,
    "spot_type": "data_spot",
    "data_source": "osm"
  },
  {
    "name": "名称不明",
    "name_en": "",
    "lat": 35.387785,
    "lng": 136.86143,
    "category": "museum",
    "prefecture": "gifu",
    "osm_id": 1420974909,
    "spot_type": "data_spot",
    "data_source": "osm"
  },
  {
    "name": "こども陶器博物館",
    "name_en": "",
    "lat": 35.3610116,
    "lng": 137.1113565,
    "category": "museum",
    "prefecture": "gifu",
    "osm_id": 1420974972,
    "spot_type": "data_spot",
    "data_source": "osm"
  },
  {
    "name": "エコミュージアム関ケ原",
    "name_en": "",
    "lat": 35.368834,
    "lng": 136.436846,
    "category": "museum",
    "prefecture": "gifu",
    "osm_id": 1420975409,
    "spot_type": "data_spot",
    "data_source": "osm"
  },
  {
    "name": "タルイピアセンター・歴史民俗資料館",
    "name_en": "",
    "lat": 35.369964,
    "lng": 136.536603,
    "category": "museum",
    "prefecture": "gifu",
    "osm_id": 1420975566,
    "spot_type": "data_spot",
    "data_source": "osm"
  },
  {
    "name": "ミュージアム中仙道",
    "name_en": "",
    "lat": 35.366609,
    "lng": 137.234267,
    "category": "museum",
    "prefecture": "gifu",
    "osm_id": 1420975636,
    "spot_type": "data_spot",
    "data_source": "osm"
  },
  {
    "name": "上宝ふるさと歴史館",
    "name_en": "",
    "lat": 36.286742,
    "lng": 137.36174,
    "category": "museum",
    "prefecture": "gifu",
    "osm_id": 1420975993,
    "spot_type": "data_spot",
    "data_source": "osm"
  },
  {
    "name": "下呂小坂郷土館",
    "name_en": "",
    "lat": 35.916605,
    "lng": 137.310527,
    "category": "museum",
    "prefecture": "gifu",
    "osm_id": 1420976062,
    "spot_type": "data_spot",
    "data_source": "osm"
  },
  {
    "name": "下呂市禅昌寺歴史民俗資料館",
    "name_en": "",
    "lat": 35.845198,
    "lng": 137.228511,
    "category": "museum",
    "prefecture": "gifu",
    "osm_id": 1420976067,
    "spot_type": "data_spot",
    "data_source": "osm"
  },
  {
    "name": "下呂温泉合掌村",
    "name_en": "",
    "lat": 35.8084673,
    "lng": 137.2499485,
    "category": "museum",
    "prefecture": "gifu",
    "osm_id": 1420976068,
    "spot_type": "data_spot",
    "data_source": "osm"
  },
  {
    "name": "下呂発温泉博物館",
    "name_en": "",
    "lat": 35.810145,
    "lng": 137.24144,
    "category": "museum",
    "prefecture": "gifu",
    "osm_id": 1420976072,
    "spot_type": "data_spot",
    "data_source": "osm"
  },
  {
    "name": "不破関資料館",
    "name_en": "",
    "lat": 35.359535,
    "lng": 136.458059,
    "category": "museum",
    "prefecture": "gifu",
    "osm_id": 1420976313,
    "spot_type": "data_spot",
    "data_source": "osm"
  },
  {
    "name": "中山道みたけ館",
    "name_en": "",
    "lat": 35.4301934,
    "lng": 137.1300762,
    "category": "museum",
    "prefecture": "gifu",
    "osm_id": 1420976522,
    "spot_type": "data_spot",
    "data_source": "osm"
  },
  {
    "name": "中山道広重美術館",
    "name_en": "Hiroshige Museum of Art",
    "lat": 35.452938,
    "lng": 137.409982,
    "category": "museum",
    "prefecture": "gifu",
    "osm_id": 1420976524,
    "spot_type": "data_spot",
    "data_source": "osm"
  },
  {
    "name": "中津川市中山道歴史資料館",
    "name_en": "Nakatsugawa City Nakasendō History Museum",
    "lat": 35.495687,
    "lng": 137.5024828,
    "category": "museum",
    "prefecture": "gifu",
    "osm_id": 1420976554,
    "spot_type": "data_spot",
    "data_source": "osm"
  },
  {
    "name": "中津川市東山魁夷心の旅路館",
    "name_en": "",
    "lat": 35.5860224,
    "lng": 137.5514331,
    "category": "museum",
    "prefecture": "gifu",
    "osm_id": 1420976560,
    "spot_type": "data_spot",
    "data_source": "osm"
  },
  {
    "name": "中津川市苗木遠山史料館",
    "name_en": "",
    "lat": 35.5147784,
    "lng": 137.4816281,
    "category": "museum",
    "prefecture": "gifu",
    "osm_id": 1420976566,
    "spot_type": "data_spot",
    "data_source": "osm"
  },
  {
    "name": "中津川市鉱物博物館",
    "name_en": "",
    "lat": 35.543869,
    "lng": 137.476009,
    "category": "museum",
    "prefecture": "gifu",
    "osm_id": 1420976567,
    "spot_type": "data_spot",
    "data_source": "osm"
  },
  {
    "name": "中津川市青邨記念館",
    "name_en": "",
    "lat": 35.511792,
    "lng": 137.48056,
    "category": "museum",
    "prefecture": "gifu",
    "osm_id": 1420976568,
    "spot_type": "data_spot",
    "data_source": "osm"
  },
  {
    "name": "串原郷土館",
    "name_en": "",
    "lat": 35.236987,
    "lng": 137.44852,
    "category": "museum",
    "prefecture": "gifu",
    "osm_id": 1420976711,
    "spot_type": "data_spot",
    "data_source": "osm"
  },
  {
    "name": "久々野歴史民俗資料館",
    "name_en": "",
    "lat": 36.054059,
    "lng": 137.279664,
    "category": "museum",
    "prefecture": "gifu",
    "osm_id": 1420976732,
    "spot_type": "data_spot",
    "data_source": "osm"
  },
  {
    "name": "光記念館",
    "name_en": "",
    "lat": 36.1563346,
    "lng": 137.2340312,
    "category": "museum",
    "prefecture": "gifu",
    "osm_id": 1420977588,
    "spot_type": "data_spot",
    "data_source": "osm"
  },
  {
    "name": "兼山歴史民俗資料館",
    "name_en": "",
    "lat": 35.457452,
    "lng": 137.0931523,
    "category": "museum",
    "prefecture": "gifu",
    "osm_id": 1420977893,
    "spot_type": "data_spot",
    "data_source": "osm"
  },
  {
    "name": "内藤記念くすり博物館",
    "name_en": "",
    "lat": 35.36449,
    "lng": 136.844501,
    "category": "museum",
    "prefecture": "gifu",
    "osm_id": 1420977941,
    "spot_type": "data_spot",
    "data_source": "osm"
  },
  {
    "name": "博石館",
    "name_en": "Stone Museum Hakusekikan",
    "lat": 35.4967401,
    "lng": 137.3993313,
    "category": "museum",
    "prefecture": "gifu",
    "osm_id": 1420978445,
    "spot_type": "data_spot",
    "data_source": "osm"
  },
  {
    "name": "古今伝授の里フィールドミュージアム",
    "name_en": "",
    "lat": 35.812132,
    "lng": 136.925579,
    "category": "museum",
    "prefecture": "gifu",
    "osm_id": 1420978520,
    "spot_type": "data_spot",
    "data_source": "osm"
  },
  {
    "name": "可児郷土歴史館",
    "name_en": "",
    "lat": 35.403625,
    "lng": 137.111212,
    "category": "museum",
    "prefecture": "gifu",
    "osm_id": 1420978567,
    "spot_type": "data_spot",
    "data_source": "osm"
  },
  {
    "name": "名鉄資料館",
    "name_en": "",
    "lat": 35.442128,
    "lng": 137.050839,
    "category": "museum",
    "prefecture": "gifu",
    "osm_id": 1420978791,
    "spot_type": "data_spot",
    "data_source": "osm"
  },
  {
    "name": "土岐市美濃陶磁歴史館",
    "name_en": "",
    "lat": 35.364997,
    "lng": 137.179143,
    "category": "museum",
    "prefecture": "gifu",
    "osm_id": 1420979343,
    "spot_type": "data_spot",
    "data_source": "osm"
  },
  {
    "name": "大垣市上石津郷土資料館",
    "name_en": "",
    "lat": 35.2869513,
    "lng": 136.4663522,
    "category": "museum",
    "prefecture": "gifu",
    "osm_id": 1420980742,
    "spot_type": "data_spot",
    "data_source": "osm"
  },
  {
    "name": "大垣市守屋多々志美術館",
    "name_en": "",
    "lat": 35.360286,
    "lng": 136.617406,
    "category": "museum",
    "prefecture": "gifu",
    "osm_id": 1420980745,
    "spot_type": "data_spot",
    "data_source": "osm"
  },