[
  {
    "name": "Shrine",
    "name_en": "",
    "lat": 34.5175154,
    "lng": 134.3037104,
    "category": "shrine",
    "prefecture": "hyogo",
    "osm_id": 261014731,
    "spot_type": "data_spot",
    "data_source": "osm"
  },
  {
    "name": "名称不明",
    "name_en": "",
    "lat": 34.5171358,
    "lng": 134.3143543,
    "category": "shrine",
    "prefecture": "hyogo",
    "osm_id": 261014903,
    "spot_type": "data_spot",
    "data_source": "osm"
  },
  {
    "name": "名称不明",
    "name_en": "",
    "lat": 34.5181903,
    "lng": 134.312446,
    "category": "shrine",
    "prefecture": "hyogo",
    "osm_id": 261014907,
    "spot_type": "data_spot",
    "data_source": "osm"
  },
  {
    "name": "孫崎灯台",
    "name_en": "",
    "lat": 34.2391428,
    "lng": 134.6431933,
    "category": "lighthouse",
    "prefecture": "hyogo",
    "osm_id": 265049730,
    "spot_type": "data_spot",
    "data_source": "osm"
  },
  {
    "name": "瓶浦神社",
    "name_en": "",
    "lat": 34.2320189,
    "lng": 134.6354096,
    "category": "shrine",
    "prefecture": "hyogo",
    "osm_id": 265072840,
    "spot_type": "data_spot",
    "data_source": "osm"
  },
  {
    "name": "姫路",
    "name_en": "Himeji",
    "lat": 34.8264048,
    "lng": 134.6907972,
    "category": "station",
    "prefecture": "hyogo",
    "osm_id": 265895565,
    "spot_type": "data_spot",
    "data_source": "osm"
  },
  {
    "name": "西明石",
    "name_en": "Nishi-Akashi",
    "lat": 34.665979,
    "lng": 134.9601074,
    "category": "station",
    "prefecture": "hyogo",
    "osm_id": 265910727,
    "spot_type": "data_spot",
    "data_source": "osm"
  },
  {
    "name": "明石",
    "name_en": "Akashi",
    "lat": 34.6491038,
    "lng": 134.9927483,
    "category": "station",
    "prefecture": "hyogo",
    "osm_id": 265910879,
    "spot_type": "data_spot",
    "data_source": "osm"
  },
  {
    "name": "上川口",
    "name_en": "Kamikawaguchi",
    "lat": 35.3295008,
    "lng": 135.0730967,
    "category": "station",
    "prefecture": "hyogo",
    "osm_id": 265959999,
    "spot_type": "data_spot",
    "data_source": "osm"
  },
  {
    "name": "立木",
    "name_en": "Tachiki",
    "lat": 35.2742299,
    "lng": 135.337472,
    "category": "station",
    "prefecture": "hyogo",
    "osm_id": 265960103,
    "spot_type": "data_spot",
    "data_source": "osm"
  },
  {
    "name": "香住",
    "name_en": "Kasumi",
    "lat": 35.6354933,
    "lng": 134.6231388,
    "category": "station",
    "prefecture": "hyogo",
    "osm_id": 265960658,
    "spot_type": "data_spot",
    "data_source": "osm"
  },
  {
    "name": "江原",
    "name_en": "Ebara",
    "lat": 35.4695106,
    "lng": 134.7758144,
    "category": "station",
    "prefecture": "hyogo",
    "osm_id": 265960661,
    "spot_type": "data_spot",
    "data_source": "osm"
  },
  {
    "name": "養父",
    "name_en": "Yabu",
    "lat": 35.3710145,
    "lng": 134.8117204,
    "category": "station",
    "prefecture": "hyogo",
    "osm_id": 265960886,
    "spot_type": "data_spot",
    "data_source": "osm"
  },
  {
    "name": "国府",
    "name_en": "Kokufu",
    "lat": 35.4963023,
    "lng": 134.8000012,
    "category": "station",
    "prefecture": "hyogo",
    "osm_id": 265960889,
    "spot_type": "data_spot",
    "data_source": "osm"
  },
  {
    "name": "玄武洞",
    "name_en": "Genbudo",
    "lat": 35.58863,
    "lng": 134.7992171,
    "category": "station",
    "prefecture": "hyogo",
    "osm_id": 265961024,
    "spot_type": "data_spot",
    "data_source": "osm"
  },
  {
    "name": "胡麻",
    "name_en": "Goma",
    "lat": 35.1953739,
    "lng": 135.4682631,
    "category": "station",
    "prefecture": "hyogo",
    "osm_id": 265961188,
    "spot_type": "data_spot",
    "data_source": "osm"
  },
  {
    "name": "梁瀬",
    "name_en": "Yanase",
    "lat": 35.3222852,
    "lng": 134.8810215,
    "category": "station",
    "prefecture": "hyogo",
    "osm_id": 265961246,
    "spot_type": "data_spot",
    "data_source": "osm"
  },
  {
    "name": "安栖里",
    "name_en": "Aseri",
    "lat": 35.2661033,
    "lng": 135.3849568,
    "category": "station",
    "prefecture": "hyogo",
    "osm_id": 265961252,
    "spot_type": "data_spot",
    "data_source": "osm"
  },
  {
    "name": "佐津",
    "name_en": "Satsu",
    "lat": 35.6531158,
    "lng": 134.6856879,
    "category": "station",
    "prefecture": "hyogo",
    "osm_id": 265961255,
    "spot_type": "data_spot",
    "data_source": "osm"
  },
  {
    "name": "高津",
    "name_en": "Takatsu",
    "lat": 35.3050925,
    "lng": 135.207701,
    "category": "station",
    "prefecture": "hyogo",
    "osm_id": 265961544,
    "spot_type": "data_spot",
    "data_source": "osm"
  },
  {
    "name": "石原",
    "name_en": "Isa",
    "lat": 35.3011336,
    "lng": 135.1807397,
    "category": "station",
    "prefecture": "hyogo",
    "osm_id": 265961913,
    "spot_type": "data_spot",
    "data_source": "osm"
  },
  {
    "name": "山家",
    "name_en": "Yamaga",
    "lat": 35.2942546,
    "lng": 135.3194846,
    "category": "station",
    "prefecture": "hyogo",
    "osm_id": 265962639,
    "spot_type": "data_spot",
    "data_source": "osm"
  },
  {
    "name": "下夜久野",
    "name_en": "Shimo-Yakuno",
    "lat": 35.3199199,
    "lng": 134.9985002,
    "category": "station",
    "prefecture": "hyogo",
    "osm_id": 265962648,
    "spot_type": "data_spot",
    "data_source": "osm"
  },
  {
    "name": "柴山",
    "name_en": "Shibayama",
    "lat": 35.6464791,
    "lng": 134.6637555,
    "category": "station",
    "prefecture": "hyogo",
    "osm_id": 265963234,
    "spot_type": "data_spot",
    "data_source": "osm"
  },
  {
    "name": "竹野",
    "name_en": "Takeno",
    "lat": 35.6499609,
    "lng": 134.7563763,
    "category": "station",
    "prefecture": "hyogo",
    "osm_id": 265963441,
    "spot_type": "data_spot",
    "data_source": "osm"
  },
  {
    "name": "上夜久野",
    "name_en": "Kami-Yakuno",
    "lat": 35.3417446,
    "lng": 134.931314,
    "category": "station",
    "prefecture": "hyogo",
    "osm_id": 265964071,
    "spot_type": "data_spot",
    "data_source": "osm"
  },
  {
    "name": "下山",
    "name_en": "Shimoyama",
    "lat": 35.2124712,
    "lng": 135.4225002,
    "category": "station",
    "prefecture": "hyogo",
    "osm_id": 265964289,
    "spot_type": "data_spot",
    "data_source": "osm"
  },
  {
    "name": "和知",
    "name_en": "Wachi",
    "lat": 35.261162,
    "lng": 135.3988326,
    "category": "station",
    "prefecture": "hyogo",
    "osm_id": 265966853,
    "spot_type": "data_spot",
    "data_source": "osm"
  },
  {
    "name": "鎧",
    "name_en": "Yoroi",
    "lat": 35.6516349,
    "lng": 134.5754602,
    "category": "station",
    "prefecture": "hyogo",
    "osm_id": 265966891,
    "spot_type": "data_spot",
    "data_source": "osm"
  },
  {
    "name": "岩美",
    "name_en": "Iwami",
    "lat": 35.5743474,
    "lng": 134.3356145,
    "category": "station",
    "prefecture": "hyogo",
    "osm_id": 265966955,
    "spot_type": "data_spot",
    "data_source": "osm"
  },
  {
    "name": "餘部",
    "name_en": "Amarube",
    "lat": 35.6487624,
    "lng": 134.5570701,
    "category": "station",
    "prefecture": "hyogo",
    "osm_id": 265967312,
    "spot_type": "data_spot",
    "data_source": "osm"
  },
  {
    "name": "福部",
    "name_en": "Fukube",
    "lat": 35.5453668,
    "lng": 134.2875606,
    "category": "station",
    "prefecture": "hyogo",
    "osm_id": 265967497,
    "spot_type": "data_spot",
    "data_source": "osm"
  },
  {
    "name": "東浜",
    "name_en": "Higashihama",
    "lat": 35.5996524,
    "lng": 134.3626707,
    "category": "station",
    "prefecture": "hyogo",
    "osm_id": 265967534,
    "spot_type": "data_spot",
    "data_source": "osm"
  },
  {
    "name": "諸寄",
    "name_en": "Moroyose",
    "lat": 35.6195566,
    "lng": 134.4343476,
    "category": "station",
    "prefecture": "hyogo",
    "osm_id": 265967803,
    "spot_type": "data_spot",
    "data_source": "osm"
  },
  {
    "name": "浜坂",
    "name_en": "Hamasaka",
    "lat": 35.6208056,
    "lng": 134.4523087,
    "category": "station",
    "prefecture": "hyogo",
    "osm_id": 265968202,
    "spot_type": "data_spot",
    "data_source": "osm"
  },
  {
    "name": "大岩",
    "name_en": "Ōiwa",
    "lat": 35.5669231,
    "lng": 134.3084831,
    "category": "station",
    "prefecture": "hyogo",
    "osm_id": 265968978,
    "spot_type": "data_spot",
    "data_source": "osm"
  },
  {
    "name": "居組",
    "name_en": "Igumi",
    "lat": 35.6068993,
    "lng": 134.3935415,
    "category": "station",
    "prefecture": "hyogo",
    "osm_id": 265969026,
    "spot_type": "data_spot",
    "data_source": "osm"
  },
  {
    "name": "播磨高岡",
    "name_en": "Harima-Takaoka",
    "lat": 34.8421074,
    "lng": 134.6584744,
    "category": "station",
    "prefecture": "hyogo",
    "osm_id": 266921888,
    "spot_type": "data_spot",
    "data_source": "osm"
  },
  {
    "name": "太市",
    "name_en": "Ōichi",
    "lat": 34.8640236,
    "lng": 134.6071434,
    "category": "station",
    "prefecture": "hyogo",
    "osm_id": 266921972,
    "spot_type": "data_spot",
    "data_source": "osm"
  },
  {
    "name": "千本",
    "name_en": "Sembon",
    "lat": 34.9424722,
    "lng": 134.4943513,
    "category": "station",
    "prefecture": "hyogo",
    "osm_id": 266922052,
    "spot_type": "data_spot",
    "data_source": "osm"
  },
  {
    "name": "上月",
    "name_en": "Kozuki",
    "lat": 34.9836369,
    "lng": 134.3226039,
    "category": "station",
    "prefecture": "hyogo",
    "osm_id": 266922630,
    "spot_type": "data_spot",
    "data_source": "osm"
  },
  {
    "name": "西栗栖",
    "name_en": "Nishi Kurisu",
    "lat": 34.9524131,
    "lng": 134.4704009,
    "category": "station",
    "prefecture": "hyogo",
    "osm_id": 266922708,
    "spot_type": "data_spot",
    "data_source": "osm"
  },
  {
    "name": "播磨徳久",
    "name_en": "Harima-Tokusa",
    "lat": 34.990524,
    "lng": 134.3860046,
    "category": "station",
    "prefecture": "hyogo",
    "osm_id": 266922713,
    "spot_type": "data_spot",
    "data_source": "osm"
  },
  {
    "name": "東觜崎",
    "name_en": "Higashi-Hashisaki",
    "lat": 34.8879681,
    "lng": 134.5578852,
    "category": "station",
    "prefecture": "hyogo",
    "osm_id": 266923818,
    "spot_type": "data_spot",
    "data_source": "osm"
  },
  {
    "name": "三日月",
    "name_en": "Mikazuki",
    "lat": 34.985006,
    "lng": 134.4353888,
    "category": "station",
    "prefecture": "hyogo",
    "osm_id": 266924834,
    "spot_type": "data_spot",
    "data_source": "osm"
  },
  {
    "name": "播磨新宮",
    "name_en": "Harima-Shingū",
    "lat": 34.9210847,
    "lng": 134.5465177,
    "category": "station",
    "prefecture": "hyogo",
    "osm_id": 266924921,
    "spot_type": "data_spot",
    "data_source": "osm"
  },
  {
    "name": "本竜野",
    "name_en": "Hon-Tatsuno",
    "lat": 34.8619028,
    "lng": 134.5555323,
    "category": "station",
    "prefecture": "hyogo",
    "osm_id": 266925698,
    "spot_type": "data_spot",
    "data_source": "osm"
  },
  {
    "name": "東郡家",
    "name_en": "Higashi-Koge",
    "lat": 35.428834,
    "lng": 134.2600124,
    "category": "station",
    "prefecture": "hyogo",
    "osm_id": 267059958,
    "spot_type": "data_spot",
    "data_source": "osm"
  },
  {
    "name": "新井",
    "name_en": "Nii",
    "lat": 35.2370627,
    "lng": 134.7951345,
    "category": "station",
    "prefecture": "hyogo",
    "osm_id": 267062368,
    "spot_type": "data_spot",
    "data_source": "osm"
  },
  {
    "name": "長谷",
    "name_en": "Hase",
    "lat": 35.1168355,
    "lng": 134.7480051,
    "category": "station",
    "prefecture": "hyogo",
    "osm_id": 267062582,
    "spot_type": "data_spot",
    "data_source": "osm"
  },
  {
    "name": "青倉",
    "name_en": "Aokura",
    "lat": 35.2671129,
    "lng": 134.8114283,
    "category": "station",
    "prefecture": "hyogo",
    "osm_id": 267063319,
    "spot_type": "data_spot",
    "data_source": "osm"
  },
  {
    "name": "仁豊野",
    "name_en": "Nibuno",
    "lat": 34.8850884,
    "lng": 134.7282033,
    "category": "station",
    "prefecture": "hyogo",
    "osm_id": 267063450,
    "spot_type": "data_spot",
    "data_source": "osm"
  },
  {
    "name": "砥堀",
    "name_en": "Tohori",
    "lat": 34.8662556,
    "lng": 134.7245136,
    "category": "station",
    "prefecture": "hyogo",
    "osm_id": 267063477,
    "spot_type": "data_spot",
    "data_source": "osm"
  },
  {
    "name": "京口",
    "name_en": "Kyōguchi",
    "lat": 34.8340316,
    "lng": 134.7051426,
    "category": "station",
    "prefecture": "hyogo",
    "osm_id": 267063488,
    "spot_type": "data_spot",
    "data_source": "osm"
  },
  {
    "name": "西脇市",
    "name_en": "Nishiwakishi",
    "lat": 34.972016,
    "lng": 134.9691057,
    "category": "station",
    "prefecture": "hyogo",
    "osm_id": 267064937,
    "spot_type": "data_spot",
    "data_source": "osm"
  },
  {
    "name": "滝野",
    "name_en": "Takino",
    "lat": 34.9412041,
    "lng": 134.9554044,
    "category": "station",
    "prefecture": "hyogo",
    "osm_id": 267064939,
    "spot_type": "data_spot",
    "data_source": "osm"
  },
  {
    "name": "比延",
    "name_en": "Hie",
    "lat": 34.9891,
    "lng": 134.995816,
    "category": "station",
    "prefecture": "hyogo",
    "osm_id": 267064941,
    "spot_type": "data_spot",
    "data_source": "osm"
  },
  {
    "name": "新西脇",
    "name_en": "Shin-Nishiwaki",
    "lat": 34.978038,
    "lng": 134.977966,
    "category": "station",
    "prefecture": "hyogo",
    "osm_id": 267064988,
    "spot_type": "data_spot",
    "data_source": "osm"
  },
  {
    "name": "黒田庄",
    "name_en": "Kurodashō",
    "lat": 35.0225486,
    "lng": 134.9924538,
    "category": "station",
    "prefecture": "hyogo",
    "osm_id": 267065019,
    "spot_type": "data_spot",
    "data_source": "osm"
  },
  {
    "name": "船町口",
    "name_en": "Funamachiguchi",
    "lat": 35.063125,
    "lng": 135.009646,
    "category": "station",
    "prefecture": "hyogo",
    "osm_id": 267065085,
    "spot_type": "data_spot",
    "data_source": "osm"
  },
  {
    "name": "日本へそ公園",
    "name_en": "Nihonhesokōen",
    "lat": 35.0023377,
    "lng": 134.9977005,
    "category": "station",
    "prefecture": "hyogo",
    "osm_id": 267065222,
    "spot_type": "data_spot",
    "data_source": "osm"
  },
  {
    "name": "本黒田",
    "name_en": "Hon-Kuroda",
    "lat": 35.0529112,
    "lng": 134.9959899,
    "category": "station",
    "prefecture": "hyogo",
    "osm_id": 267065337,
    "spot_type": "data_spot",
    "data_source": "osm"
  },
  {
    "name": "滝",
    "name_en": "Taki",
    "lat": 34.9487252,
    "lng": 134.9623912,
    "category": "station",
    "prefecture": "hyogo",
    "osm_id": 267065496,
    "spot_type": "data_spot",
    "data_source": "osm"
  },
  {
    "name": "久下村",
    "name_en": "Kugemura",
    "lat": 35.0755103,
    "lng": 135.0303859,
    "category": "station",
    "prefecture": "hyogo",
    "osm_id": 267071537,
    "spot_type": "data_spot",
    "data_source": "osm"
  },
  {
    "name": "神野",
    "name_en": "Kanno",
    "lat": 34.7910573,
    "lng": 134.8789714,
    "category": "station",
    "prefecture": "hyogo",
    "osm_id": 267071646,
    "spot_type": "data_spot",
    "data_source": "osm"
  },
  {
    "name": "河合西",
    "name_en": "Kawainishi",
    "lat": 34.8791376,
    "lng": 134.91955,
    "category": "station",
    "prefecture": "hyogo",
    "osm_id": 267071649,
    "spot_type": "data_spot",
    "data_source": "osm"
  },
  {
    "name": "青野ヶ原",
    "name_en": "Aonogahara",
    "lat": 34.8973121,
    "lng": 134.9280878,
    "category": "station",
    "prefecture": "hyogo",
    "osm_id": 267071662,
    "spot_type": "data_spot",
    "data_source": "osm"
  },
  {
    "name": "小野町",
    "name_en": "Onomachi",
    "lat": 34.8338489,
    "lng": 134.9181795,
    "category": "station",
    "prefecture": "hyogo",
    "osm_id": 267071677,
    "spot_type": "data_spot",
    "data_source": "osm"
  },
  {
    "name": "厄神",
    "name_en": "Yakujin",
    "lat": 34.7945532,
    "lng": 134.9065433,
    "category": "station",
    "prefecture": "hyogo",
    "osm_id": 267071737,
    "spot_type": "data_spot",
    "data_source": "osm"
  },
  {
    "name": "市場",
    "name_en": "Ichiba",
    "lat": 34.8192242,
    "lng": 134.9324618,
    "category": "station",
    "prefecture": "hyogo",
    "osm_id": 267071748,
    "spot_type": "data_spot",
    "data_source": "osm"
  },
  {
    "name": "日根野",
    "name_en": "Hineno",
    "lat": 34.3908597,
    "lng": 135.3313204,
    "category": "station",
    "prefecture": "hyogo",
    "osm_id": 267297188,
    "spot_type": "data_spot",
    "data_source": "osm"
  },
  {
    "name": "紀三井寺",
    "name_en": "Kimiidera",
    "lat": 34.1880057,
    "lng": 135.1876099,
    "category": "station",
    "prefecture": "hyogo",
    "osm_id": 267323767,
    "spot_type": "data_spot",
    "data_source": "osm"
  },
  {
    "name": "海南",
    "name_en": "Kainan",
    "lat": 34.1542935,
    "lng": 135.2144039,
    "category": "station",
    "prefecture": "hyogo",
    "osm_id": 267323852,
    "spot_type": "data_spot",
    "data_source": "osm"
  },
  {
    "name": "黒江",
    "name_en": "Kuroe",
    "lat": 34.1701732,
    "lng": 135.2102698,
    "category": "station",
    "prefecture": "hyogo",
    "osm_id": 267324123,
    "spot_type": "data_spot",
    "data_source": "osm"
  },
  {
    "name": "船戸",
    "name_en": "Funato",
    "lat": 34.2483674,
    "lng": 135.3111961,
    "category": "station",
    "prefecture": "hyogo",
    "osm_id": 267334273,
    "spot_type": "data_spot",
    "data_source": "osm"
  },
  {
    "name": "和泉府中",
    "name_en": "Izumi-Fuchu",
    "lat": 34.4879504,
    "lng": 135.4238783,
    "category": "station",
    "prefecture": "hyogo",
    "osm_id": 267335424,
    "spot_type": "data_spot",
    "data_source": "osm"
  },
  {
    "name": "東岸和田",
    "name_en": "Higashi-Kishiwada",
    "lat": 34.4494504,
    "lng": 135.3859705,
    "category": "station",
    "prefecture": "hyogo",
    "osm_id": 267335445,
    "spot_type": "data_spot",
    "data_source": "osm"
  },
  {
    "name": "下松",
    "name_en": "Shimomatsu",
    "lat": 34.4574991,
    "lng": 135.3968838,
    "category": "station",
    "prefecture": "hyogo",
    "osm_id": 267335523,
    "spot_type": "data_spot",
    "data_source": "osm"
  },
  {
    "name": "熊取",
    "name_en": "Kumatori",
    "lat": 34.4063314,
    "lng": 135.3412207,
    "category": "station",
    "prefecture": "hyogo",
    "osm_id": 267335686,
    "spot_type": "data_spot",
    "data_source": "osm"
  },
  {
    "name": "紀伊",
    "name_en": "Kii",
    "lat": 34.2692946,
    "lng": 135.246368,
    "category": "station",
    "prefecture": "hyogo",
    "osm_id": 267336295,
    "spot_type": "data_spot",
    "data_source": "osm"
  },
  {
    "name": "和泉砂川",
    "name_en": "Izumi-sunagawa",
    "lat": 34.3605283,
    "lng": 135.2814777,
    "category": "station",
    "prefecture": "hyogo",
    "osm_id": 267336301,
    "spot_type": "data_spot",
    "data_source": "osm"
  },
  {
    "name": "六十谷",
    "name_en": "Musota",
    "lat": 34.26242,
    "lng": 135.2072124,
    "category": "station",
    "prefecture": "hyogo",
    "osm_id": 267336452,
    "spot_type": "data_spot",
    "data_source": "osm"
  },
  {
    "name": "新家",
    "name_en": "Shinge",
    "lat": 34.3723477,
    "lng": 135.2989628,
    "category": "station",
    "prefecture": "hyogo",
    "osm_id": 267336455,
    "spot_type": "data_spot",
    "data_source": "osm"
  },
  {
    "name": "山中渓",
    "name_en": "Yamanakadani",
    "lat": 34.3257891,
    "lng": 135.2697913,
    "category": "station",
    "prefecture": "hyogo",
    "osm_id": 267336637,
    "spot_type": "data_spot",
    "data_source": "osm"
  },
  {
    "name": "長滝",
    "name_en": "Nagataki",
    "lat": 34.3819871,
    "lng": 135.320077,
    "category": "station",
    "prefecture": "hyogo",
    "osm_id": 267336650,
    "spot_type": "data_spot",
    "data_source": "osm"
  },
  {
    "name": "和泉鳥取",
    "name_en": "Izumi-tottori",
    "lat": 34.3425624,
    "lng": 135.2632028,
    "category": "station",
    "prefecture": "hyogo",
    "osm_id": 267336655,
    "spot_type": "data_spot",
    "data_source": "osm"
  },
  {
    "name": "立花",
    "name_en": "Tachibana",
    "lat": 34.7379561,
    "lng": 135.3990209,
    "category": "station",
    "prefecture": "hyogo",
    "osm_id": 267460771,
    "spot_type": "data_spot",
    "data_source": "osm"
  },
  {
    "name": "桜島",
    "name_en": "Sakurajima",
    "lat": 34.6621229,
    "lng": 135.4322572,
    "category": "station",
    "prefecture": "hyogo",
    "osm_id": 267461794,
    "spot_type": "data_spot",
    "data_source": "osm"
  },
  {
    "name": "ユニバーサルシティ",
    "name_en": "Universal City",
    "lat": 34.6679419,
    "lng": 135.4386758,
    "category": "station",
    "prefecture": "hyogo",
    "osm_id": 267461811,
    "spot_type": "data_spot",
    "data_source": "osm"
  },
  {
    "name": "三ヶ山口",
    "name_en": "Mikeyamaguchi",
    "lat": 34.4072449,
    "lng": 135.3849849,
    "category": "station",
    "prefecture": "hyogo",
    "osm_id": 270866822,
    "spot_type": "data_spot",
    "data_source": "osm"
  },
  {
    "name": "森",
    "name_en": "Mori",
    "lat": 34.4143337,
    "lng": 135.3818075,
    "category": "station",
    "prefecture": "hyogo",
    "osm_id": 270866824,
    "spot_type": "data_spot",
    "data_source": "osm"
  },
  {
    "name": "清児",
    "name_en": "Sechigo",
    "lat": 34.4248705,
    "lng": 135.372233,
    "category": "station",
    "prefecture": "hyogo",
    "osm_id": 270866828,
    "spot_type": "data_spot",
    "data_source": "osm"
  },
  {
    "name": "名越",
    "name_en": "Nagose",
    "lat": 34.4214658,
    "lng": 135.3750074,
    "category": "station",
    "prefecture": "hyogo",
    "osm_id": 270866830,
    "spot_type": "data_spot",
    "data_source": "osm"
  },
  {
    "name": "三ツ松",
    "name_en": "Mitsumatsu",
    "lat": 34.4108953,
    "lng": 135.3833246,
    "category": "station",
    "prefecture": "hyogo",
    "osm_id": 270866845,
    "spot_type": "data_spot",
    "data_source": "osm"
  },
  {
    "name": "石才",
    "name_en": "Ishizai",
    "lat": 34.4307979,
    "lng": 135.3680317,
    "category": "station",
    "prefecture": "hyogo",
    "osm_id": 270866851,
    "spot_type": "data_spot",
    "data_source": "osm"
  },
  {
    "name": "近義の里",
    "name_en": "Koginosato",
    "lat": 34.4370683,
    "lng": 135.3627071,
    "category": "station",
    "prefecture": "hyogo",
    "osm_id": 270866868,
    "spot_type": "data_spot",
    "data_source": "osm"
  },
  {
    "name": "鳥取ノ荘",
    "name_en": "Tottorinoshō",
    "lat": 34.3513187,
    "lng": 135.2317053,
    "category": "station",
    "prefecture": "hyogo",
    "osm_id": 280489193,
    "spot_type": "data_spot",
    "data_source": "osm"
  },
  {
    "name": "和歌山大学前",
    "name_en": "Wakayamadaigakumae",
    "lat": 34.2763573,
    "lng": 135.1470827,
    "category": "station",
    "prefecture": "hyogo",
    "osm_id": 280489365,
    "spot_type": "data_spot",
    "data_source": "osm"
  },
  {
    "name": "樽井",
    "name_en": "Tarui",
    "lat": 34.3742616,
    "lng": 135.2614949,
    "category": "station",
    "prefecture": "hyogo",
    "osm_id": 280489390,
    "spot_type": "data_spot",
    "data_source": "osm"
  },
  {
    "name": "第02番札所 極楽寺",
    "name_en": "02 Gokurakuji",
    "lat": 34.1561604,
    "lng": 134.4902123,
    "category": "temple",
    "prefecture": "hyogo",
    "osm_id": 314743789,
    "spot_type": "data_spot",
    "data_source": "osm"
  },
  {
    "name": "中山観音",
    "name_en": "Nakayama-kannon",
    "lat": 34.8196261,
    "lng": 135.3692889,
    "category": "station",
    "prefecture": "hyogo",
    "osm_id": 346121695,
    "spot_type": "data_spot",
    "data_source": "osm"
  },
  {
    "name": "売布神社",
    "name_en": "Mefu-jinja",
    "lat": 34.8157929,
    "lng": 135.3613299,
    "category": "station",
    "prefecture": "hyogo",
    "osm_id": 346121934,
    "spot_type": "data_spot",
    "data_source": "osm"
  },
  {
    "name": "山本",
    "name_en": "Yamamoto",
    "lat": 34.8220433,
    "lng": 135.3886222,
    "category": "station",
    "prefecture": "hyogo",
    "osm_id": 346121951,
    "spot_type": "data_spot",
    "data_source": "osm"
  },
  {
    "name": "清荒神",
    "name_en": "Kiyoshikōjin",
    "lat": 34.811261,
    "lng": 135.353308,
    "category": "station",
    "prefecture": "hyogo",
    "osm_id": 346122037,
    "spot_type": "data_spot",
    "data_source": "osm"
  },
  {
    "name": "雲雀丘花屋敷",
    "name_en": "Hibarigaoka-Hanayashiki",
    "lat": 34.8272086,
    "lng": 135.4027325,
    "category": "station",
    "prefecture": "hyogo",
    "osm_id": 346122422,
    "spot_type": "data_spot",
    "data_source": "osm"
  },
  {
    "name": "武庫之荘",
    "name_en": "Mukonoso",
    "lat": 34.7515492,
    "lng": 135.3933358,
    "category": "station",
    "prefecture": "hyogo",
    "osm_id": 346486696,
    "spot_type": "data_spot",
    "data_source": "osm"
  },
  {
    "name": "園田",
    "name_en": "Sonoda",
    "lat": 34.7519904,
    "lng": 135.4480934,
    "category": "station",
    "prefecture": "hyogo",
    "osm_id": 346486938,
    "spot_type": "data_spot",
    "data_source": "osm"
  },
  {
    "name": "塚口",
    "name_en": "Tsukaguchi",
    "lat": 34.7527774,
    "lng": 135.4159169,
    "category": "station",
    "prefecture": "hyogo",
    "osm_id": 346487068,
    "spot_type": "data_spot",
    "data_source": "osm"
  },
  {
    "name": "千船",
    "name_en": "Chibune",
    "lat": 34.7123585,
    "lng": 135.4451972,
    "category": "station",
    "prefecture": "hyogo",
    "osm_id": 346488947,
    "spot_type": "data_spot",
    "data_source": "osm"
  },
  {
    "name": "フェリーターミナル",
    "name_en": "Ferry Terminal",
    "lat": 34.6192484,
    "lng": 135.4349607,
    "category": "station",
    "prefecture": "hyogo",
    "osm_id": 346493326,
    "spot_type": "data_spot",
    "data_source": "osm"
  },
  {
    "name": "南港東",
    "name_en": "Nanko-higashi",
    "lat": 34.6138233,
    "lng": 135.4386318,
    "category": "station",
    "prefecture": "hyogo",
    "osm_id": 346493339,
    "spot_type": "data_spot",
    "data_source": "osm"
  },
  {
    "name": "南港口",
    "name_en": "Nanko-guchi",
    "lat": 34.6138165,
    "lng": 135.4459613,
    "category": "station",
    "prefecture": "hyogo",
    "osm_id": 346493752,
    "spot_type": "data_spot",
    "data_source": "osm"
  },
  {
    "name": "中ふ頭",
    "name_en": "Nakafuto",
    "lat": 34.6340492,
    "lng": 135.41744,
    "category": "station",
    "prefecture": "hyogo",
    "osm_id": 346493769,
    "spot_type": "data_spot",
    "data_source": "osm"
  },
  {
    "name": "平林",
    "name_en": "Hirabayashi",
    "lat": 34.6106653,
    "lng": 135.4586267,
    "category": "station",
    "prefecture": "hyogo",
    "osm_id": 346493834,
    "spot_type": "data_spot",
    "data_source": "osm"
  },
  {
    "name": "ポートタウン西",
    "name_en": "Port Town-nishi",
    "lat": 34.6309045,
    "lng": 135.4228145,
    "category": "station",
    "prefecture": "hyogo",
    "osm_id": 346494201,
    "spot_type": "data_spot",
    "data_source": "osm"
  },
  {
    "name": "和泉中央",
    "name_en": "Izumichuo",
    "lat": 34.4613227,
    "lng": 135.4562898,
    "category": "station",
    "prefecture": "hyogo",
    "osm_id": 346586260,
    "spot_type": "data_spot",
    "data_source": "osm"
  },
  {
    "name": "門戸厄神",
    "name_en": "Mondo-Yakujin",
    "lat": 34.7575817,
    "lng": 135.3582866,
    "category": "station",
    "prefecture": "hyogo",
    "osm_id": 346648359,
    "spot_type": "data_spot",
    "data_source": "osm"
  },
  {
    "name": "小林",
    "name_en": "Obayashi",
    "lat": 34.7891636,
    "lng": 135.3524275,
    "category": "station",
    "prefecture": "hyogo",
    "osm_id": 346648538,
    "spot_type": "data_spot",
    "data_source": "osm"
  },
  {
    "name": "宝塚南口",
    "name_en": "Takarazuka-Minamiguchi",
    "lat": 34.8041687,
    "lng": 135.3458387,
    "category": "station",
    "prefecture": "hyogo",
    "osm_id": 346648675,
    "spot_type": "data_spot",
    "data_source": "osm"
  },
  {
    "name": "仁川",
    "name_en": "Nigawa",
    "lat": 34.7747939,
    "lng": 135.3569799,
    "category": "station",
    "prefecture": "hyogo",
    "osm_id": 346649198,
    "spot_type": "data_spot",
    "data_source": "osm"
  },
  {
    "name": "出来島",
    "name_en": "Dekijima",
    "lat": 34.7070602,
    "lng": 135.4369699,
    "category": "station",
    "prefecture": "hyogo",
    "osm_id": 347198109,
    "spot_type": "data_spot",
    "data_source": "osm"
  },
  {
    "name": "福",
    "name_en": "Fuku",
    "lat": 34.6996206,
    "lng": 135.4429972,
    "category": "station",
    "prefecture": "hyogo",
    "osm_id": 347198124,
    "spot_type": "data_spot",
    "data_source": "osm"
  },
  {
    "name": "西九条",
    "name_en": "Nishikujo",
    "lat": 34.6822701,
    "lng": 135.4663099,
    "category": "station",
    "prefecture": "hyogo",
    "osm_id": 347198154,
    "spot_type": "data_spot",
    "data_source": "osm"
  },
  {
    "name": "千鳥橋",
    "name_en": "Chidoribashi",
    "lat": 34.6854359,
    "lng": 135.4580076,
    "category": "station",
    "prefecture": "hyogo",
    "osm_id": 347198160,
    "spot_type": "data_spot",
    "data_source": "osm"
  },
  {
    "name": "伝法",
    "name_en": "Dempō",
    "lat": 34.6890763,
    "lng": 135.4517764,
    "category": "station",
    "prefecture": "hyogo",
    "osm_id": 347198162,
    "spot_type": "data_spot",
    "data_source": "osm"
  },
  {
    "name": "西粟倉",
    "name_en": "Nishi-Awakura",
    "lat": 35.160799,
    "lng": 134.3359427,
    "category": "station",
    "prefecture": "hyogo",
    "osm_id": 355837610,
    "spot_type": "data_spot",
    "data_source": "osm"
  },
  {
    "name": "あわくら温泉",
    "name_en": "Awakura Onsen",
    "lat": 35.1886564,
    "lng": 134.3368749,
    "category": "station",
    "prefecture": "hyogo",
    "osm_id": 355837825,
    "spot_type": "data_spot",
    "data_source": "osm"
  },
  {
    "name": "宮本武蔵",
    "name_en": "",
    "lat": 35.1016551,
    "lng": 134.3303865,
    "category": "station",
    "prefecture": "hyogo",
    "osm_id": 355837872,
    "spot_type": "data_spot",
    "data_source": "osm"
  },
  {
    "name": "久崎",
    "name_en": "Kuzaki",
    "lat": 34.9609827,
    "lng": 134.3442701,
    "category": "station",
    "prefecture": "hyogo",
    "osm_id": 355838072,
    "spot_type": "data_spot",
    "data_source": "osm"
  },
  {
    "name": "石井",
    "name_en": "",
    "lat": 35.0815816,
    "lng": 134.3578751,
    "category": "station",
    "prefecture": "hyogo",
    "osm_id": 355838112,
    "spot_type": "data_spot",
    "data_source": "osm"
  },
  {
    "name": "河野原円心",
    "name_en": "Kōnohara-Enshin",
    "lat": 34.9188868,
    "lng": 134.3526652,
    "category": "station",
    "prefecture": "hyogo",
    "osm_id": 355838114,
    "spot_type": "data_spot",
    "data_source": "osm"
  },
  {
    "name": "苔縄",
    "name_en": "Kokenawa",
    "lat": 34.8963536,
    "lng": 134.3538098,
    "category": "station",
    "prefecture": "hyogo",
    "osm_id": 355838356,
    "spot_type": "data_spot",
    "data_source": "osm"
  },
  {
    "name": "平福",
    "name_en": "",
    "lat": 35.0437169,
    "lng": 134.3718449,
    "category": "station",
    "prefecture": "hyogo",
    "osm_id": 355838570,
    "spot_type": "data_spot",
    "data_source": "osm"
  },
  {
    "name": "北条町",
    "name_en": "Hōjōmachi",
    "lat": 34.9294625,
    "lng": 134.8323158,
    "category": "station",
    "prefecture": "hyogo",
    "osm_id": 359791943,
    "spot_type": "data_spot",
    "data_source": "osm"
  },
  {
    "name": "法華口",
    "name_en": "Hokkeguchi",
    "lat": 34.8755134,
    "lng": 134.8562206,
    "category": "station",
    "prefecture": "hyogo",
    "osm_id": 359792136,
    "spot_type": "data_spot",
    "data_source": "osm"
  },
  {
    "name": "網引",
    "name_en": "Abiki",
    "lat": 34.8621055,
    "lng": 134.8779303,
    "category": "station",
    "prefecture": "hyogo",
    "osm_id": 359792145,
    "spot_type": "data_spot",
    "data_source": "osm"
  },
  {
    "name": "播磨下里",
    "name_en": "Harima-Shimosato",
    "lat": 34.8864812,
    "lng": 134.8401474,
    "category": "station",
    "prefecture": "hyogo",
    "osm_id": 359792261,
    "spot_type": "data_spot",
    "data_source": "osm"
  },
  {
    "name": "田原",
    "name_en": "Tahara",
    "lat": 34.8655875,
    "lng": 134.8666742,
    "category": "station",
    "prefecture": "hyogo",
    "osm_id": 359792288,
    "spot_type": "data_spot",
    "data_source": "osm"
  },
  {
    "name": "長",
    "name_en": "Osa",
    "lat": 34.8965929,
    "lng": 134.8255815,
    "category": "station",
    "prefecture": "hyogo",
    "osm_id": 359792515,
    "spot_type": "data_spot",
    "data_source": "osm"
  },
  {
    "name": "新神戸",
    "name_en": "Shin-Kobe",
    "lat": 34.7047051,
    "lng": 135.1956697,
    "category": "station",
    "prefecture": "hyogo",
    "osm_id": 359798283,
    "spot_type": "data_spot",
    "data_source": "osm"
  },
  {
    "name": "豊岡",
    "name_en": "Toyooka",
    "lat": 35.5447858,
    "lng": 134.8133194,
    "category": "station",
    "prefecture": "hyogo",
    "osm_id": 359808109,
    "spot_type": "data_spot",
    "data_source": "osm"
  },
  {
    "name": "牧",
    "name_en": "Maki",
    "lat": 35.3379828,
    "lng": 135.1016772,
    "category": "station",
    "prefecture": "hyogo",
    "osm_id": 359860640,
    "spot_type": "data_spot",
    "data_source": "osm"
  },
  {
    "name": "荒河かしの木台",
    "name_en": "Araga-Kashinokidai",
    "lat": 35.3188753,
    "lng": 135.1056596,
    "category": "station",
    "prefecture": "hyogo",
    "osm_id": 359860734,
    "spot_type": "data_spot",
    "data_source": "osm"
  },
  {
    "name": "公庄",
    "name_en": "Gujō",
    "lat": 35.371886,
    "lng": 135.1292879,
    "category": "station",
    "prefecture": "hyogo",
    "osm_id": 359860743,
    "spot_type": "data_spot",
    "data_source": "osm"
  },
  {
    "name": "福知山市民病院口",
    "name_en": "Fukuchiyama-shimin-byōin-guchi",
    "lat": 35.3066878,
    "lng": 135.1085535,
    "category": "station",
    "prefecture": "hyogo",
    "osm_id": 359860793,
    "spot_type": "data_spot",
    "data_source": "osm"
  },
  {
    "name": "下天津",
    "name_en": "Shimo-Amazu",
    "lat": 35.3592214,
    "lng": 135.111547,
    "category": "station",
    "prefecture": "hyogo",
    "osm_id": 359860933,
    "spot_type": "data_spot",
    "data_source": "osm"
  },
  {
    "name": "大江",
    "name_en": "Ōe",
    "lat": 35.3887751,
    "lng": 135.147541,
    "category": "station",
    "prefecture": "hyogo",
    "osm_id": 359861080,
    "spot_type": "data_spot",
    "data_source": "osm"
  },
  {
    "name": "二俣",
    "name_en": "Futamata",
    "lat": 35.4131275,
    "lng": 135.1545354,
    "category": "station",
    "prefecture": "hyogo",
    "osm_id": 359861281,
    "spot_type": "data_spot",
    "data_source": "osm"
  },
  {
    "name": "大江高校前",
    "name_en": "Ōe-Kōkōmae",
    "lat": 35.3955574,
    "lng": 135.1526303,
    "category": "station",
    "prefecture": "hyogo",
    "osm_id": 359861816,
    "spot_type": "data_spot",
    "data_source": "osm"
  },
  {
    "name": "宮津",
    "name_en": "Miyazu",
    "lat": 35.5342195,
    "lng": 135.1997729,
    "category": "station",
    "prefecture": "hyogo",
    "osm_id": 359861823,
    "spot_type": "data_spot",
    "data_source": "osm"
  },
  {
    "name": "深日町",
    "name_en": "Fukechō",
    "lat": 34.3183405,
    "lng": 135.1484127,
    "category": "station",
    "prefecture": "hyogo",
    "osm_id": 360074315,
    "spot_type": "data_spot",
    "data_source": "osm"
  },
  {
    "name": "多奈川",
    "name_en": "Tanagawa",
    "lat": 34.3166828,
    "lng": 135.1371424,
    "category": "station",
    "prefecture": "hyogo",
    "osm_id": 360074329,
    "spot_type": "data_spot",
    "data_source": "osm"
  },
  {
    "name": "深日港",
    "name_en": "Fukekō",
    "lat": 34.3174054,
    "lng": 135.1415627,
    "category": "station",
    "prefecture": "hyogo",
    "osm_id": 360074336,
    "spot_type": "data_spot",
    "data_source": "osm"
  },
  {
    "name": "別格01 大山寺 (Taizan-ji)",
    "name_en": "Bekkaku01 Taizan-ji",
    "lat": 34.1592474,
    "lng": 134.3995553,
    "category": "temple",
    "prefecture": "hyogo",
    "osm_id": 373279221,
    "spot_type": "data_spot",
    "data_source": "osm"
  },
  {
    "name": "名称不明",
    "name_en": "",
    "lat": 34.2809095,
    "lng": 135.0004554,
    "category": "lighthouse",
    "prefecture": "hyogo",
    "osm_id": 401630316,
    "spot_type": "data_spot",
    "data_source": "osm"
  },
  {
    "name": "和歌山城",
    "name_en": "Wakayama Castle",
    "lat": 34.2276472,
    "lng": 135.1715062,
    "category": "castle",
    "prefecture": "hyogo",
    "osm_id": 402167963,
    "spot_type": "data_spot",
    "data_source": "osm"
  },
  {
    "name": "中公園",
    "name_en": "Naka Koen",
    "lat": 34.6733088,
    "lng": 135.2074848,
    "category": "station",
    "prefecture": "hyogo",
    "osm_id": 443057009,
    "spot_type": "data_spot",
    "data_source": "osm"
  },
  {
    "name": "旧堺燈台",
    "name_en": "",
    "lat": 34.5834853,
    "lng": 135.458956,
    "category": "lighthouse",
    "prefecture": "hyogo",
    "osm_id": 462138633,
    "spot_type": "data_spot",
    "data_source": "osm"
  },
  {
    "name": "岩屋神社 (Iwaya-jinja Shrine)",
    "name_en": "Iwaya-jinja Shrine",
    "lat": 34.6437152,
    "lng": 134.9881276,
    "category": "shrine",
    "prefecture": "hyogo",
    "osm_id": 498674953,
    "spot_type": "data_spot",
    "data_source": "osm"
  },
  {
    "name": "はりま勝原",
    "name_en": "Harima-Katsuhara",
    "lat": 34.8101481,
    "lng": 134.6140705,
    "category": "station",
    "prefecture": "hyogo",
    "osm_id": 505242242,
    "spot_type": "data_spot",
    "data_source": "osm"
  },
  {
    "name": "新伊丹",
    "name_en": "Shinitami",
    "lat": 34.7726357,
    "lng": 135.4155927,
    "category": "station",
    "prefecture": "hyogo",
    "osm_id": 516137301,
    "spot_type": "data_spot",
    "data_source": "osm"
  },
  {
    "name": "稲野",
    "name_en": "Inano",
    "lat": 34.7648674,
    "lng": 135.4156535,
    "category": "station",
    "prefecture": "hyogo",
    "osm_id": 516137427,
    "spot_type": "data_spot",
    "data_source": "osm"
  },
  {
    "name": "甲陽園",
    "name_en": "Koyoen",
    "lat": 34.7608785,
    "lng": 135.3301337,
    "category": "station",
    "prefecture": "hyogo",
    "osm_id": 516180759,
    "spot_type": "data_spot",
    "data_source": "osm"
  },
  {
    "name": "苦楽園口",
    "name_en": "Kurakuenguchi",
    "lat": 34.7502404,
    "lng": 135.3288957,
    "category": "station",
    "prefecture": "hyogo",
    "osm_id": 516180817,
    "spot_type": "data_spot",
    "data_source": "osm"
  },
  {
    "name": "谷上",
    "name_en": "Tanigami",
    "lat": 34.7618497,
    "lng": 135.1713884,
    "category": "station",
    "prefecture": "hyogo",
    "osm_id": 517815393,
    "spot_type": "data_spot",
    "data_source": "osm"
  },
  {
    "name": "花山",
    "name_en": "Hanayama",
    "lat": 34.7697058,
    "lng": 135.1872768,
    "category": "station",
    "prefecture": "hyogo",
    "osm_id": 517816421,
    "spot_type": "data_spot",
    "data_source": "osm"
  },
  {
    "name": "大池",
    "name_en": "Ooike",
    "lat": 34.7810659,
    "lng": 135.198828,
    "category": "station",
    "prefecture": "hyogo",
    "osm_id": 517817004,
    "spot_type": "data_spot",
    "data_source": "osm"
  },
  {
    "name": "神鉄六甲",
    "name_en": "Shintetsu-Rokko",
    "lat": 34.7854092,
    "lng": 135.2063002,
    "category": "station",
    "prefecture": "hyogo",
    "osm_id": 517817365,
    "spot_type": "data_spot",
    "data_source": "osm"
  },
  {
    "name": "唐櫃台",
    "name_en": "Karatodai",
    "lat": 34.7903203,
    "lng": 135.2114797,
    "category": "station",
    "prefecture": "hyogo",
    "osm_id": 517817650,
    "spot_type": "data_spot",
    "data_source": "osm"
  },
  {
    "name": "有馬温泉",
    "name_en": "Arima Onsen",
    "lat": 34.7992564,
    "lng": 135.2462748,
    "category": "station",
    "prefecture": "hyogo",
    "osm_id": 517820275,
    "spot_type": "data_spot",
    "data_source": "osm"
  },
  {
    "name": "南ウッディタウン",
    "name_en": "Minami Woody Town",
    "lat": 34.9016603,
    "lng": 135.1896709,
    "category": "station",
    "prefecture": "hyogo",
    "osm_id": 519550645,
    "spot_type": "data_spot",
    "data_source": "osm"
  },
  {
    "name": "ウッディタウン中央",
    "name_en": "Woody Town Chūō",
    "lat": 34.909716,
    "lng": 135.1836684,
    "category": "station",
    "prefecture": "hyogo",
    "osm_id": 519550655,
    "spot_type": "data_spot",
    "data_source": "osm"
  },
  {
    "name": "妙法寺",
    "name_en": "Myohoji",
    "lat": 34.675049,
    "lng": 135.1101441,
    "category": "station",
    "prefecture": "hyogo",
    "osm_id": 519693912,
    "spot_type": "data_spot",
    "data_source": "osm"
  },
  {
    "name": "得月寺",
    "name_en": "Tokugetsuji Temple",
    "lat": 35.4724333,
    "lng": 135.3906635,
    "category": "temple",
    "prefecture": "hyogo",
    "osm_id": 525162545,
    "spot_type": "data_spot",
    "data_source": "osm"
  },
  {
    "name": "大森神社",
    "name_en": "Omori-jinja Shrine",
    "lat": 35.4634376,
    "lng": 135.3939602,
    "category": "shrine",
    "prefecture": "hyogo",
    "osm_id": 525166186,
    "spot_type": "data_spot",
    "data_source": "osm"
  },
  {
    "name": "長安寺",
    "name_en": "",
    "lat": 35.3134477,
    "lng": 135.085136,
    "category": "temple",
    "prefecture": "hyogo",
    "osm_id": 563726929,
    "spot_type": "data_spot",
    "data_source": "osm"
  },
  {
    "name": "名称不明",
    "name_en": "",
    "lat": 35.2881511,
    "lng": 135.062027,
    "category": "shrine",
    "prefecture": "hyogo",
    "osm_id": 582295994,
    "spot_type": "data_spot",
    "data_source": "osm"
  },
  {
    "name": "大原神社(Oohara-jinja)",
    "name_en": "",
    "lat": 35.2457504,
    "lng": 135.2942501,
    "category": "shrine",
    "prefecture": "hyogo",
    "osm_id": 604230826,
    "spot_type": "data_spot",
    "data_source": "osm"
  },
  {
    "name": "辰鼓楼",
    "name_en": "",
    "lat": 35.4622326,
    "lng": 134.8743304,
    "category": "castle",
    "prefecture": "hyogo",
    "osm_id": 666069635,
    "spot_type": "data_spot",
    "data_source": "osm"
  },
  {
    "name": "藤森神社",
    "name_en": "",
    "lat": 35.4460218,
    "lng": 135.3984295,
    "category": "shrine",
    "prefecture": "hyogo",
    "osm_id": 667285274,
    "spot_type": "data_spot",
    "data_source": "osm"
  },
  {
    "name": "龍勝寺 (Ryusho-ji temple)",
    "name_en": "Ryusho-ji temple",
    "lat": 35.4575152,
    "lng": 135.4012614,
    "category": "temple",
    "prefecture": "hyogo",
    "osm_id": 667296035,
    "spot_type": "data_spot",
    "data_source": "osm"
  },
  {
    "name": "神社",
    "name_en": "",
    "lat": 35.2674803,
    "lng": 135.2467429,
    "category": "shrine",
    "prefecture": "hyogo",
    "osm_id": 674067738,
    "spot_type": "data_spot",
    "data_source": "osm"
  },
  {
    "name": "名称不明",
    "name_en": "",
    "lat": 35.1417604,
    "lng": 135.0717144,
    "category": "temple",
    "prefecture": "hyogo",
    "osm_id": 674687468,
    "spot_type": "data_spot",
    "data_source": "osm"
  },
  {
    "name": "名称不明",
    "name_en": "",
    "lat": 35.4433534,
    "lng": 135.3248087,
    "category": "temple",
    "prefecture": "hyogo",
    "osm_id": 683909945,
    "spot_type": "data_spot",
    "data_source": "osm"
  },
  {
    "name": "神社",
    "name_en": "",
    "lat": 35.2854782,
    "lng": 135.0662441,
    "category": "shrine",
    "prefecture": "hyogo",
    "osm_id": 703116869,
    "spot_type": "data_spot",
    "data_source": "osm"
  },
  {
    "name": "高杉神社",
    "name_en": "",
    "lat": 35.2940578,
    "lng": 135.0553267,
    "category": "shrine",
    "prefecture": "hyogo",
    "osm_id": 703121159,
    "spot_type": "data_spot",
    "data_source": "osm"
  },
  {
    "name": "福寿弁財天",
    "name_en": "",
    "lat": 35.3125064,
    "lng": 134.8750188,
    "category": "temple",
    "prefecture": "hyogo",
    "osm_id": 707062221,
    "spot_type": "data_spot",
    "data_source": "osm"
  },
  {
    "name": "名称不明",
    "name_en": "",
    "lat": 35.4777354,
    "lng": 135.3985591,
    "category": "shrine",
    "prefecture": "hyogo",
    "osm_id": 710159946,
    "spot_type": "data_spot",
    "data_source": "osm"
  },
  {
    "name": "熊野神社",
    "name_en": "",
    "lat": 35.2720968,
    "lng": 135.0429716,
    "category": "shrine",
    "prefecture": "hyogo",
    "osm_id": 720622535,
    "spot_type": "data_spot",
    "data_source": "osm"
  },
  {
    "name": "名称不明",
    "name_en": "",
    "lat": 34.3225433,
    "lng": 135.3767124,
    "category": "onsen",
    "prefecture": "hyogo",
    "osm_id": 728270555,
    "spot_type": "data_spot",
    "data_source": "osm"
  },
  {
    "name": "伊伎佐神社",
    "name_en": "",
    "lat": 35.6516064,
    "lng": 134.5569063,
    "category": "shrine",
    "prefecture": "hyogo",
    "osm_id": 737738858,
    "spot_type": "data_spot",
    "data_source": "osm"
  },
  {
    "name": "フラワータウン",
    "name_en": "Flower Town",
    "lat": 34.8855795,
    "lng": 135.2022631,
    "category": "station",
    "prefecture": "hyogo",
    "osm_id": 823215106,
    "spot_type": "data_spot",
    "data_source": "osm"
  },
  {
    "name": "新開地",
    "name_en": "Shinkaichi",
    "lat": 34.6763214,
    "lng": 135.1699022,
    "category": "station",
    "prefecture": "hyogo",
    "osm_id": 823218395,
    "spot_type": "data_spot",
    "data_source": "osm"
  },
  {
    "name": "恵比須",
    "name_en": "Ebisu",
    "lat": 34.7977491,
    "lng": 134.9986769,
    "category": "station",
    "prefecture": "hyogo",
    "osm_id": 823224152,
    "spot_type": "data_spot",
    "data_source": "osm"
  },
  {
    "name": "押部谷",
    "name_en": "Oshibedani",
    "lat": 34.7566824,
    "lng": 135.0392453,
    "category": "station",
    "prefecture": "hyogo",
    "osm_id": 823224727,
    "spot_type": "data_spot",
    "data_source": "osm"
  },
  {
    "name": "鈴蘭台西口",
    "name_en": "Suzurandai Nishi-guchi",
    "lat": 34.7263275,
    "lng": 135.140439,
    "category": "station",
    "prefecture": "hyogo",
    "osm_id": 823226628,
    "spot_type": "data_spot",
    "data_source": "osm"
  },
  {
    "name": "三木",
    "name_en": "Miki",
    "lat": 34.7997742,
    "lng": 134.9817843,
    "category": "station",
    "prefecture": "hyogo",
    "osm_id": 823226771,
    "spot_type": "data_spot",
    "data_source": "osm"
  },
  {
    "name": "志染",
    "name_en": "Shijimi",
    "lat": 34.782411,
    "lng": 135.0077769,
    "category": "station",
    "prefecture": "hyogo",
    "osm_id": 823227994,
    "spot_type": "data_spot",
    "data_source": "osm"
  },
  {
    "name": "栄",
    "name_en": "Sakae",
    "lat": 34.7552424,
    "lng": 135.0566637,
    "category": "station",
    "prefecture": "hyogo",
    "osm_id": 823230461,
    "spot_type": "data_spot",
    "data_source": "osm"
  },
  {
    "name": "広野ゴルフ場前",
    "name_en": "Hirono Golf-jō-mae",
    "lat": 34.7704745,
    "lng": 135.0231495,
    "category": "station",
    "prefecture": "hyogo",
    "osm_id": 823230555,
    "spot_type": "data_spot",
    "data_source": "osm"
  },
  {
    "name": "市場",
    "name_en": "Ichiba",
    "lat": 34.8243348,
    "lng": 134.9444881,
    "category": "station",
    "prefecture": "hyogo",
    "osm_id": 823231317,
    "spot_type": "data_spot",
    "data_source": "osm"
  },
  {
    "name": "緑が丘",
    "name_en": "Midorigaoka",
    "lat": 34.7649923,
    "lng": 135.025844,
    "category": "station",
    "prefecture": "hyogo",
    "osm_id": 823233064,
    "spot_type": "data_spot",
    "data_source": "osm"
  },
  {
    "name": "木幡",
    "name_en": "Kobata",
    "lat": 34.748642,
    "lng": 135.0708798,
    "category": "station",
    "prefecture": "hyogo",
    "osm_id": 823233342,
    "spot_type": "data_spot",
    "data_source": "osm"
  },
  {
    "name": "葉多",
    "name_en": "Hata",
    "lat": 34.8500852,
    "lng": 134.9202113,
    "category": "station",
    "prefecture": "hyogo",
    "osm_id": 823235192,
    "spot_type": "data_spot",
    "data_source": "osm"
  },
  {
    "name": "西鈴蘭台",
    "name_en": "Nishi Suzurandai",
    "lat": 34.7257569,
    "lng": 135.1354302,
    "category": "station",
    "prefecture": "hyogo",
    "osm_id": 823235438,
    "spot_type": "data_spot",
    "data_source": "osm"
  },
  {
    "name": "木津",
    "name_en": "Kizu",
    "lat": 34.7441814,
    "lng": 135.0883511,
    "category": "station",
    "prefecture": "hyogo",
    "osm_id": 823235637,
    "spot_type": "data_spot",
    "data_source": "osm"
  },
  {
    "name": "三木上の丸",
    "name_en": "Miki Uenomaru",
    "lat": 34.80013,
    "lng": 134.9886604,
    "category": "station",
    "prefecture": "hyogo",
    "osm_id": 823236497,
    "spot_type": "data_spot",
    "data_source": "osm"
  },
  {
    "name": "大村",
    "name_en": "Ōmura",
    "lat": 34.8086641,
    "lng": 134.9714322,
    "category": "station",
    "prefecture": "hyogo",
    "osm_id": 823241937,
    "spot_type": "data_spot",
    "data_source": "osm"
  },
  {
    "name": "樫山",
    "name_en": "Kashiyama",
    "lat": 34.8205652,
    "lng": 134.9496928,
    "category": "station",
    "prefecture": "hyogo",
    "osm_id": 823243814,
    "spot_type": "data_spot",
    "data_source": "osm"
  },
  {
    "name": "小野",
    "name_en": "Ono",
    "lat": 34.8430827,
    "lng": 134.9343913,
    "category": "station",
    "prefecture": "hyogo",
    "osm_id": 823246187,
    "spot_type": "data_spot",
    "data_source": "osm"
  },
  {
    "name": "園通寺",
    "name_en": "Entsuji Temple",
    "lat": 34.7157147,
    "lng": 135.2472401,
    "category": "temple",
    "prefecture": "hyogo",
    "osm_id": 836036795,
    "spot_type": "data_spot",
    "data_source": "osm"
  },
  {
    "name": "徳井神社",
    "name_en": "Tokui-jinja Shrine",
    "lat": 34.7176259,
    "lng": 135.2437172,
    "category": "shrine",
    "prefecture": "hyogo",
    "osm_id": 836036796,
    "spot_type": "data_spot",
    "data_source": "osm"
  },
  {
    "name": "光円寺",
    "name_en": "",
    "lat": 34.7143133,
    "lng": 135.235011,
    "category": "temple",
    "prefecture": "hyogo",
    "osm_id": 841783542,
    "spot_type": "data_spot",
    "data_source": "osm"
  },
  {
    "name": "福知山城",
    "name_en": "Fukuchiyama Castle",
    "lat": 35.2968244,
    "lng": 135.1295995,
    "category": "castle",
    "prefecture": "hyogo",
    "osm_id": 847895509,
    "spot_type": "data_spot",
    "data_source": "osm"
  },
  {
    "name": "神社",
    "name_en": "",
    "lat": 35.4478073,
    "lng": 135.4075839,
    "category": "shrine",
    "prefecture": "hyogo",
    "osm_id": 939015191,
    "spot_type": "data_spot",
    "data_source": "osm"
  },
  {
    "name": "杭瀬温泉",
    "name_en": "",
    "lat": 34.717565,
    "lng": 135.4345561,
    "category": "onsen",
    "prefecture": "hyogo",
    "osm_id": 941284848,
    "spot_type": "data_spot",
    "data_source": "osm"
  },
  {
    "name": "関西電力宮津エネルギー研究所・丹後魚っ知館",
    "name_en": "",
    "lat": 35.5564407,
    "lng": 135.2549984,
    "category": "zoo",
    "prefecture": "hyogo",
    "osm_id": 987493317,
    "spot_type": "data_spot",
    "data_source": "osm"
  },
  {
    "name": "讃岐相生",
    "name_en": "Sanuki-Aioi",
    "lat": 34.2119668,
    "lng": 134.4243793,
    "category": "station",
    "prefecture": "hyogo",
    "osm_id": 1011920450,
    "spot_type": "data_spot",
    "data_source": "osm"
  },
  {
    "name": "名称不明",
    "name_en": "",
    "lat": 34.2792642,
    "lng": 135.070657,
    "category": "lighthouse",
    "prefecture": "hyogo",
    "osm_id": 1166240321,
    "spot_type": "data_spot",
    "data_source": "osm"
  },
  {
    "name": "沼島灯台",
    "name_en": "NU SHIMA",
    "lat": 34.1682884,
    "lng": 134.8281638,
    "category": "lighthouse",
    "prefecture": "hyogo",
    "osm_id": 1223938561,
    "spot_type": "data_spot",
    "data_source": "osm"
  },
  {
    "name": "沼島港西防波堤灯台",
    "name_en": "",
    "lat": 34.1699331,
    "lng": 134.8165731,
    "category": "lighthouse",
    "prefecture": "hyogo",
    "osm_id": 1223938562,
    "spot_type": "data_spot",
    "data_source": "osm"
  },
  {
    "name": "沼島港泊防波堤灯台",
    "name_en": "",
    "lat": 34.1721986,
    "lng": 134.8195745,
    "category": "lighthouse",
    "prefecture": "hyogo",
    "osm_id": 1223938563,
    "spot_type": "data_spot",
    "data_source": "osm"
  },
  {
    "name": "名称不明",
    "name_en": "",
    "lat": 34.1974301,
    "lng": 134.797373,
    "category": "lighthouse",
    "prefecture": "hyogo",
    "osm_id": 1223938564,
    "spot_type": "data_spot",
    "data_source": "osm"
  },
  {
    "name": "阪南港阪南二区南防波堤灯台",
    "name_en": "",
    "lat": 34.4711964,
    "lng": 135.3456268,
    "category": "lighthouse",
    "prefecture": "hyogo",
    "osm_id": 1223938610,
    "spot_type": "data_spot",
    "data_source": "osm"
  },
  {
    "name": "堺浜寺北防波堤灯台",
    "name_en": "",
    "lat": 34.5579594,
    "lng": 135.4093673,
    "category": "lighthouse",
    "prefecture": "hyogo",
    "osm_id": 1223938622,
    "spot_type": "data_spot",
    "data_source": "osm"
  },
  {
    "name": "堺浜寺南防波堤灯台",
    "name_en": "",
    "lat": 34.554968,
    "lng": 135.4093563,
    "category": "lighthouse",
    "prefecture": "hyogo",
    "osm_id": 1223938624,
    "spot_type": "data_spot",
    "data_source": "osm"
  },
  {
    "name": "大阪港大和川南防波堤南灯台",
    "name_en": "",
    "lat": 34.5956103,
    "lng": 135.3964782,
    "category": "lighthouse",
    "prefecture": "hyogo",
    "osm_id": 1223938627,
    "spot_type": "data_spot",
    "data_source": "osm"
  },
  {
    "name": "大阪港大和川南防波堤北灯台",
    "name_en": "",
    "lat": 34.6050954,
    "lng": 135.388007,
    "category": "lighthouse",
    "prefecture": "hyogo",
    "osm_id": 1223938628,
    "spot_type": "data_spot",
    "data_source": "osm"
  },
  {
    "name": "大阪港大和川北防波堤灯台",
    "name_en": "",
    "lat": 34.6108127,
    "lng": 135.4012892,
    "category": "lighthouse",
    "prefecture": "hyogo",
    "osm_id": 1223938629,
    "spot_type": "data_spot",
    "data_source": "osm"
  },
  {
    "name": "大阪南港沖防波堤灯台",
    "name_en": "",
    "lat": 34.6108263,
    "lng": 135.4206257,
    "category": "lighthouse",
    "prefecture": "hyogo",
    "osm_id": 1223938630,
    "spot_type": "data_spot",
    "data_source": "osm"
  },
  {
    "name": "名称不明",
    "name_en": "",
    "lat": 34.6286843,
    "lng": 135.3965748,
    "category": "lighthouse",
    "prefecture": "hyogo",
    "osm_id": 1223938632,
    "spot_type": "data_spot",
    "data_source": "osm"
  },
  {
    "name": "名称不明",
    "name_en": "",
    "lat": 34.6283418,
    "lng": 135.3895583,
    "category": "lighthouse",
    "prefecture": "hyogo",
    "osm_id": 1223938633,
    "spot_type": "data_spot",
    "data_source": "osm"
  },
  {
    "name": "大関酒造今津灯台",
    "name_en": "Ōzeki Syuzou Imazu Lighthouse",
    "lat": 34.7196777,
    "lng": 135.3450822,
    "category": "lighthouse",
    "prefecture": "hyogo",
    "osm_id": 1223938642,
    "spot_type": "data_spot",
    "data_source": "osm"
  },
  {
    "name": "神戸メリケンパークオリエンタルホテル灯台",
    "name_en": "",
    "lat": 34.6797416,
    "lng": 135.1886615,
    "category": "lighthouse",
    "prefecture": "hyogo",
    "osm_id": 1223938643,
    "spot_type": "data_spot",
    "data_source": "osm"
  },
  {
    "name": "名称不明",
    "name_en": "",
    "lat": 34.6706475,
    "lng": 135.2453016,
    "category": "lighthouse",
    "prefecture": "hyogo",
    "osm_id": 1223938648,
    "spot_type": "data_spot",
    "data_source": "osm"
  },
  {
    "name": "名称不明",
    "name_en": "",
    "lat": 34.6688267,
    "lng": 135.2539152,
    "category": "lighthouse",
    "prefecture": "hyogo",
    "osm_id": 1223938650,
    "spot_type": "data_spot",
    "data_source": "osm"
  },
  {
    "name": "名称不明",
    "name_en": "",
    "lat": 34.6762224,
    "lng": 135.2958859,
    "category": "lighthouse",
    "prefecture": "hyogo",
    "osm_id": 1223938651,
    "spot_type": "data_spot",
    "data_source": "osm"
  },
  {
    "name": "名称不明",
    "name_en": "",
    "lat": 34.6777644,
    "lng": 135.3133736,
    "category": "lighthouse",
    "prefecture": "hyogo",
    "osm_id": 1223938652,
    "spot_type": "data_spot",
    "data_source": "osm"
  },
  {
    "name": "名称不明",
    "name_en": "",
    "lat": 34.6562652,
    "lng": 135.2042995,
    "category": "lighthouse",
    "prefecture": "hyogo",
    "osm_id": 1223938658,
    "spot_type": "data_spot",
    "data_source": "osm"
  },
  {
    "name": "名称不明",
    "name_en": "",
    "lat": 34.6515106,
    "lng": 135.2043789,
    "category": "lighthouse",
    "prefecture": "hyogo",
    "osm_id": 1223938659,
    "spot_type": "data_spot",
    "data_source": "osm"
  },
  {
    "name": "名称不明",
    "name_en": "",
    "lat": 34.6527176,
    "lng": 135.187541,
    "category": "lighthouse",
    "prefecture": "hyogo",
    "osm_id": 1223938663,
    "spot_type": "data_spot",
    "data_source": "osm"
  },
  {
    "name": "名称不明",
    "name_en": "",
    "lat": 34.6455916,
    "lng": 135.1507982,
    "category": "lighthouse",
    "prefecture": "hyogo",
    "osm_id": 1223938667,
    "spot_type": "data_spot",
    "data_source": "osm"
  },
  {
    "name": "大多府島灯台",
    "name_en": "",
    "lat": 34.6805968,
    "lng": 134.2951267,
    "category": "lighthouse",
    "prefecture": "hyogo",
    "osm_id": 1223938752,
    "spot_type": "data_spot",
    "data_source": "osm"
  },
  {
    "name": "男鹿島灯台",
    "name_en": "",
    "lat": 34.6578291,
    "lng": 134.5832303,
    "category": "lighthouse",
    "prefecture": "hyogo",
    "osm_id": 1223938763,
    "spot_type": "data_spot",
    "data_source": "osm"
  },
  {
    "name": "院下島灯台",
    "name_en": "",
    "lat": 34.6513055,
    "lng": 134.4354723,
    "category": "lighthouse",
    "prefecture": "hyogo",
    "osm_id": 1223938772,
    "spot_type": "data_spot",
    "data_source": "osm"
  },
  {
    "name": "名称不明",
    "name_en": "",
    "lat": 35.0481704,
    "lng": 135.1884618,
    "category": "shrine",
    "prefecture": "hyogo",
    "osm_id": 1234631329,
    "spot_type": "data_spot",
    "data_source": "osm"
  },
  {
    "name": "名称不明",
    "name_en": "",
    "lat": 35.0460587,
    "lng": 135.1775955,
    "category": "shrine",
    "prefecture": "hyogo",
    "osm_id": 1237072441,
    "spot_type": "data_spot",
    "data_source": "osm"
  },
  {
    "name": "名称不明",
    "name_en": "",
    "lat": 34.8282016,
    "lng": 134.6332807,
    "category": "rest_area",
    "prefecture": "hyogo",
    "osm_id": 1280325705,
    "spot_type": "data_spot",
    "data_source": "osm"
  },
  {
    "name": "山下恵比寿神社",
    "name_en": "",
    "lat": 34.8964649,
    "lng": 135.4073481,
    "category": "shrine",
    "prefecture": "hyogo",
    "osm_id": 1420635277,
    "spot_type": "data_spot",
    "data_source": "osm"
  },
  {
    "name": "慶積寺",
    "name_en": "",
    "lat": 34.904393,
    "lng": 135.3998961,
    "category": "temple",
    "prefecture": "hyogo",
    "osm_id": 1420635333,
    "spot_type": "data_spot",
    "data_source": "osm"
  },
  {
    "name": "甘露寺",
    "name_en": "",
    "lat": 34.8960031,
    "lng": 135.4071816,
    "category": "temple",
    "prefecture": "hyogo",
    "osm_id": 1420635347,
    "spot_type": "data_spot",
    "data_source": "osm"
  },
  {
    "name": "熊野神社",
    "name_en": "",
    "lat": 34.8583583,
    "lng": 135.3828109,
    "category": "shrine",
    "prefecture": "hyogo",
    "osm_id": 1421475429,
    "spot_type": "data_spot",
    "data_source": "osm"
  },
  {
    "name": "与謝野町立江山文庫",
    "name_en": "",
    "lat": 35.4811397,
    "lng": 135.1040128,
    "category": "museum",
    "prefecture": "hyogo",
    "osm_id": 1422959043,
    "spot_type": "data_spot",
    "data_source": "osm"
  },
  {
    "name": "京都大学フィールド科学教育研究センター舞鶴水産実験所水産生物標本館",
    "name_en": "",
    "lat": 35.4890359,
    "lng": 135.3678837,
    "category": "museum",
    "prefecture": "hyogo",
    "osm_id": 1422960567,
    "spot_type": "data_spot",
    "data_source": "osm"
  },
  {
    "name": "福知山市佐藤太清記念美術館",
    "name_en": "",
    "lat": 35.2974715,
    "lng": 135.1302325,
    "category": "museum",
    "prefecture": "hyogo",
    "osm_id": 1422969298,
    "spot_type": "data_spot",
    "data_source": "osm"
  },
  {
    "name": "和泉市久保惣記念美術館",
    "name_en": "",
    "lat": 34.445059,
    "lng": 135.453338,
    "category": "museum",
    "prefecture": "hyogo",
    "osm_id": 1422985998,
    "spot_type": "data_spot",
    "data_source": "osm"
  },
  {
    "name": "大阪市下水道科学館",
    "name_en": "Osaka City Sewerage Science Museum",
    "lat": 34.693465,
    "lng": 135.462465,
    "category": "museum",
    "prefecture": "hyogo",
    "osm_id": 1422989271,
    "spot_type": "data_spot",
    "data_source": "osm"
  },
  {
    "name": "奥内陶芸美術館",
    "name_en": "",
    "lat": 34.780465,
    "lng": 135.456914,
    "category": "museum",
    "prefecture": "hyogo",
    "osm_id": 1422991771,
    "spot_type": "data_spot",
    "data_source": "osm"
  },
  {
    "name": "岸和田市立郷土資料館",
    "name_en": "",
    "lat": 34.4590822,
    "lng": 135.3700499,
    "category": "museum",
    "prefecture": "hyogo",
    "osm_id": 1422993568,
    "spot_type": "data_spot",
    "data_source": "osm"
  },
  {
    "name": "池田市立五月山動物園",
    "name_en": "",
    "lat": 34.8305798,
    "lng": 135.4250317,
    "category": "zoo",
    "prefecture": "hyogo",
    "osm_id": 1423005158,
    "spot_type": "data_spot",
    "data_source": "osm"
  },
  {
    "name": "池田市立歴史民俗資料館",
    "name_en": "",
    "lat": 34.8233919,
    "lng": 135.4358688,
    "category": "museum",
    "prefecture": "hyogo",
    "osm_id": 1423005195,
    "spot_type": "data_spot",
    "data_source": "osm"
  },
  {
    "name": "泉大津市立織編館",
    "name_en": "",
    "lat": 34.5014224,
    "lng": 135.4084131,
    "category": "museum",
    "prefecture": "hyogo",
    "osm_id": 1423005655,
    "spot_type": "data_spot",
    "data_source": "osm"
  },
  {
    "name": "うすくち龍野醤油資料館",
    "name_en": "",
    "lat": 34.866677,
    "lng": 134.5458785,
    "category": "museum",
    "prefecture": "hyogo",
    "osm_id": 1423043282,
    "spot_type": "data_spot",
    "data_source": "osm"
  },
  {
    "name": "たたらの里学習館",
    "name_en": "",
    "lat": 35.213477,
    "lng": 134.418532,
    "category": "museum",
    "prefecture": "hyogo",
    "osm_id": 1423044374,
    "spot_type": "data_spot",
    "data_source": "osm"
  },
  {
    "name": "たつの市立龍野歴史文化資料館",
    "name_en": "",
    "lat": 34.868537,
    "lng": 134.546256,
    "category": "museum",
    "prefecture": "hyogo",
    "osm_id": 1423044451,
    "spot_type": "data_spot",
    "data_source": "osm"
  },
  {
    "name": "一乗寺宝物館",
    "name_en": "Ichijō-ji Treasure Hall",
    "lat": 34.8583544,
    "lng": 134.818883,
    "category": "museum",
    "prefecture": "hyogo",
    "osm_id": 1423047791,
    "spot_type": "data_spot",
    "data_source": "osm"
  },
  {
    "name": "上郡町郷土資料館",
    "name_en": "",
    "lat": 34.8760263,
    "lng": 134.3624719,
    "category": "museum",
    "prefecture": "hyogo",
    "osm_id": 1423049170,
    "spot_type": "data_spot",
    "data_source": "osm"
  },
  {
    "name": "丹波市立植野記念美術館",
    "name_en": "",
    "lat": 35.173267,
    "lng": 135.039207,
    "category": "museum",
    "prefecture": "hyogo",
    "osm_id": 1423050781,
    "spot_type": "data_spot",
    "data_source": "osm"
  },
  {
    "name": "丹波市立青垣歴史民俗資料館",
    "name_en": "",
    "lat": 35.248304,
    "lng": 135.002989,
    "category": "museum",
    "prefecture": "hyogo",
    "osm_id": 1423050789,
    "spot_type": "data_spot",
    "data_source": "osm"
  },
  {
    "name": "丹波立杭焼伝統産業会館",
    "name_en": "",
    "lat": 34.981041,
    "lng": 135.132081,
    "category": "museum",
    "prefecture": "hyogo",
    "osm_id": 1423050793,
    "spot_type": "data_spot",
    "data_source": "osm"
  },
  {
    "name": "伊丹市昆虫館",
    "name_en": "",
    "lat": 34.7913093,
    "lng": 135.3949205,
    "category": "museum",
    "prefecture": "hyogo",
    "osm_id": 1423052008,
    "spot_type": "data_spot",
    "data_source": "osm"
  },
  {
    "name": "但陽美術館",
    "name_en": "",
    "lat": 35.168697,
    "lng": 134.793332,
    "category": "museum",
    "prefecture": "hyogo",
    "osm_id": 1423052631,
    "spot_type": "data_spot",
    "data_source": "osm"
  },
  {
    "name": "佐用町立平福郷土館",
    "name_en": "",
    "lat": 35.0479755,
    "lng": 134.3702994,
    "category": "museum",
    "prefecture": "hyogo",
    "osm_id": 1423052909,
    "spot_type": "data_spot",
    "data_source": "osm"
  },
  {
    "name": "俵美術館",
    "name_en": "Tawara Museum",
    "lat": 34.734912,
    "lng": 135.30054,
    "category": "museum",
    "prefecture": "hyogo",
    "osm_id": 1423053101,
    "spot_type": "data_spot",
    "data_source": "osm"
  },
  {
    "name": "兵庫県昆虫館",
    "name_en": "",
    "lat": 35.097509,
    "lng": 134.427408,
    "category": "museum",
    "prefecture": "hyogo",
    "osm_id": 1423054102,
    "spot_type": "data_spot",
    "data_source": "osm"
  },
  {
    "name": "兵庫県立但馬牧場公園但馬牛博物館",
    "name_en": "",
    "lat": 35.514225,
    "lng": 134.489719,
    "category": "museum",
    "prefecture": "hyogo",
    "osm_id": 1423054174,
    "spot_type": "data_spot",
    "data_source": "osm"
  },
  {
    "name": "兵庫県立円山川公苑美術館",
    "name_en": "",
    "lat": 35.633816,
    "lng": 134.826061,
    "category": "museum",
    "prefecture": "hyogo",
    "osm_id": 1423054190,
    "spot_type": "data_spot",
    "data_source": "osm"
  },
  {
    "name": "兵庫県立歴史博物館",
    "name_en": "Hyogo Perfectural Museum of History",
    "lat": 34.841115,
    "lng": 134.696872,
    "category": "museum",
    "prefecture": "hyogo",
    "osm_id": 1423054276,
    "spot_type": "data_spot",
    "data_source": "osm"
  },
  {
    "name": "兵庫県立大学西はりま天文台",
    "name_en": "",
    "lat": 35.0253917,
    "lng": 134.3355186,
    "category": "museum",
    "prefecture": "hyogo",
    "osm_id": 1423054295,
    "spot_type": "data_spot",
    "data_source": "osm"
  },
  {
    "name": "兵庫県陶芸美術館",
    "name_en": "",
    "lat": 34.983539,
    "lng": 135.130872,
    "category": "museum",
    "prefecture": "hyogo",
    "osm_id": 1423054339,
    "spot_type": "data_spot",
    "data_source": "osm"
  },
  {
    "name": "切手文化博物館",
    "name_en": "",
    "lat": 34.7987857,
    "lng": 135.2511122,
    "category": "museum",
    "prefecture": "hyogo",
    "osm_id": 1423054556,
    "spot_type": "data_spot",
    "data_source": "osm"
  },
  {
    "name": "総合文化センター",
    "name_en": "",
    "lat": 34.7495105,
    "lng": 134.8726355,
    "category": "museum",
    "prefecture": "hyogo",
    "osm_id": 1423054984,
    "spot_type": "data_spot",
    "data_source": "osm"
  },
  {
    "name": "北淡震災記念公園・野島断層保存館",
    "name_en": "",
    "lat": 34.55029,
    "lng": 134.938399,
    "category": "museum",
    "prefecture": "hyogo",
    "osm_id": 1423055443,
    "spot_type": "data_spot",
    "data_source": "osm"
  },
  {
    "name": "南あわじ市滝川記念美術館・玉青館",
    "name_en": "",
    "lat": 34.316265,
    "lng": 134.734117,
    "category": "museum",
    "prefecture": "hyogo",
    "osm_id": 1423055531,
    "spot_type": "data_spot",
    "data_source": "osm"
  },
  {
    "name": "史跡・生野銀山と生野鉱物館",
    "name_en": "",
    "lat": 35.17123,
    "lng": 134.81878,
    "category": "museum",
    "prefecture": "hyogo",
    "osm_id": 1423055735,
    "spot_type": "data_spot",
    "data_source": "osm"
  },
  {
    "name": "和歌山市立こども科学館",
    "name_en": "",
    "lat": 34.2328778,
    "lng": 135.1690774,
    "category": "museum",
    "prefecture": "hyogo",
    "osm_id": 1423056294,
    "spot_type": "data_spot",
    "data_source": "osm"
  },
  {
    "name": "和歌山市立博物館",
    "name_en": "Wakayama City Museum",
    "lat": 34.2332361,
    "lng": 135.1631589,
    "category": "museum",
    "prefecture": "hyogo",
    "osm_id": 1423056295,
    "spot_type": "data_spot",
    "data_source": "osm"
  },
  {
    "name": "和歌山県立紀伊風土記の丘",
    "name_en": "Wakayama Prefecture Kii-fudoki-no-oka Museum of Archaeology and Folklore",
    "lat": 34.227911,
    "lng": 135.2295617,
    "category": "museum",
    "prefecture": "hyogo",
    "osm_id": 1423056737,
    "spot_type": "data_spot",
    "data_source": "osm"
  },
  {
    "name": "圓山記念日本工藝美術館",
    "name_en": "",
    "lat": 34.838527,
    "lng": 134.662538,
    "category": "museum",
    "prefecture": "hyogo",
    "osm_id": 1423056925,
    "spot_type": "data_spot",
    "data_source": "osm"
  },
  {
    "name": "多可町立杉原紙研究所",
    "name_en": "",
    "lat": 35.188894,
    "lng": 134.930742,
    "category": "museum",
    "prefecture": "hyogo",
    "osm_id": 1423057437,
    "spot_type": "data_spot",
    "data_source": "osm"
  },
  {
    "name": "大乗寺円山派古画展覧場",
    "name_en": "",
    "lat": 35.6236168,
    "lng": 134.6256353,
    "category": "museum",
    "prefecture": "hyogo",
    "osm_id": 1423057501,
    "spot_type": "data_spot",
    "data_source": "osm"
  },
  {
    "name": "大嗚門橋記念館（うずしお科学館・淡路人形浄瑠璃館）",
    "name_en": "",
    "lat": 34.254836,
    "lng": 134.684639,
    "category": "museum",
    "prefecture": "hyogo",
    "osm_id": 1423057569,
    "spot_type": "data_spot",
    "data_source": "osm"
  },
  {
    "name": "義士宝物殿",
    "name_en": "Gishi Treasury",
    "lat": 34.7493976,
    "lng": 134.3883394,
    "category": "museum",
    "prefecture": "hyogo",
    "osm_id": 1423057732,
    "spot_type": "data_spot",
    "data_source": "osm"
  },
  {
    "name": "太子町立歴史資料館",
    "name_en": "",
    "lat": 34.831505,
    "lng": 134.576358,
    "category": "museum",
    "prefecture": "hyogo",
    "osm_id": 1423058176,
    "spot_type": "data_spot",
    "data_source": "osm"
  },
  {
    "name": "妙見山資料宝物館",
    "name_en": "",
    "lat": 35.411778,
    "lng": 134.699746,
    "category": "museum",
    "prefecture": "hyogo",
    "osm_id": 1423058565,
    "spot_type": "data_spot",
    "data_source": "osm"
  },
  {
    "name": "姫路市書写の里・美術工芸館",
    "name_en": "Hemeiji City Shosha Art and Craft Museum",
    "lat": 34.880712,
    "lng": 134.666608,
    "category": "museum",
    "prefecture": "hyogo",
    "osm_id": 1423058680,
    "spot_type": "data_spot",
    "data_source": "osm"
  },
  {
    "name": "姫路市立水族館",
    "name_en": "",
    "lat": 34.8226563,
    "lng": 134.6763377,
    "category": "zoo",
    "prefecture": "hyogo",
    "osm_id": 1423058768,
    "spot_type": "data_spot",
    "data_source": "osm"
  },
  {
    "name": "姫路市立美術館",
    "name_en": "Himeji City Museum of Art",
    "lat": 34.8393756,
    "lng": 134.6964763,
    "category": "museum",
    "prefecture": "hyogo",
    "osm_id": 1423058798,
    "spot_type": "data_spot",
    "data_source": "osm"
  },
  {
    "name": "姫路文学館",
    "name_en": "Himeji City Museum of Literature",
    "lat": 34.841566,
    "lng": 134.688401,
    "category": "museum",
    "prefecture": "hyogo",
    "osm_id": 1423058869,
    "spot_type": "data_spot",
    "data_source": "osm"
  },
  {
    "name": "姫路科学館",
    "name_en": "",
    "lat": 34.851724,
    "lng": 134.626934,
    "category": "museum",
    "prefecture": "hyogo",
    "osm_id": 1423058941,
    "spot_type": "data_spot",
    "data_source": "osm"
  },
  {
    "name": "宍粟市歴史資料館",
    "name_en": "",
    "lat": 35.1843797,
    "lng": 134.6284845,
    "category": "museum",
    "prefecture": "hyogo",
    "osm_id": 1423059251,
    "spot_type": "data_spot",
    "data_source": "osm"
  },
  {
    "name": "小野市立好古館",
    "name_en": "Ono City Museum",
    "lat": 34.842952,
    "lng": 134.932626,
    "category": "museum",
    "prefecture": "hyogo",
    "osm_id": 1423060911,
    "spot_type": "data_spot",
    "data_source": "osm"
  },
  {
    "name": "世界の貯金箱博物館",
    "name_en": "",
    "lat": 34.7162548,
    "lng": 135.4134125,
    "category": "museum",
    "prefecture": "hyogo",
    "osm_id": 1423061021,
    "spot_type": "data_spot",
    "data_source": "osm"
  },
  {
    "name": "尼崎市立田能資料館",
    "name_en": "",
    "lat": 34.770041,
    "lng": 135.439906,
    "category": "museum",
    "prefecture": "hyogo",
    "osm_id": 1423061454,
    "spot_type": "data_spot",
    "data_source": "osm"
  },
  {
    "name": "山崎歴史民俗資料館",
    "name_en": "",
    "lat": 35.003009,
    "lng": 134.539977,
    "category": "museum",
    "prefecture": "hyogo",
    "osm_id": 1423061614,
    "spot_type": "data_spot",
    "data_source": "osm"
  },
  {
    "name": "岩出市民俗資料館",
    "name_en": "",
    "lat": 34.2858141,
    "lng": 135.3177638,
    "category": "museum",
    "prefecture": "hyogo",
    "osm_id": 1423061736,
    "spot_type": "data_spot",
    "data_source": "osm"
  },
  {
    "name": "播磨町郷土資料館",
    "name_en": "",
    "lat": 34.726982,
    "lng": 134.876286,
    "category": "museum",
    "prefecture": "hyogo",
    "osm_id": 1423067847,
    "spot_type": "data_spot",
    "data_source": "osm"
  },
  {
    "name": "日本玩具博物館",
    "name_en": "Japan Toy Museum",
    "lat": 34.907581,
    "lng": 134.745255,
    "category": "museum",
    "prefecture": "hyogo",
    "osm_id": 1423068223,
    "spot_type": "data_spot",
    "data_source": "osm"
  },
  {
    "name": "明石市立天文科学館",
    "name_en": "Akashi Municipal Planetarium",
    "lat": 34.64939,
    "lng": 135.001511,
    "category": "museum",
    "prefecture": "hyogo",
    "osm_id": 1423068720,
    "spot_type": "data_spot",
    "data_source": "osm"
  },
  {
    "name": "有年考古館",
    "name_en": "",
    "lat": 34.835254,
    "lng": 134.382581,
    "category": "museum",
    "prefecture": "hyogo",
    "osm_id": 1423068883,
    "spot_type": "data_spot",
    "data_source": "osm"
  },
  {
    "name": "朝来市立郷土歴史館",
    "name_en": "",
    "lat": 35.363178,
    "lng": 134.843504,
    "category": "museum",
    "prefecture": "hyogo",
    "osm_id": 1423068955,
    "spot_type": "data_spot",
    "data_source": "osm"
  },
  {
    "name": "柏原歴史民俗資料館",
    "name_en": "",
    "lat": 35.128546,
    "lng": 135.08155,
    "category": "museum",
    "prefecture": "hyogo",
    "osm_id": 1423069765,
    "spot_type": "data_spot",
    "data_source": "osm"
  },
  {
    "name": "柳田國男・松岡家顕彰会記念館",
    "name_en": "",
    "lat": 34.957744,
    "lng": 134.7647,
    "category": "museum",
    "prefecture": "hyogo",
    "osm_id": 1423069860,
    "spot_type": "data_spot",
    "data_source": "osm"
  },
  {
    "name": "植村直己冒険館",
    "name_en": "",
    "lat": 35.461285,
    "lng": 134.73212,
    "category": "museum",
    "prefecture": "hyogo",
    "osm_id": 1423070129,
    "spot_type": "data_spot",
    "data_source": "osm"
  },
  {
    "name": "洲本市立淡路文化史料館",
    "name_en": "",
    "lat": 34.3403566,
    "lng": 134.9022227,
    "category": "museum",
    "prefecture": "hyogo",
    "osm_id": 1423071141,
    "spot_type": "data_spot",
    "data_source": "osm"
  },
  {
    "name": "海南市海南歴史民俗資料館",
    "name_en": "",
    "lat": 34.155271,
    "lng": 135.276243,
    "category": "museum",
    "prefecture": "hyogo",
    "osm_id": 1423071468,
    "spot_type": "data_spot",
    "data_source": "osm"
  },
  {
    "name": "淡路ファームパークイングランドの丘",
    "name_en": "",
    "lat": 34.306857,
    "lng": 134.801611,
    "category": "zoo",
    "prefecture": "hyogo",
    "osm_id": 1423071955,
    "spot_type": "data_spot",
    "data_source": "osm"
  },
  {
    "name": "淡路城",
    "name_en": "",
    "lat": 34.48598,
    "lng": 134.85494,
    "category": "museum",
    "prefecture": "hyogo",
    "osm_id": 1423071984,
    "spot_type": "data_spot",
    "data_source": "osm"
  },
  {
    "name": "淡路島モンキーセンター",
    "name_en": "",
    "lat": 34.244297,
    "lng": 134.883131,
    "category": "zoo",
    "prefecture": "hyogo",
    "osm_id": 1423072020,
    "spot_type": "data_spot",
    "data_source": "osm"
  },
  {
    "name": "淡路市北淡歴史民俗資料館",
    "name_en": "",
    "lat": 34.533421,
    "lng": 134.91461,
    "category": "museum",
    "prefecture": "hyogo",
    "osm_id": 1423072021,
    "spot_type": "data_spot",
    "data_source": "osm"
  },
  {
    "name": "湊川神社宝物殿",
    "name_en": "Treasure House",
    "lat": 34.6806894,
    "lng": 135.1758913,
    "category": "shrine",
    "prefecture": "hyogo",
    "osm_id": 1423072783,
    "spot_type": "data_spot",
    "data_source": "osm"
  },
  {
    "name": "百耕資料館",
    "name_en": "",
    "lat": 34.6617273,
    "lng": 135.1300047,
    "category": "museum",
    "prefecture": "hyogo",
    "osm_id": 1423077236,
    "spot_type": "data_spot",
    "data_source": "osm"
  },
  {
    "name": "相生市立歴史民俗資料館",
    "name_en": "",
    "lat": 34.8055573,
    "lng": 134.4650427,
    "category": "museum",
    "prefecture": "hyogo",
    "osm_id": 1423077281,
    "spot_type": "data_spot",
    "data_source": "osm"
  },
  {
    "name": "神戸らんぷミュージフム",
    "name_en": "Kobe Lamp Museum",
    "lat": 34.688221,
    "lng": 135.194129,
    "category": "museum",
    "prefecture": "hyogo",
    "osm_id": 1423079195,
    "spot_type": "data_spot",
    "data_source": "osm"
  },
  {
    "name": "神戸ファッション美術館",
    "name_en": "Kobe Fashion Museum",
    "lat": 34.6878923,
    "lng": 135.2703325,
    "category": "museum",
    "prefecture": "hyogo",
    "osm_id": 1423079203,
    "spot_type": "data_spot",
    "data_source": "osm"
  },
  {
    "name": "神戸海洋博物館",
    "name_en": "Kobe Maritime Museum",
    "lat": 34.6829503,
    "lng": 135.1884501,
    "category": "museum",
    "prefecture": "hyogo",
    "osm_id": 1423083509,
    "spot_type": "data_spot",
    "data_source": "osm"
  },
  {
    "name": "神戸深江生活文化史料館",
    "name_en": "",
    "lat": 34.7224543,
    "lng": 135.2926241,
    "category": "museum",
    "prefecture": "hyogo",
    "osm_id": 1423083530,
    "spot_type": "data_spot",
    "data_source": "osm"
  },
  {
    "name": "神戸華僑歴史博物館",
    "name_en": "Kobe Overseas Chinese History Museum",
    "lat": 34.685991,
    "lng": 135.187165,
    "category": "museum",
    "prefecture": "hyogo",
    "osm_id": 1423083974,
    "spot_type": "data_spot",
    "data_source": "osm"
  },
  {
    "name": "篠山チルドレンズミュージアム",
    "name_en": "",
    "lat": 35.106265,
    "lng": 135.319831,
    "category": "museum",
    "prefecture": "hyogo",
    "osm_id": 1423087222,
    "spot_type": "data_spot",
    "data_source": "osm"
  },
  {
    "name": "宝物館",
    "name_en": "",
    "lat": 34.752902,
    "lng": 134.3902415,
    "category": "museum",
    "prefecture": "hyogo",
    "osm_id": 1423090251,
    "spot_type": "data_spot",
    "data_source": "osm"
  },
  {
    "name": "若桜町歴史民俗資料館",
    "name_en": "",
    "lat": 35.345954,
    "lng": 134.403074,
    "category": "museum",
    "prefecture": "hyogo",
    "osm_id": 1423090382,
    "spot_type": "data_spot",
    "data_source": "osm"
  },
  {
    "name": "西宮市立郷土資料館",
    "name_en": "",
    "lat": 34.7308754,
    "lng": 135.3301468,
    "category": "museum",
    "prefecture": "hyogo",
    "osm_id": 1423090865,
    "spot_type": "data_spot",
    "data_source": "osm"
  },
  {
    "name": "西宮市立郷土資料館分館・名塩和紙学習館",
    "name_en": "",
    "lat": 34.830437,
    "lng": 135.298334,
    "category": "museum",
    "prefecture": "hyogo",
    "osm_id": 1423090866,
    "spot_type": "data_spot",
    "data_source": "osm"
  },
  {
    "name": "西宮市貝類館",
    "name_en": "Shell Museum",
    "lat": 34.7120316,
    "lng": 135.3279793,
    "category": "museum",
    "prefecture": "hyogo",
    "osm_id": 1423090893,
    "spot_type": "data_spot",
    "data_source": "osm"
  },
  {
    "name": "西脇市岡之山美術館",
    "name_en": "",
    "lat": 35.002029,
    "lng": 134.997932,
    "category": "museum",
    "prefecture": "hyogo",
    "osm_id": 1423091116,
    "spot_type": "data_spot",
    "data_source": "osm"
  },
  {
    "name": "西脇市郷土資料館",
    "name_en": "",
    "lat": 34.9904718,
    "lng": 134.9706784,
    "category": "museum",
    "prefecture": "hyogo",
    "osm_id": 1423091120,
    "spot_type": "data_spot",
    "data_source": "osm"
  },
  {
    "name": "豊岡市立城崎文芸館",
    "name_en": "",
    "lat": 35.6251871,
    "lng": 134.8107087,
    "category": "museum",
    "prefecture": "hyogo",
    "osm_id": 1423091595,
    "spot_type": "data_spot",
    "data_source": "osm"
  },
  {
    "name": "赤穂市立歴史博物館",
    "name_en": "Akō City Museum of History",
    "lat": 34.747287,
    "lng": 134.390462,
    "category": "museum",
    "prefecture": "hyogo",
    "osm_id": 1423091818,
    "spot_type": "data_spot",
    "data_source": "osm"
  },
  {
    "name": "赤穂市立民俗資料館",
    "name_en": "",
    "lat": 34.7498194,
    "lng": 134.3822829,
    "category": "museum",
    "prefecture": "hyogo",
    "osm_id": 1423091819,
    "spot_type": "data_spot",
    "data_source": "osm"
  },
  {
    "name": "赤穂市立海洋科学館",
    "name_en": "",
    "lat": 34.733958,
    "lng": 134.398217,
    "category": "museum",
    "prefecture": "hyogo",
    "osm_id": 1423091828,
    "spot_type": "data_spot",
    "data_source": "osm"
  },
  {
    "name": "赤穂市立美術工芸館田淵記念館",
    "name_en": "",
    "lat": 34.73075,
    "lng": 134.406878,
    "category": "museum",
    "prefecture": "hyogo",
    "osm_id": 1423091830,
    "spot_type": "data_spot",
    "data_source": "osm"
  },
  {
    "name": "鉄斎美術館",
    "name_en": "Tessai Museum",
    "lat": 34.8227501,
    "lng": 135.3532603,
    "category": "museum",
    "prefecture": "hyogo",
    "osm_id": 1423092608,
    "spot_type": "data_spot",
    "data_source": "osm"
  },
  {
    "name": "長福寺考古資料館",
    "name_en": "",
    "lat": 34.733806,
    "lng": 135.01167,
    "category": "museum",
    "prefecture": "hyogo",
    "osm_id": 1423092809,
    "spot_type": "data_spot",
    "data_source": "osm"
  },
  {
    "name": "霞城館",
    "name_en": "",
    "lat": 34.8676912,
    "lng": 134.5436627,
    "category": "museum",
    "prefecture": "hyogo",
    "osm_id": 1423093023,
    "spot_type": "data_spot",
    "data_source": "osm"
  },
  {
    "name": "青垣いきものふれあいの里",
    "name_en": "",
    "lat": 35.276103,
    "lng": 135.001166,
    "category": "zoo",
    "prefecture": "hyogo",
    "osm_id": 1423093027,
    "spot_type": "data_spot",
    "data_source": "osm"
  },
  {
    "name": "須磨寺宝物殿",
    "name_en": "Sumadera Temple Treasure House",
    "lat": 34.648893,
    "lng": 135.111636,
    "category": "museum",
    "prefecture": "hyogo",
    "osm_id": 1423093071,
    "spot_type": "data_spot",
    "data_source": "osm"
  },
  {
    "name": "養父市立大庄屋記念館（旧長島家住宅）",
    "name_en": "",
    "lat": 35.382011,
    "lng": 134.792603,
    "category": "museum",
    "prefecture": "hyogo",
    "osm_id": 1423093304,
    "spot_type": "data_spot",
    "data_source": "osm"
  },
  {
    "name": "香寺民俗資料館",
    "name_en": "",
    "lat": 34.908386,
    "lng": 134.741838,
    "category": "museum",
    "prefecture": "hyogo",
    "osm_id": 1423093467,
    "spot_type": "data_spot",
    "data_source": "osm"
  },
  {
    "name": "香美町海の文化館",
    "name_en": "",
    "lat": 35.648326,
    "lng": 134.638891,
    "category": "museum",
    "prefecture": "hyogo",
    "osm_id": 1423093523,
    "spot_type": "data_spot",
    "data_source": "osm"
  },
  {
    "name": "香美町立村岡民俗資料館「まほろば」",
    "name_en": "",
    "lat": 35.4720089,
    "lng": 134.5961977,
    "category": "museum",
    "prefecture": "hyogo",
    "osm_id": 1423093524,
    "spot_type": "data_spot",
    "data_source": "osm"
  },
  {
    "name": "高田屋顕彰館・歴史文化資料館",
    "name_en": "",
    "lat": 34.415573,
    "lng": 134.792661,
    "category": "museum",
    "prefecture": "hyogo",
    "osm_id": 1423093933,
    "spot_type": "data_spot",
    "data_source": "osm"
  },
  {
    "name": "鳥取県立氷ノ山自然ふれあい館響の森",
    "name_en": "",
    "lat": 35.357497,
    "lng": 134.491105,
    "category": "museum",
    "prefecture": "hyogo",
    "osm_id": 1423096411,
    "spot_type": "data_spot",
    "data_source": "osm"
  },
  {
    "name": "加子浦歴史文化館",
    "name_en": "Kakonoura Historical Museum",
    "lat": 34.727859,
    "lng": 134.2723273,
    "category": "museum",
    "prefecture": "hyogo",
    "osm_id": 1423609219,
    "spot_type": "data_spot",
    "data_source": "osm"
  },
  {
    "name": "大鳴門橋架橋記念館エディ",
    "name_en": "",
    "lat": 34.2349395,
    "lng": 134.6400972,
    "category": "museum",
    "prefecture": "hyogo",
    "osm_id": 1423654792,
    "spot_type": "data_spot",
    "data_source": "osm"
  },
  {
    "name": "徳島県立あすたむらんど子ども科学館",
    "name_en": "",
    "lat": 34.1534022,
    "lng": 134.4411706,
    "category": "museum",
    "prefecture": "hyogo",
    "osm_id": 1423658168,
    "spot_type": "data_spot",
    "data_source": "osm"
  },
  {
    "name": "徳島県立鳥居記念博物館",
    "name_en": "",
    "lat": 34.178303,
    "lng": 134.616903,
    "category": "museum",
    "prefecture": "hyogo",
    "osm_id": 1423658192,
    "spot_type": "data_spot",
    "data_source": "osm"
  },
  {
    "name": "東かがわ市歴史民俗資料館",
    "name_en": "",
    "lat": 34.218642,
    "lng": 134.394365,
    "category": "museum",
    "prefecture": "hyogo",
    "osm_id": 1423738692,
    "spot_type": "data_spot",
    "data_source": "osm"
  },
  {
    "name": "與田寺宝物館",
    "name_en": "",
    "lat": 34.241513,
    "lng": 134.321807,
    "category": "museum",
    "prefecture": "hyogo",
    "osm_id": 1423743446,
    "spot_type": "data_spot",
    "data_source": "osm"
  },
  {
    "name": "みなとじま",
    "name_en": "Minatojima (Campus Mae)",
    "lat": 34.6689656,
    "lng": 135.2101149,
    "category": "station",
    "prefecture": "hyogo",
    "osm_id": 1424100626,
    "spot_type": "data_spot",
    "data_source": "osm"
  },
  {
    "name": "福田寺",
    "name_en": "",
    "lat": 34.8578554,
    "lng": 135.3985517,
    "category": "temple",
    "prefecture": "hyogo",
    "osm_id": 1428097921,
    "spot_type": "data_spot",
    "data_source": "osm"
  },
  {
    "name": "瀧門寺",
    "name_en": "",
    "lat": 34.8574988,
    "lng": 135.4111527,
    "category": "temple",
    "prefecture": "hyogo",
    "osm_id": 1428097929,
    "spot_type": "data_spot",
    "data_source": "osm"
  },
  {
    "name": "海軍記念館",
    "name_en": "",
    "lat": 35.475204,
    "lng": 135.3720502,
    "category": "museum",
    "prefecture": "hyogo",
    "osm_id": 1434345385,
    "spot_type": "data_spot",
    "data_source": "osm"
  },
  {
    "name": "式内 三宅神社",
    "name_en": "Miyake-jinja Shrine",
    "lat": 35.4725334,
    "lng": 135.3862069,
    "category": "shrine",
    "prefecture": "hyogo",
    "osm_id": 1436010340,
    "spot_type": "data_spot",
    "data_source": "osm"
  },
  {
    "name": "繁田神社",
    "name_en": "",
    "lat": 34.718967,
    "lng": 135.0005354,
    "category": "shrine",
    "prefecture": "hyogo",
    "osm_id": 1538902809,
    "spot_type": "data_spot",
    "data_source": "osm"
  },
  {
    "name": "播磨国総社 射楯兵主神社",
    "name_en": "",
    "lat": 34.8340079,
    "lng": 134.6969366,
    "category": "shrine",
    "prefecture": "hyogo",
    "osm_id": 1665514788,
    "spot_type": "data_spot",
    "data_source": "osm"
  },
  {
    "name": "髙尾大明神",
    "name_en": "Takao Daimyojin",
    "lat": 34.7275416,
    "lng": 135.2106702,
    "category": "shrine",
    "prefecture": "hyogo",
    "osm_id": 1704494461,
    "spot_type": "data_spot",
    "data_source": "osm"
  },
  {
    "name": "梅翁寺",
    "name_en": "",
    "lat": 34.6750307,
    "lng": 135.4672445,
    "category": "temple",
    "prefecture": "hyogo",
    "osm_id": 1734845946,
    "spot_type": "data_spot",
    "data_source": "osm"
  },
  {
    "name": "青野神社",
    "name_en": "",
    "lat": 35.1553347,
    "lng": 134.3621321,
    "category": "shrine",
    "prefecture": "hyogo",
    "osm_id": 1777909512,
    "spot_type": "data_spot",
    "data_source": "osm"
  },
  {
    "name": "但馬牛ミニ博物館",
    "name_en": "",
    "lat": 35.4682507,
    "lng": 134.5481061,
    "category": "museum",
    "prefecture": "hyogo",
    "osm_id": 1907415202,
    "spot_type": "data_spot",
    "data_source": "osm"
  },
  {
    "name": "城山城跡",
    "name_en": "",
    "lat": 35.4478063,
    "lng": 134.5302569,
    "category": "castle",
    "prefecture": "hyogo",
    "osm_id": 1907417799,
    "spot_type": "data_spot",
    "data_source": "osm"
  },
  {
    "name": "小代神社",
    "name_en": "Ojiro Shrine",
    "lat": 35.4181767,
    "lng": 134.5204481,
    "category": "shrine",
    "prefecture": "hyogo",
    "osm_id": 1907437219,
    "spot_type": "data_spot",
    "data_source": "osm"
  },
  {
    "name": "光明寺",
    "name_en": "Komyo-ji Temple",
    "lat": 35.4380152,
    "lng": 134.5382249,
    "category": "temple",
    "prefecture": "hyogo",
    "osm_id": 1907437926,
    "spot_type": "data_spot",
    "data_source": "osm"
  },
  {
    "name": "神戸映画資料館",
    "name_en": "Kobe Planet Film Archive",
    "lat": 34.6543635,
    "lng": 135.1463454,
    "category": "museum",
    "prefecture": "hyogo",
    "osm_id": 1911040322,
    "spot_type": "data_spot",
    "data_source": "osm"
  },
  {
    "name": "KOBE鉄人三国志ギャラリー",
    "name_en": "Kobe Iron Man Three Kingdoms Gallery",
    "lat": 34.6521395,
    "lng": 135.1477951,
    "category": "museum",
    "prefecture": "hyogo",
    "osm_id": 1911041550,
    "spot_type": "data_spot",
    "data_source": "osm"
  },
  {
    "name": "名称不明",
    "name_en": "",
    "lat": 34.819372,
    "lng": 134.5614683,
    "category": "shrine",
    "prefecture": "hyogo",
    "osm_id": 2043414602,
    "spot_type": "data_spot",
    "data_source": "osm"
  },
  {
    "name": "名称不明",
    "name_en": "",
    "lat": 34.8297991,
    "lng": 134.5970839,
    "category": "shrine",
    "prefecture": "hyogo",
    "osm_id": 2045881679,
    "spot_type": "data_spot",
    "data_source": "osm"
  },
  {
    "name": "犬鳴山 七宝瀧寺",
    "name_en": "",
    "lat": 34.3385234,
    "lng": 135.3875613,
    "category": "temple",
    "prefecture": "hyogo",
    "osm_id": 2046192677,
    "spot_type": "data_spot",
    "data_source": "osm"
  },
  {
    "name": "吉田郷土館",
    "name_en": "",
    "lat": 34.6687568,
    "lng": 134.9752054,
    "category": "museum",
    "prefecture": "hyogo",
    "osm_id": 2078446905,
    "spot_type": "data_spot",
    "data_source": "osm"
  },
  {
    "name": "黒岡神社",
    "name_en": "",
    "lat": 34.8365091,
    "lng": 134.6046829,
    "category": "shrine",
    "prefecture": "hyogo",
    "osm_id": 2122466490,
    "spot_type": "data_spot",
    "data_source": "osm"
  },
  {
    "name": "名称不明",
    "name_en": "",
    "lat": 34.8320726,
    "lng": 134.6013535,
    "category": "temple",
    "prefecture": "hyogo",
    "osm_id": 2137272473,
    "spot_type": "data_spot",
    "data_source": "osm"
  },
  {
    "name": "道分稲荷",
    "name_en": "",
    "lat": 34.9589157,
    "lng": 134.7505329,
    "category": "shrine",
    "prefecture": "hyogo",
    "osm_id": 2246853628,
    "spot_type": "data_spot",
    "data_source": "osm"
  },
  {
    "name": "名称不明",
    "name_en": "",
    "lat": 34.9568052,
    "lng": 134.7468743,
    "category": "shrine",
    "prefecture": "hyogo",
    "osm_id": 2248637601,
    "spot_type": "data_spot",
    "data_source": "osm"
  },
  {
    "name": "田賀神社",
    "name_en": "",
    "lat": 34.9844259,
    "lng": 134.7239027,
    "category": "shrine",
    "prefecture": "hyogo",
    "osm_id": 2258124855,
    "spot_type": "data_spot",
    "data_source": "osm"
  },
  {
    "name": "應聖寺",
    "name_en": "ōshō-ji",
    "lat": 34.9805136,
    "lng": 134.7218257,
    "category": "temple",
    "prefecture": "hyogo",
    "osm_id": 2258124979,
    "spot_type": "data_spot",
    "data_source": "osm"
  },
  {
    "name": "名称不明",
    "name_en": "",
    "lat": 34.9796301,
    "lng": 134.7234618,
    "category": "shrine",
    "prefecture": "hyogo",
    "osm_id": 2258124985,
    "spot_type": "data_spot",
    "data_source": "osm"
  },
  {
    "name": "大歳神社",
    "name_en": "",
    "lat": 34.9632205,
    "lng": 134.7392118,
    "category": "shrine",
    "prefecture": "hyogo",
    "osm_id": 2258125033,
    "spot_type": "data_spot",
    "data_source": "osm"
  },
  {
    "name": "二宮神社",
    "name_en": "Ninomiya Shrine",
    "lat": 34.9702279,
    "lng": 134.7559917,
    "category": "shrine",
    "prefecture": "hyogo",
    "osm_id": 2258125371,
    "spot_type": "data_spot",
    "data_source": "osm"
  },
  {
    "name": "安楽寺",
    "name_en": "",
    "lat": 34.241198,
    "lng": 135.177783,
    "category": "temple",
    "prefecture": "hyogo",
    "osm_id": 2270111647,
    "spot_type": "data_spot",
    "data_source": "osm"
  },
  {
    "name": "和歌山",
    "name_en": "Wakayama",
    "lat": 34.2322107,
    "lng": 135.19158,
    "category": "station",
    "prefecture": "hyogo",
    "osm_id": 2277099389,
    "spot_type": "data_spot",
    "data_source": "osm"
  },
  {
    "name": "綾部市天文館パオ",
    "name_en": "",
    "lat": 35.3113306,
    "lng": 135.2640741,
    "category": "museum",
    "prefecture": "hyogo",
    "osm_id": 2310870660,
    "spot_type": "data_spot",
    "data_source": "osm"
  },
  {
    "name": "兵庫県立淡路夢舞台公苑温室 あわじグリーン館",
    "name_en": "",
    "lat": 34.5626401,
    "lng": 135.009635,
    "category": "museum",
    "prefecture": "hyogo",
    "osm_id": 2450471689,
    "spot_type": "data_spot",
    "data_source": "osm"
  },
  {
    "name": "明石城",
    "name_en": "Akashi Castle",
    "lat": 34.6525687,
    "lng": 134.9910964,
    "category": "castle",
    "prefecture": "hyogo",
    "osm_id": 2459072285,
    "spot_type": "data_spot",
    "data_source": "osm"
  },
  {
    "name": "伊和神社",
    "name_en": "",
    "lat": 35.0875846,
    "lng": 134.5864874,
    "category": "shrine",
    "prefecture": "hyogo",
    "osm_id": 2466475856,
    "spot_type": "data_spot",
    "data_source": "osm"
  },
  {
    "name": "園部城",
    "name_en": "園部城 Sonobe Castle Ruins",
    "lat": 35.107373,
    "lng": 135.4679511,
    "category": "castle",
    "prefecture": "hyogo",
    "osm_id": 2483594171,
    "spot_type": "data_spot",
    "data_source": "osm"
  },
  {
    "name": "姫路神社",
    "name_en": "",
    "lat": 34.8398687,
    "lng": 134.6958237,
    "category": "shrine",
    "prefecture": "hyogo",
    "osm_id": 2485184561,
    "spot_type": "data_spot",
    "data_source": "osm"
  },
  {
    "name": "根来寺",
    "name_en": "",
    "lat": 34.2872227,
    "lng": 135.3165793,
    "category": "temple",
    "prefecture": "hyogo",
    "osm_id": 2491210941,
    "spot_type": "data_spot",
    "data_source": "osm"
  },
  {
    "name": "池田城",
    "name_en": "Ikeda Castle",
    "lat": 34.8271009,
    "lng": 135.4282514,
    "category": "castle",
    "prefecture": "hyogo",
    "osm_id": 2492251901,
    "spot_type": "data_spot",
    "data_source": "osm"
  },
  {
    "name": "真宗大谷派 光専寺",
    "name_en": "",
    "lat": 34.836969,
    "lng": 134.681811,
    "category": "temple",
    "prefecture": "hyogo",
    "osm_id": 2494627775,
    "spot_type": "data_spot",
    "data_source": "osm"
  },
  {
    "name": "西源寺",
    "name_en": "",
    "lat": 34.8423372,
    "lng": 134.6647921,
    "category": "temple",
    "prefecture": "hyogo",
    "osm_id": 2494635443,
    "spot_type": "data_spot",
    "data_source": "osm"
  },
  {
    "name": "名称不明",
    "name_en": "",
    "lat": 34.8435977,
    "lng": 134.6625565,
    "category": "temple",
    "prefecture": "hyogo",
    "osm_id": 2494650867,
    "spot_type": "data_spot",
    "data_source": "osm"
  },
  {
    "name": "法水山末法寺",
    "name_en": "",
    "lat": 34.8460762,
    "lng": 134.6499563,
    "category": "temple",
    "prefecture": "hyogo",
    "osm_id": 2494652911,
    "spot_type": "data_spot",
    "data_source": "osm"
  },
  {
    "name": "人丸神社",
    "name_en": "",
    "lat": 34.847735,
    "lng": 134.639257,
    "category": "shrine",
    "prefecture": "hyogo",
    "osm_id": 2494659017,
    "spot_type": "data_spot",
    "data_source": "osm"
  },
  {
    "name": "白幣稲荷大明神",
    "name_en": "",
    "lat": 34.845843,
    "lng": 134.633111,
    "category": "shrine",
    "prefecture": "hyogo",
    "osm_id": 2494672723,
    "spot_type": "data_spot",
    "data_source": "osm"
  },
  {
    "name": "摩尼宝山誓福寺",
    "name_en": "",
    "lat": 34.8336601,
    "lng": 134.64455,
    "category": "temple",
    "prefecture": "hyogo",
    "osm_id": 2494680891,
    "spot_type": "data_spot",
    "data_source": "osm"
  },
  {
    "name": "伏龍山徳圓寺",
    "name_en": "",
    "lat": 34.8130301,
    "lng": 134.6274754,
    "category": "temple",
    "prefecture": "hyogo",
    "osm_id": 2494705381,
    "spot_type": "data_spot",
    "data_source": "osm"
  },
  {
    "name": "蒲田神社",
    "name_en": "",
    "lat": 34.8334732,
    "lng": 134.6473891,
    "category": "shrine",
    "prefecture": "hyogo",
    "osm_id": 2495763226,
    "spot_type": "data_spot",
    "data_source": "osm"
  },
  {
    "name": "高畑地蔵尊",
    "name_en": "",
    "lat": 34.8324124,
    "lng": 134.6416354,
    "category": "temple",
    "prefecture": "hyogo",
    "osm_id": 2495764740,
    "spot_type": "data_spot",
    "data_source": "osm"
  },
  {
    "name": "大歳神社",
    "name_en": "",
    "lat": 34.825196,
    "lng": 134.645472,
    "category": "shrine",
    "prefecture": "hyogo",
    "osm_id": 2495774295,
    "spot_type": "data_spot",
    "data_source": "osm"
  },
  {
    "name": "西蓮寺",
    "name_en": "",
    "lat": 34.8129298,
    "lng": 134.6393547,
    "category": "temple",
    "prefecture": "hyogo",
    "osm_id": 2495829699,
    "spot_type": "data_spot",
    "data_source": "osm"
  },
  {
    "name": "山崎山本徳寺(山崎山城趾)",
    "name_en": "",
    "lat": 34.81535,
    "lng": 134.638862,
    "category": "temple",
    "prefecture": "hyogo",
    "osm_id": 2495841580,
    "spot_type": "data_spot",
    "data_source": "osm"
  },
  {
    "name": "英賀薬師",
    "name_en": "",
    "lat": 34.8037421,
    "lng": 134.6459483,
    "category": "shrine",
    "prefecture": "hyogo",
    "osm_id": 2495898449,
    "spot_type": "data_spot",
    "data_source": "osm"
  },
  {
    "name": "英賀明神",
    "name_en": "",
    "lat": 34.8032406,
    "lng": 134.6402769,
    "category": "shrine",
    "prefecture": "hyogo",
    "osm_id": 2495909793,
    "spot_type": "data_spot",
    "data_source": "osm"
  },
  {
    "name": "洲本城",
    "name_en": "",
    "lat": 34.3377114,
    "lng": 134.9028804,
    "category": "castle",
    "prefecture": "hyogo",
    "osm_id": 2496090967,
    "spot_type": "data_spot",
    "data_source": "osm"
  },
  {
    "name": "人丸神社",
    "name_en": "",
    "lat": 34.847777,
    "lng": 134.638848,
    "category": "shrine",
    "prefecture": "hyogo",
    "osm_id": 2496253483,
    "spot_type": "data_spot",
    "data_source": "osm"
  },
  {
    "name": "元宮八幡宮",
    "name_en": "",
    "lat": 34.7929421,
    "lng": 134.6972467,
    "category": "shrine",
    "prefecture": "hyogo",
    "osm_id": 2498101826,
    "spot_type": "data_spot",
    "data_source": "osm"
  },
  {
    "name": "播磨黒田武士の館",
    "name_en": "",
    "lat": 34.784285,
    "lng": 134.6949762,
    "category": "museum",
    "prefecture": "hyogo",
    "osm_id": 2498104814,
    "spot_type": "data_spot",
    "data_source": "osm"
  },
  {
    "name": "合坂",
    "name_en": "Himeji-jo",
    "lat": 34.838669,
    "lng": 134.695431,
    "category": "castle",
    "prefecture": "hyogo",
    "osm_id": 2500238880,
    "spot_type": "data_spot",
    "data_source": "osm"
  },
  {
    "name": "千姫天満宮",
    "name_en": "",
    "lat": 34.841538,
    "lng": 134.6889915,
    "category": "shrine",
    "prefecture": "hyogo",
    "osm_id": 2500249136,
    "spot_type": "data_spot",
    "data_source": "osm"
  },
  {
    "name": "水尾神社",
    "name_en": "",
    "lat": 34.841237,
    "lng": 134.689408,
    "category": "shrine",
    "prefecture": "hyogo",
    "osm_id": 2500249179,
    "spot_type": "data_spot",
    "data_source": "osm"
  },
  {
    "name": "三森大神",
    "name_en": "",
    "lat": 34.821215,
    "lng": 134.722396,
    "category": "shrine",
    "prefecture": "hyogo",
    "osm_id": 2504570571,
    "spot_type": "data_spot",
    "data_source": "osm"
  },
  {
    "name": "印鉾神社",
    "name_en": "",
    "lat": 34.8211269,
    "lng": 134.7203383,
    "category": "shrine",
    "prefecture": "hyogo",
    "osm_id": 2504570638,
    "spot_type": "data_spot",
    "data_source": "osm"
  },
  {
    "name": "随願寺念仏堂",
    "name_en": "",
    "lat": 34.862376,
    "lng": 134.710947,
    "category": "temple",
    "prefecture": "hyogo",
    "osm_id": 2505452132,
    "spot_type": "data_spot",
    "data_source": "osm"
  },