[
  {
    "name": "新子安",
    "name_en": "Shin-Koyasu",
    "lat": 35.4868754,
    "lng": 139.6541635,
    "category": "station",
    "prefecture": "kanagawa",
    "osm_id": 172522965,
    "spot_type": "data_spot",
    "data_source": "osm"
  },
  {
    "name": "大崎",
    "name_en": "Osaki",
    "lat": 35.6193903,
    "lng": 139.7284866,
    "category": "station",
    "prefecture": "kanagawa",
    "osm_id": 241815384,
    "spot_type": "data_spot",
    "data_source": "osm"
  },
  {
    "name": "渋谷",
    "name_en": "Shibuya",
    "lat": 35.65808,
    "lng": 139.7017647,
    "category": "station",
    "prefecture": "kanagawa",
    "osm_id": 241896099,
    "spot_type": "data_spot",
    "data_source": "osm"
  },
  {
    "name": "中目黒",
    "name_en": "Naka-meguro",
    "lat": 35.6441395,
    "lng": 139.6988317,
    "category": "station",
    "prefecture": "kanagawa",
    "osm_id": 243887391,
    "spot_type": "data_spot",
    "data_source": "osm"
  },
  {
    "name": "梁川",
    "name_en": "Yanagawa",
    "lat": 35.606018,
    "lng": 139.0376821,
    "category": "station",
    "prefecture": "kanagawa",
    "osm_id": 243887757,
    "spot_type": "data_spot",
    "data_source": "osm"
  },
  {
    "name": "猿橋",
    "name_en": "Saruhashi",
    "lat": 35.6128739,
    "lng": 138.9680239,
    "category": "station",
    "prefecture": "kanagawa",
    "osm_id": 243887820,
    "spot_type": "data_spot",
    "data_source": "osm"
  },
  {
    "name": "東京都写真美術館",
    "name_en": "Tokyo Photographic Art Museum",
    "lat": 35.641543,
    "lng": 139.7133962,
    "category": "museum",
    "prefecture": "kanagawa",
    "osm_id": 250668627,
    "spot_type": "data_spot",
    "data_source": "osm"
  },
  {
    "name": "烏森神社",
    "name_en": "Karasumori Shrine",
    "lat": 35.6667952,
    "lng": 139.7568175,
    "category": "shrine",
    "prefecture": "kanagawa",
    "osm_id": 260408025,
    "spot_type": "data_spot",
    "data_source": "osm"
  },
  {
    "name": "恵比寿",
    "name_en": "Ebisu",
    "lat": 35.6469738,
    "lng": 139.7086461,
    "category": "station",
    "prefecture": "kanagawa",
    "osm_id": 262449251,
    "spot_type": "data_spot",
    "data_source": "osm"
  },
  {
    "name": "西鎌倉",
    "name_en": "Nishikamakura",
    "lat": 35.3193755,
    "lng": 139.5042983,
    "category": "station",
    "prefecture": "kanagawa",
    "osm_id": 263262699,
    "spot_type": "data_spot",
    "data_source": "osm"
  },
  {
    "name": "片瀬山",
    "name_en": "Kataseyama",
    "lat": 35.3172654,
    "lng": 139.4960143,
    "category": "station",
    "prefecture": "kanagawa",
    "osm_id": 263262703,
    "spot_type": "data_spot",
    "data_source": "osm"
  },
  {
    "name": "湘南深沢",
    "name_en": "Shonan-Fukasawa",
    "lat": 35.332872,
    "lng": 139.5188734,
    "category": "station",
    "prefecture": "kanagawa",
    "osm_id": 263262803,
    "spot_type": "data_spot",
    "data_source": "osm"
  },
  {
    "name": "湘南江の島",
    "name_en": "Shonan-Enoshima",
    "lat": 35.3117271,
    "lng": 139.4877046,
    "category": "station",
    "prefecture": "kanagawa",
    "osm_id": 263262808,
    "spot_type": "data_spot",
    "data_source": "osm"
  },
  {
    "name": "東逗子",
    "name_en": "Higashi-Zushi",
    "lat": 35.2988417,
    "lng": 139.6014075,
    "category": "station",
    "prefecture": "kanagawa",
    "osm_id": 263266685,
    "spot_type": "data_spot",
    "data_source": "osm"
  },
  {
    "name": "大船",
    "name_en": "Ōfuna",
    "lat": 35.3543087,
    "lng": 139.5314325,
    "category": "station",
    "prefecture": "kanagawa",
    "osm_id": 263267206,
    "spot_type": "data_spot",
    "data_source": "osm"
  },
  {
    "name": "子安",
    "name_en": "Koyasu",
    "lat": 35.4846434,
    "lng": 139.6451231,
    "category": "station",
    "prefecture": "kanagawa",
    "osm_id": 263271899,
    "spot_type": "data_spot",
    "data_source": "osm"
  },
  {
    "name": "神奈川新町",
    "name_en": "Kanagawa-shimmachi",
    "lat": 35.4814272,
    "lng": 139.6399999,
    "category": "station",
    "prefecture": "kanagawa",
    "osm_id": 263274493,
    "spot_type": "data_spot",
    "data_source": "osm"
  },
  {
    "name": "横浜",
    "name_en": "Yokohama",
    "lat": 35.4662066,
    "lng": 139.6231953,
    "category": "station",
    "prefecture": "kanagawa",
    "osm_id": 263274999,
    "spot_type": "data_spot",
    "data_source": "osm"
  },
  {
    "name": "神奈川",
    "name_en": "Kanagawa",
    "lat": 35.4715259,
    "lng": 139.6275201,
    "category": "station",
    "prefecture": "kanagawa",
    "osm_id": 263275159,
    "spot_type": "data_spot",
    "data_source": "osm"
  },
  {
    "name": "六浦",
    "name_en": "Mutsuura",
    "lat": 35.3225918,
    "lng": 139.6112899,
    "category": "station",
    "prefecture": "kanagawa",
    "osm_id": 263298361,
    "spot_type": "data_spot",
    "data_source": "osm"
  },
  {
    "name": "穴部",
    "name_en": "Anabe",
    "lat": 35.2801068,
    "lng": 139.1484713,
    "category": "station",
    "prefecture": "kanagawa",
    "osm_id": 264199875,
    "spot_type": "data_spot",
    "data_source": "osm"
  },
  {
    "name": "和田河原",
    "name_en": "Wadagahara",
    "lat": 35.3158517,
    "lng": 139.1180895,
    "category": "station",
    "prefecture": "kanagawa",
    "osm_id": 264199894,
    "spot_type": "data_spot",
    "data_source": "osm"
  },
  {
    "name": "富士フイルム前",
    "name_en": "Fujifilm-mae",
    "lat": 35.3176549,
    "lng": 139.1088944,
    "category": "station",
    "prefecture": "kanagawa",
    "osm_id": 264199904,
    "spot_type": "data_spot",
    "data_source": "osm"
  },
  {
    "name": "五百羅漢",
    "name_en": "Gohyakurakan",
    "lat": 35.2752622,
    "lng": 139.1557022,
    "category": "station",
    "prefecture": "kanagawa",
    "osm_id": 264199924,
    "spot_type": "data_spot",
    "data_source": "osm"
  },
  {
    "name": "飯田岡",
    "name_en": "Iidaoka",
    "lat": 35.288028,
    "lng": 139.1390988,
    "category": "station",
    "prefecture": "kanagawa",
    "osm_id": 264199929,
    "spot_type": "data_spot",
    "data_source": "osm"
  },
  {
    "name": "相模沼田",
    "name_en": "Sagami-Numata",
    "lat": 35.2921114,
    "lng": 139.1339921,
    "category": "station",
    "prefecture": "kanagawa",
    "osm_id": 264199933,
    "spot_type": "data_spot",
    "data_source": "osm"
  },
  {
    "name": "塚原",
    "name_en": "Tsukahara",
    "lat": 35.3017259,
    "lng": 139.1263317,
    "category": "station",
    "prefecture": "kanagawa",
    "osm_id": 264199946,
    "spot_type": "data_spot",
    "data_source": "osm"
  },
  {
    "name": "井細田",
    "name_en": "Isaida",
    "lat": 35.2685194,
    "lng": 139.1572985,
    "category": "station",
    "prefecture": "kanagawa",
    "osm_id": 264199961,
    "spot_type": "data_spot",
    "data_source": "osm"
  },
  {
    "name": "大雄山",
    "name_en": "Daiyuzan",
    "lat": 35.3191857,
    "lng": 139.1031699,
    "category": "station",
    "prefecture": "kanagawa",
    "osm_id": 264199994,
    "spot_type": "data_spot",
    "data_source": "osm"
  },
  {
    "name": "岩原",
    "name_en": "Iwahara",
    "lat": 35.2991273,
    "lng": 139.1284897,
    "category": "station",
    "prefecture": "kanagawa",
    "osm_id": 264199996,
    "spot_type": "data_spot",
    "data_source": "osm"
  },
  {
    "name": "緑町",
    "name_en": "Midoricho",
    "lat": 35.2596033,
    "lng": 139.1589825,
    "category": "station",
    "prefecture": "kanagawa",
    "osm_id": 264200042,
    "spot_type": "data_spot",
    "data_source": "osm"
  },
  {
    "name": "宮ノ下",
    "name_en": "Miyanoshita",
    "lat": 35.2421498,
    "lng": 139.0628686,
    "category": "station",
    "prefecture": "kanagawa",
    "osm_id": 264202768,
    "spot_type": "data_spot",
    "data_source": "osm"
  },
  {
    "name": "中強羅",
    "name_en": "Naka Gōra",
    "lat": 35.2481695,
    "lng": 139.0406145,
    "category": "station",
    "prefecture": "kanagawa",
    "osm_id": 264205533,
    "spot_type": "data_spot",
    "data_source": "osm"
  },
  {
    "name": "公園下",
    "name_en": "Koen-Shimo",
    "lat": 35.2499558,
    "lng": 139.0457134,
    "category": "station",
    "prefecture": "kanagawa",
    "osm_id": 264205538,
    "spot_type": "data_spot",
    "data_source": "osm"
  },
  {
    "name": "早雲山",
    "name_en": "Sōunzan",
    "lat": 35.246524,
    "lng": 139.0359155,
    "category": "station",
    "prefecture": "kanagawa",
    "osm_id": 264205547,
    "spot_type": "data_spot",
    "data_source": "osm"
  },
  {
    "name": "上強羅",
    "name_en": "Kami-Gora",
    "lat": 35.2473203,
    "lng": 139.0381966,
    "category": "station",
    "prefecture": "kanagawa",
    "osm_id": 264205549,
    "spot_type": "data_spot",
    "data_source": "osm"
  },
  {
    "name": "国府津",
    "name_en": "Kōzu",
    "lat": 35.2812891,
    "lng": 139.214209,
    "category": "station",
    "prefecture": "kanagawa",
    "osm_id": 264206294,
    "spot_type": "data_spot",
    "data_source": "osm"
  },
  {
    "name": "岩波",
    "name_en": "Iwanami",
    "lat": 35.2153522,
    "lng": 138.919285,
    "category": "station",
    "prefecture": "kanagawa",
    "osm_id": 264207212,
    "spot_type": "data_spot",
    "data_source": "osm"
  },
  {
    "name": "相模大野",
    "name_en": "Sagami-Ono",
    "lat": 35.5321708,
    "lng": 139.4378867,
    "category": "station",
    "prefecture": "kanagawa",
    "osm_id": 264240113,
    "spot_type": "data_spot",
    "data_source": "osm"
  },
  {
    "name": "片瀬江ノ島",
    "name_en": "Katase-Enoshima",
    "lat": 35.308873,
    "lng": 139.483502,
    "category": "station",
    "prefecture": "kanagawa",
    "osm_id": 264240233,
    "spot_type": "data_spot",
    "data_source": "osm"
  },
  {
    "name": "登戸",
    "name_en": "Noborito",
    "lat": 35.6208193,
    "lng": 139.570006,
    "category": "station",
    "prefecture": "kanagawa",
    "osm_id": 264813889,
    "spot_type": "data_spot",
    "data_source": "osm"
  },
  {
    "name": "府中本町",
    "name_en": "Fuchu-Hommachi",
    "lat": 35.6661053,
    "lng": 139.4771038,
    "category": "station",
    "prefecture": "kanagawa",
    "osm_id": 264813956,
    "spot_type": "data_spot",
    "data_source": "osm"
  },
  {
    "name": "川崎新町",
    "name_en": "Kawasaki-Shimmachi",
    "lat": 35.5182574,
    "lng": 139.6991819,
    "category": "station",
    "prefecture": "kanagawa",
    "osm_id": 264814064,
    "spot_type": "data_spot",
    "data_source": "osm"
  },
  {
    "name": "浜川崎",
    "name_en": "Hama-Kawasaki",
    "lat": 35.5103253,
    "lng": 139.7137564,
    "category": "station",
    "prefecture": "kanagawa",
    "osm_id": 264814072,
    "spot_type": "data_spot",
    "data_source": "osm"
  },
  {
    "name": "青葉台",
    "name_en": "Aobadai",
    "lat": 35.5428783,
    "lng": 139.5172312,
    "category": "station",
    "prefecture": "kanagawa",
    "osm_id": 266084129,
    "spot_type": "data_spot",
    "data_source": "osm"
  },
  {
    "name": "梶が谷",
    "name_en": "Kajigaya",
    "lat": 35.5936505,
    "lng": 139.6054789,
    "category": "station",
    "prefecture": "kanagawa",
    "osm_id": 266084310,
    "spot_type": "data_spot",
    "data_source": "osm"
  },
  {
    "name": "江田",
    "name_en": "Eda",
    "lat": 35.5585746,
    "lng": 139.5514544,
    "category": "station",
    "prefecture": "kanagawa",
    "osm_id": 266084537,
    "spot_type": "data_spot",
    "data_source": "osm"
  },
  {
    "name": "溝の口",
    "name_en": "Mizonokuchi",
    "lat": 35.5999254,
    "lng": 139.6105114,
    "category": "station",
    "prefecture": "kanagawa",
    "osm_id": 266084776,
    "spot_type": "data_spot",
    "data_source": "osm"
  },
  {
    "name": "中央林間",
    "name_en": "Chuo-rinkan",
    "lat": 35.5075814,
    "lng": 139.4445901,
    "category": "station",
    "prefecture": "kanagawa",
    "osm_id": 266084909,
    "spot_type": "data_spot",
    "data_source": "osm"
  },
  {
    "name": "つきみ野",
    "name_en": "Tsukimino",
    "lat": 35.5103897,
    "lng": 139.4582718,
    "category": "station",
    "prefecture": "kanagawa",
    "osm_id": 266085013,
    "spot_type": "data_spot",
    "data_source": "osm"
  },
  {
    "name": "目黒",
    "name_en": "Meguro",
    "lat": 35.6325078,
    "lng": 139.7157717,
    "category": "station",
    "prefecture": "kanagawa",
    "osm_id": 266085875,
    "spot_type": "data_spot",
    "data_source": "osm"
  },
  {
    "name": "啓運寺",
    "name_en": "Keiunji Temple",
    "lat": 35.3106676,
    "lng": 139.5528239,
    "category": "temple",
    "prefecture": "kanagawa",
    "osm_id": 266744992,
    "spot_type": "data_spot",
    "data_source": "osm"
  },
  {
    "name": "実相寺",
    "name_en": "",
    "lat": 35.3083663,
    "lng": 139.5538105,
    "category": "temple",
    "prefecture": "kanagawa",
    "osm_id": 266746356,
    "spot_type": "data_spot",
    "data_source": "osm"
  },
  {
    "name": "光明寺",
    "name_en": "Komei-ji",
    "lat": 35.3033692,
    "lng": 139.554529,
    "category": "temple",
    "prefecture": "kanagawa",
    "osm_id": 266755787,
    "spot_type": "data_spot",
    "data_source": "osm"
  },
  {
    "name": "海蔵寺",
    "name_en": "Kaizou-ji Temple",
    "lat": 35.3288581,
    "lng": 139.5452632,
    "category": "temple",
    "prefecture": "kanagawa",
    "osm_id": 266903443,
    "spot_type": "data_spot",
    "data_source": "osm"
  },
  {
    "name": "英勝寺",
    "name_en": "Eishōji",
    "lat": 35.3251108,
    "lng": 139.5498364,
    "category": "temple",
    "prefecture": "kanagawa",
    "osm_id": 279691103,
    "spot_type": "data_spot",
    "data_source": "osm"
  },
  {
    "name": "鴨居",
    "name_en": "Kamoi",
    "lat": 35.510947,
    "lng": 139.5670538,
    "category": "station",
    "prefecture": "kanagawa",
    "osm_id": 280474787,
    "spot_type": "data_spot",
    "data_source": "osm"
  },
  {
    "name": "中山",
    "name_en": "Nakayama",
    "lat": 35.5146971,
    "lng": 139.5395328,
    "category": "station",
    "prefecture": "kanagawa",
    "osm_id": 280474931,
    "spot_type": "data_spot",
    "data_source": "osm"
  },
  {
    "name": "大口",
    "name_en": "Oguchi",
    "lat": 35.4923774,
    "lng": 139.6462868,
    "category": "station",
    "prefecture": "kanagawa",
    "osm_id": 280474943,
    "spot_type": "data_spot",
    "data_source": "osm"
  },
  {
    "name": "十日市場",
    "name_en": "Tokaichiba",
    "lat": 35.5263056,
    "lng": 139.5165915,
    "category": "station",
    "prefecture": "kanagawa",
    "osm_id": 280475163,
    "spot_type": "data_spot",
    "data_source": "osm"
  },
  {
    "name": "八王子みなみ野",
    "name_en": "Hachiojiminamino",
    "lat": 35.6312559,
    "lng": 139.3309341,
    "category": "station",
    "prefecture": "kanagawa",
    "osm_id": 280475835,
    "spot_type": "data_spot",
    "data_source": "osm"
  },
  {
    "name": "片倉",
    "name_en": "Katakura",
    "lat": 35.6398013,
    "lng": 139.3414342,
    "category": "station",
    "prefecture": "kanagawa",
    "osm_id": 280475844,
    "spot_type": "data_spot",
    "data_source": "osm"
  },
  {
    "name": "小机",
    "name_en": "Kozukue",
    "lat": 35.5086932,
    "lng": 139.5997176,
    "category": "station",
    "prefecture": "kanagawa",
    "osm_id": 280475974,
    "spot_type": "data_spot",
    "data_source": "osm"
  },
  {
    "name": "東神奈川",
    "name_en": "Higashi-Kanagawa",
    "lat": 35.4779431,
    "lng": 139.6333271,
    "category": "station",
    "prefecture": "kanagawa",
    "osm_id": 280476284,
    "spot_type": "data_spot",
    "data_source": "osm"
  },
  {
    "name": "相原",
    "name_en": "Aihara",
    "lat": 35.6068438,
    "lng": 139.3316885,
    "category": "station",
    "prefecture": "kanagawa",
    "osm_id": 280476769,
    "spot_type": "data_spot",
    "data_source": "osm"
  },
  {
    "name": "京王永山",
    "name_en": "Keio-Nagayama",
    "lat": 35.6302581,
    "lng": 139.4483564,
    "category": "station",
    "prefecture": "kanagawa",
    "osm_id": 280623187,
    "spot_type": "data_spot",
    "data_source": "osm"
  },
  {
    "name": "調布",
    "name_en": "Chofu",
    "lat": 35.6517768,
    "lng": 139.5448061,
    "category": "station",
    "prefecture": "kanagawa",
    "osm_id": 280623691,
    "spot_type": "data_spot",
    "data_source": "osm"
  },
  {
    "name": "高幡不動",
    "name_en": "Takahatafudo",
    "lat": 35.66128,
    "lng": 139.4151494,
    "category": "station",
    "prefecture": "kanagawa",
    "osm_id": 280630702,
    "spot_type": "data_spot",
    "data_source": "osm"
  },
  {
    "name": "唐木田",
    "name_en": "Karakida",
    "lat": 35.6158467,
    "lng": 139.4111316,
    "category": "station",
    "prefecture": "kanagawa",
    "osm_id": 280653191,
    "spot_type": "data_spot",
    "data_source": "osm"
  },
  {
    "name": "海の公園柴口",
    "name_en": "Uminokoen-Shibaguchi",
    "lat": 35.3421054,
    "lng": 139.6359064,
    "category": "station",
    "prefecture": "kanagawa",
    "osm_id": 280728684,
    "spot_type": "data_spot",
    "data_source": "osm"
  },
  {
    "name": "八景島",
    "name_en": "Hakkeijima",
    "lat": 35.3408226,
    "lng": 139.640836,
    "category": "station",
    "prefecture": "kanagawa",
    "osm_id": 280728809,
    "spot_type": "data_spot",
    "data_source": "osm"
  },
  {
    "name": "海の公園南口",
    "name_en": "Uminokoen-Minamiguchi",
    "lat": 35.3371661,
    "lng": 139.6320353,
    "category": "station",
    "prefecture": "kanagawa",
    "osm_id": 280728896,
    "spot_type": "data_spot",
    "data_source": "osm"
  },
  {
    "name": "幸浦",
    "name_en": "Sachiura",
    "lat": 35.3583376,
    "lng": 139.6437391,
    "category": "station",
    "prefecture": "kanagawa",
    "osm_id": 280728933,
    "spot_type": "data_spot",
    "data_source": "osm"
  },
  {
    "name": "福浦",
    "name_en": "Fukuura",
    "lat": 35.3496489,
    "lng": 139.6485436,
    "category": "station",
    "prefecture": "kanagawa",
    "osm_id": 280728953,
    "spot_type": "data_spot",
    "data_source": "osm"
  },
  {
    "name": "産業振興センター",
    "name_en": "Sangyoshinko Center",
    "lat": 35.3534255,
    "lng": 139.646291,
    "category": "station",
    "prefecture": "kanagawa",
    "osm_id": 280728980,
    "spot_type": "data_spot",
    "data_source": "osm"
  },
  {
    "name": "成城学園前",
    "name_en": "Seijogakuen-mae",
    "lat": 35.6399444,
    "lng": 139.5984426,
    "category": "station",
    "prefecture": "kanagawa",
    "osm_id": 281365074,
    "spot_type": "data_spot",
    "data_source": "osm"
  },
  {
    "name": "生田",
    "name_en": "Ikuta",
    "lat": 35.6149907,
    "lng": 139.5419324,
    "category": "station",
    "prefecture": "kanagawa",
    "osm_id": 281365135,
    "spot_type": "data_spot",
    "data_source": "osm"
  },
  {
    "name": "鶴川",
    "name_en": "Tsurukawa",
    "lat": 35.5831049,
    "lng": 139.4816019,
    "category": "station",
    "prefecture": "kanagawa",
    "osm_id": 281365138,
    "spot_type": "data_spot",
    "data_source": "osm"
  },
  {
    "name": "百合ヶ丘",
    "name_en": "Yurigaoka",
    "lat": 35.6090225,
    "lng": 139.5160744,
    "category": "station",
    "prefecture": "kanagawa",
    "osm_id": 281365143,
    "spot_type": "data_spot",
    "data_source": "osm"
  },
  {
    "name": "柿生",
    "name_en": "Kakio",
    "lat": 35.5896107,
    "lng": 139.4975838,
    "category": "station",
    "prefecture": "kanagawa",
    "osm_id": 281365561,
    "spot_type": "data_spot",
    "data_source": "osm"
  },
  {
    "name": "本厚木",
    "name_en": "Hon-Atsugi",
    "lat": 35.4393177,
    "lng": 139.3642806,
    "category": "station",
    "prefecture": "kanagawa",
    "osm_id": 281366192,
    "spot_type": "data_spot",
    "data_source": "osm"
  },
  {
    "name": "玉川学園前",
    "name_en": "Tamagawagakuen-mae",
    "lat": 35.5636494,
    "lng": 139.4635266,
    "category": "station",
    "prefecture": "kanagawa",
    "osm_id": 281366404,
    "spot_type": "data_spot",
    "data_source": "osm"
  },
  {
    "name": "梅ヶ丘",
    "name_en": "Umegaoka",
    "lat": 35.6561754,
    "lng": 139.6541274,
    "category": "station",
    "prefecture": "kanagawa",
    "osm_id": 281366410,
    "spot_type": "data_spot",
    "data_source": "osm"
  },
  {
    "name": "祖師ヶ谷大蔵",
    "name_en": "Soshigaya-Okura",
    "lat": 35.6432802,
    "lng": 139.6097472,
    "category": "station",
    "prefecture": "kanagawa",
    "osm_id": 281366428,
    "spot_type": "data_spot",
    "data_source": "osm"
  },
  {
    "name": "読売ランド前",
    "name_en": "Yomiuriland-mae",
    "lat": 35.6147779,
    "lng": 139.5278883,
    "category": "station",
    "prefecture": "kanagawa",
    "osm_id": 281366436,
    "spot_type": "data_spot",
    "data_source": "osm"
  },
  {
    "name": "代々木八幡",
    "name_en": "Yoyogi-Hachiman",
    "lat": 35.6696211,
    "lng": 139.6888398,
    "category": "station",
    "prefecture": "kanagawa",
    "osm_id": 281366568,
    "spot_type": "data_spot",
    "data_source": "osm"
  },
  {
    "name": "経堂",
    "name_en": "Kyodo",
    "lat": 35.6512791,
    "lng": 139.636679,
    "category": "station",
    "prefecture": "kanagawa",
    "osm_id": 281366584,
    "spot_type": "data_spot",
    "data_source": "osm"
  },
  {
    "name": "千歳船橋",
    "name_en": "Chitose-Funabashi",
    "lat": 35.6473986,
    "lng": 139.6238215,
    "category": "station",
    "prefecture": "kanagawa",
    "osm_id": 281366586,
    "spot_type": "data_spot",
    "data_source": "osm"
  },
  {
    "name": "狛江",
    "name_en": "Komae",
    "lat": 35.632315,
    "lng": 139.5774238,
    "category": "station",
    "prefecture": "kanagawa",
    "osm_id": 281366638,
    "spot_type": "data_spot",
    "data_source": "osm"
  },
  {
    "name": "向ヶ丘遊園",
    "name_en": "Mukogaoka-Yuen",
    "lat": 35.6172082,
    "lng": 139.5645472,
    "category": "station",
    "prefecture": "kanagawa",
    "osm_id": 281366650,
    "spot_type": "data_spot",
    "data_source": "osm"
  },
  {
    "name": "代々木上原",
    "name_en": "Yoyogi-Uehara",
    "lat": 35.6690082,
    "lng": 139.6797884,
    "category": "station",
    "prefecture": "kanagawa",
    "osm_id": 281366963,
    "spot_type": "data_spot",
    "data_source": "osm"
  },
  {
    "name": "伊勢原",
    "name_en": "Isehara",
    "lat": 35.3959932,
    "lng": 139.3135001,
    "category": "station",
    "prefecture": "kanagawa",
    "osm_id": 281366968,
    "spot_type": "data_spot",
    "data_source": "osm"
  },
  {
    "name": "豪徳寺",
    "name_en": "Gotokuji",
    "lat": 35.6535429,
    "lng": 139.6468507,
    "category": "station",
    "prefecture": "kanagawa",
    "osm_id": 281366971,
    "spot_type": "data_spot",
    "data_source": "osm"
  },
  {
    "name": "座間",
    "name_en": "Zama",
    "lat": 35.4807147,
    "lng": 139.3999256,
    "category": "station",
    "prefecture": "kanagawa",
    "osm_id": 281367140,
    "spot_type": "data_spot",
    "data_source": "osm"
  },
  {
    "name": "西調布",
    "name_en": "Nishi-chofu",
    "lat": 35.6570625,
    "lng": 139.530194,
    "category": "station",
    "prefecture": "kanagawa",
    "osm_id": 281417535,
    "spot_type": "data_spot",
    "data_source": "osm"
  },
  {
    "name": "武蔵野台",
    "name_en": "Musashinodai",
    "lat": 35.6642284,
    "lng": 139.5109606,
    "category": "station",
    "prefecture": "kanagawa",
    "osm_id": 281417843,
    "spot_type": "data_spot",
    "data_source": "osm"
  },
  {
    "name": "飛田給",
    "name_en": "Tobitakyu",
    "lat": 35.6602521,
    "lng": 139.5232311,
    "category": "station",
    "prefecture": "kanagawa",
    "osm_id": 281417962,
    "spot_type": "data_spot",
    "data_source": "osm"
  },
  {
    "name": "狭間",
    "name_en": "Hazama",
    "lat": 35.6405959,
    "lng": 139.2933098,
    "category": "station",
    "prefecture": "kanagawa",
    "osm_id": 281458957,
    "spot_type": "data_spot",
    "data_source": "osm"
  },
  {
    "name": "めじろ台",
    "name_en": "Mejirodai",
    "lat": 35.6434031,
    "lng": 139.30772,
    "category": "station",
    "prefecture": "kanagawa",
    "osm_id": 281459052,
    "spot_type": "data_spot",
    "data_source": "osm"
  },
  {
    "name": "山田",
    "name_en": "Yamada",
    "lat": 35.6444148,
    "lng": 139.3211783,
    "category": "station",
    "prefecture": "kanagawa",
    "osm_id": 281459064,
    "spot_type": "data_spot",
    "data_source": "osm"
  },
  {
    "name": "京王片倉",
    "name_en": "Keio-katakura",
    "lat": 35.6443504,
    "lng": 139.3370743,
    "category": "station",
    "prefecture": "kanagawa",
    "osm_id": 281459067,
    "spot_type": "data_spot",
    "data_source": "osm"
  },
  {
    "name": "入谷",
    "name_en": "Iriya",
    "lat": 35.478668,
    "lng": 139.3917746,
    "category": "station",
    "prefecture": "kanagawa",
    "osm_id": 281469427,
    "spot_type": "data_spot",
    "data_source": "osm"
  },
  {
    "name": "上溝",
    "name_en": "Kamimizo",
    "lat": 35.5577447,
    "lng": 139.3631816,
    "category": "station",
    "prefecture": "kanagawa",
    "osm_id": 281469591,
    "spot_type": "data_spot",
    "data_source": "osm"
  },
  {
    "name": "海老名",
    "name_en": "Ebina",
    "lat": 35.4543232,
    "lng": 139.3894064,
    "category": "station",
    "prefecture": "kanagawa",
    "osm_id": 281469605,
    "spot_type": "data_spot",
    "data_source": "osm"
  },
  {
    "name": "香川",
    "name_en": "Kagawa",
    "lat": 35.3565035,
    "lng": 139.3997553,
    "category": "station",
    "prefecture": "kanagawa",
    "osm_id": 281469762,
    "spot_type": "data_spot",
    "data_source": "osm"
  },
  {
    "name": "門沢橋",
    "name_en": "Kadosawabashi",
    "lat": 35.4066798,
    "lng": 139.3801795,
    "category": "station",
    "prefecture": "kanagawa",
    "osm_id": 281469981,
    "spot_type": "data_spot",
    "data_source": "osm"
  },
  {
    "name": "番田",
    "name_en": "Banda",
    "lat": 35.5453889,
    "lng": 139.3629797,
    "category": "station",
    "prefecture": "kanagawa",
    "osm_id": 281469983,
    "spot_type": "data_spot",
    "data_source": "osm"
  },
  {
    "name": "相武台下",
    "name_en": "Sobudaishita",
    "lat": 35.4932739,
    "lng": 139.3862012,
    "category": "station",
    "prefecture": "kanagawa",
    "osm_id": 281470396,
    "spot_type": "data_spot",
    "data_source": "osm"
  },
  {
    "name": "社家",
    "name_en": "Shake",
    "lat": 35.4205554,
    "lng": 139.3772506,
    "category": "station",
    "prefecture": "kanagawa",
    "osm_id": 281470473,
    "spot_type": "data_spot",
    "data_source": "osm"
  },
  {
    "name": "下溝",
    "name_en": "Shimomizo",
    "lat": 35.5182341,
    "lng": 139.3805489,
    "category": "station",
    "prefecture": "kanagawa",
    "osm_id": 281470876,
    "spot_type": "data_spot",
    "data_source": "osm"
  },
  {
    "name": "宮山",
    "name_en": "Miyayama",
    "lat": 35.3822546,
    "lng": 139.379689,
    "category": "station",
    "prefecture": "kanagawa",
    "osm_id": 281470884,
    "spot_type": "data_spot",
    "data_source": "osm"
  },
  {
    "name": "北八王子",
    "name_en": "Kita-Hachiōji",
    "lat": 35.6693559,
    "lng": 139.3634231,
    "category": "station",
    "prefecture": "kanagawa",
    "osm_id": 298329480,
    "spot_type": "data_spot",
    "data_source": "osm"
  },
  {
    "name": "妙福寺",
    "name_en": "Myofuku Ji",
    "lat": 35.6011445,
    "lng": 139.6920211,
    "category": "temple",
    "prefecture": "kanagawa",
    "osm_id": 304422978,
    "spot_type": "data_spot",
    "data_source": "osm"
  },
  {
    "name": "関帝廟",
    "name_en": "Kantei-byo",
    "lat": 35.442453,
    "lng": 139.6452218,
    "category": "temple",
    "prefecture": "kanagawa",
    "osm_id": 304562942,
    "spot_type": "data_spot",
    "data_source": "osm"
  },
  {
    "name": "恩田",
    "name_en": "Onda",
    "lat": 35.5455896,
    "lng": 139.4921288,
    "category": "station",
    "prefecture": "kanagawa",
    "osm_id": 307882453,
    "spot_type": "data_spot",
    "data_source": "osm"
  },
  {
    "name": "多摩センター",
    "name_en": "Tama Center",
    "lat": 35.6239385,
    "lng": 139.4228734,
    "category": "station",
    "prefecture": "kanagawa",
    "osm_id": 311094336,
    "spot_type": "data_spot",
    "data_source": "osm"
  },
  {
    "name": "岡村天満宮(Okamura-Tenmangu)",
    "name_en": "",
    "lat": 35.4159827,
    "lng": 139.6131179,
    "category": "shrine",
    "prefecture": "kanagawa",
    "osm_id": 313663254,
    "spot_type": "data_spot",
    "data_source": "osm"
  },
  {
    "name": "青木葉天満宮",
    "name_en": "",
    "lat": 35.6162754,
    "lng": 139.4270387,
    "category": "shrine",
    "prefecture": "kanagawa",
    "osm_id": 314340099,
    "spot_type": "data_spot",
    "data_source": "osm"
  },
  {
    "name": "名称不明",
    "name_en": "",
    "lat": 35.2845127,
    "lng": 139.5648215,
    "category": "lighthouse",
    "prefecture": "kanagawa",
    "osm_id": 316058290,
    "spot_type": "data_spot",
    "data_source": "osm"
  },
  {
    "name": "青木山東福寺",
    "name_en": "",
    "lat": 35.6215201,
    "lng": 139.4285536,
    "category": "temple",
    "prefecture": "kanagawa",
    "osm_id": 317167741,
    "spot_type": "data_spot",
    "data_source": "osm"
  },
  {
    "name": "天照皇大神",
    "name_en": "",
    "lat": 35.5504333,
    "lng": 139.663706,
    "category": "shrine",
    "prefecture": "kanagawa",
    "osm_id": 334167696,
    "spot_type": "data_spot",
    "data_source": "osm"
  },
  {
    "name": "浅間神社",
    "name_en": "",
    "lat": 35.5501783,
    "lng": 139.6645881,
    "category": "shrine",
    "prefecture": "kanagawa",
    "osm_id": 334232017,
    "spot_type": "data_spot",
    "data_source": "osm"
  },
  {
    "name": "高幡不動",
    "name_en": "Takahatafudo",
    "lat": 35.6621725,
    "lng": 139.4133069,
    "category": "station",
    "prefecture": "kanagawa",
    "osm_id": 339082698,
    "spot_type": "data_spot",
    "data_source": "osm"
  },
  {
    "name": "恵比寿神社",
    "name_en": "Ebisu Shrine",
    "lat": 35.6472232,
    "lng": 139.7077849,
    "category": "shrine",
    "prefecture": "kanagawa",
    "osm_id": 340381542,
    "spot_type": "data_spot",
    "data_source": "osm"
  },
  {
    "name": "清水湯",
    "name_en": "Shimizu-yu",
    "lat": 35.6494664,
    "lng": 139.6676693,
    "category": "onsen",
    "prefecture": "kanagawa",
    "osm_id": 349080480,
    "spot_type": "data_spot",
    "data_source": "osm"
  },
  {
    "name": "上永谷",
    "name_en": "Kaminagaya",
    "lat": 35.4015158,
    "lng": 139.5725338,
    "category": "station",
    "prefecture": "kanagawa",
    "osm_id": 355845276,
    "spot_type": "data_spot",
    "data_source": "osm"
  },
  {
    "name": "十二神社",
    "name_en": "Juni-jinja Shrine",
    "lat": 35.6059631,
    "lng": 139.5076568,
    "category": "shrine",
    "prefecture": "kanagawa",
    "osm_id": 371159132,
    "spot_type": "data_spot",
    "data_source": "osm"
  },
  {
    "name": "妙像寺",
    "name_en": "Myozoji Temple",
    "lat": 35.6657457,
    "lng": 139.7354859,
    "category": "temple",
    "prefecture": "kanagawa",
    "osm_id": 389635180,
    "spot_type": "data_spot",
    "data_source": "osm"
  },
  {
    "name": "是政",
    "name_en": "Koremasa",
    "lat": 35.656312,
    "lng": 139.4893214,
    "category": "station",
    "prefecture": "kanagawa",
    "osm_id": 412187550,
    "spot_type": "data_spot",
    "data_source": "osm"
  },
  {
    "name": "芝東照宮",
    "name_en": "Shiba Toshogu",
    "lat": 35.6550961,
    "lng": 139.7486263,
    "category": "shrine",
    "prefecture": "kanagawa",
    "osm_id": 427893000,
    "spot_type": "data_spot",
    "data_source": "osm"
  },
  {
    "name": "五反田",
    "name_en": "Gotanda",
    "lat": 35.6262562,
    "lng": 139.7236303,
    "category": "station",
    "prefecture": "kanagawa",
    "osm_id": 427973657,
    "spot_type": "data_spot",
    "data_source": "osm"
  },
  {
    "name": "鹿島神社",
    "name_en": "",
    "lat": 35.5391735,
    "lng": 139.4441875,
    "category": "shrine",
    "prefecture": "kanagawa",
    "osm_id": 430150149,
    "spot_type": "data_spot",
    "data_source": "osm"
  },
  {
    "name": "南大谷 天神社",
    "name_en": "",
    "lat": 35.5551572,
    "lng": 139.4602487,
    "category": "shrine",
    "prefecture": "kanagawa",
    "osm_id": 433664946,
    "spot_type": "data_spot",
    "data_source": "osm"
  },
  {
    "name": "伏見山 正法寺",
    "name_en": "",
    "lat": 35.6643884,
    "lng": 139.6517175,
    "category": "temple",
    "prefecture": "kanagawa",
    "osm_id": 448138884,
    "spot_type": "data_spot",
    "data_source": "osm"
  },
  {
    "name": "勝林寺",
    "name_en": "",
    "lat": 35.6639113,
    "lng": 139.6518863,
    "category": "temple",
    "prefecture": "kanagawa",
    "osm_id": 448140871,
    "spot_type": "data_spot",
    "data_source": "osm"
  },
  {
    "name": "浄徳寺",
    "name_en": "",
    "lat": 35.6632582,
    "lng": 139.6518698,
    "category": "temple",
    "prefecture": "kanagawa",
    "osm_id": 448141327,
    "spot_type": "data_spot",
    "data_source": "osm"
  },
  {
    "name": "延重寺",
    "name_en": "",
    "lat": 35.6637858,
    "lng": 139.6521181,
    "category": "temple",
    "prefecture": "kanagawa",
    "osm_id": 448141514,
    "spot_type": "data_spot",
    "data_source": "osm"
  },
  {
    "name": "羽根木神社",
    "name_en": "",
    "lat": 35.6682406,
    "lng": 139.6576868,
    "category": "shrine",
    "prefecture": "kanagawa",
    "osm_id": 473535391,
    "spot_type": "data_spot",
    "data_source": "osm"
  },
  {
    "name": "名称不明",
    "name_en": "",
    "lat": 35.6134998,
    "lng": 139.6239814,
    "category": "shrine",
    "prefecture": "kanagawa",
    "osm_id": 477498733,
    "spot_type": "data_spot",
    "data_source": "osm"
  },
  {
    "name": "青林山 東覚院",
    "name_en": "",
    "lat": 35.6562648,
    "lng": 139.6136035,
    "category": "temple",
    "prefecture": "kanagawa",
    "osm_id": 502954545,
    "spot_type": "data_spot",
    "data_source": "osm"
  },
  {
    "name": "観音院",
    "name_en": "",
    "lat": 35.6495653,
    "lng": 139.610513,
    "category": "temple",
    "prefecture": "kanagawa",
    "osm_id": 502981313,
    "spot_type": "data_spot",
    "data_source": "osm"
  },
  {
    "name": "鎌倉",
    "name_en": "Kamakura",
    "lat": 35.3191187,
    "lng": 139.5504286,
    "category": "station",
    "prefecture": "kanagawa",
    "osm_id": 506122717,
    "spot_type": "data_spot",
    "data_source": "osm"
  },
  {
    "name": "天台宗 知行院",
    "name_en": "",
    "lat": 35.6276603,
    "lng": 139.5991349,
    "category": "temple",
    "prefecture": "kanagawa",
    "osm_id": 529428251,
    "spot_type": "data_spot",
    "data_source": "osm"
  },
  {
    "name": "名称不明",
    "name_en": "",
    "lat": 35.6226842,
    "lng": 139.6185907,
    "category": "shrine",
    "prefecture": "kanagawa",
    "osm_id": 534088248,
    "spot_type": "data_spot",
    "data_source": "osm"
  },
  {
    "name": "福昌寺",
    "name_en": "",
    "lat": 35.6505183,
    "lng": 139.6362377,
    "category": "temple",
    "prefecture": "kanagawa",
    "osm_id": 579662653,
    "spot_type": "data_spot",
    "data_source": "osm"
  },
  {
    "name": "池上本門寺",
    "name_en": "Ikegami Honmonji",
    "lat": 35.5789017,
    "lng": 139.7051955,
    "category": "temple",
    "prefecture": "kanagawa",
    "osm_id": 593986658,
    "spot_type": "data_spot",
    "data_source": "osm"
  },
  {
    "name": "下鶴間ふるさと館",
    "name_en": "",
    "lat": 35.5008836,
    "lng": 139.4642727,
    "category": "museum",
    "prefecture": "kanagawa",
    "osm_id": 597698437,
    "spot_type": "data_spot",
    "data_source": "osm"
  },
  {
    "name": "乗泉寺 世田谷別院",
    "name_en": "",
    "lat": 35.6508153,
    "lng": 139.6450875,
    "category": "temple",
    "prefecture": "kanagawa",
    "osm_id": 599238930,
    "spot_type": "data_spot",
    "data_source": "osm"
  },
  {
    "name": "飯守神社",
    "name_en": "",
    "lat": 35.6024837,
    "lng": 139.460041,
    "category": "shrine",
    "prefecture": "kanagawa",
    "osm_id": 600683956,
    "spot_type": "data_spot",
    "data_source": "osm"
  },
  {
    "name": "多摩川水神",
    "name_en": "",
    "lat": 35.6114335,
    "lng": 139.6244096,
    "category": "shrine",
    "prefecture": "kanagawa",
    "osm_id": 603152867,
    "spot_type": "data_spot",
    "data_source": "osm"
  },
  {
    "name": "阿夫利神社",
    "name_en": "",
    "lat": 35.4314913,
    "lng": 139.2379321,
    "category": "station",
    "prefecture": "kanagawa",
    "osm_id": 604137059,
    "spot_type": "data_spot",
    "data_source": "osm"
  },
  {
    "name": "大山ケーブル",
    "name_en": "Ōyama cable",
    "lat": 35.4278492,
    "lng": 139.2444969,
    "category": "station",
    "prefecture": "kanagawa",
    "osm_id": 604137060,
    "spot_type": "data_spot",
    "data_source": "osm"
  },
  {
    "name": "五島美術館別館",
    "name_en": "Gotoh Museum Annex",
    "lat": 35.6119856,
    "lng": 139.6358686,
    "category": "museum",
    "prefecture": "kanagawa",
    "osm_id": 604349728,
    "spot_type": "data_spot",
    "data_source": "osm"
  },
  {
    "name": "お稲荷さん",
    "name_en": "",
    "lat": 35.3202741,
    "lng": 139.5524703,
    "category": "shrine",
    "prefecture": "kanagawa",
    "osm_id": 606299780,
    "spot_type": "data_spot",
    "data_source": "osm"
  },
  {
    "name": "下之水神宮",
    "name_en": "",
    "lat": 35.3258305,
    "lng": 139.5424782,
    "category": "shrine",
    "prefecture": "kanagawa",
    "osm_id": 607191990,
    "spot_type": "data_spot",
    "data_source": "osm"
  },
  {
    "name": "奥宮",
    "name_en": "",
    "lat": 35.3258074,
    "lng": 139.5420167,
    "category": "shrine",
    "prefecture": "kanagawa",
    "osm_id": 607854159,
    "spot_type": "data_spot",
    "data_source": "osm"
  },
  {
    "name": "観音寺",
    "name_en": "",
    "lat": 35.6236207,
    "lng": 139.6016303,
    "category": "temple",
    "prefecture": "kanagawa",
    "osm_id": 610939786,
    "spot_type": "data_spot",
    "data_source": "osm"
  },
  {
    "name": "諏訪神社",
    "name_en": "",
    "lat": 35.3921334,
    "lng": 139.5287981,
    "category": "shrine",
    "prefecture": "kanagawa",
    "osm_id": 614560213,
    "spot_type": "data_spot",
    "data_source": "osm"
  },
  {
    "name": "親縁寺",
    "name_en": "",
    "lat": 35.3910806,
    "lng": 139.5291571,
    "category": "temple",
    "prefecture": "kanagawa",
    "osm_id": 614560253,
    "spot_type": "data_spot",
    "data_source": "osm"
  },
  {
    "name": "清流寺",
    "name_en": "",
    "lat": 35.6499672,
    "lng": 139.7087366,
    "category": "temple",
    "prefecture": "kanagawa",
    "osm_id": 617028945,
    "spot_type": "data_spot",
    "data_source": "osm"
  },
  {
    "name": "高松寺",
    "name_en": "",
    "lat": 35.3999921,
    "lng": 139.5291167,
    "category": "temple",
    "prefecture": "kanagawa",
    "osm_id": 617664999,
    "spot_type": "data_spot",
    "data_source": "osm"
  },
  {
    "name": "汁守神社",
    "name_en": "",
    "lat": 35.6133639,
    "lng": 139.4668505,
    "category": "shrine",
    "prefecture": "kanagawa",
    "osm_id": 623976744,
    "spot_type": "data_spot",
    "data_source": "osm"
  },
  {
    "name": "聖徳寺",
    "name_en": "",
    "lat": 35.6576972,
    "lng": 139.6849266,
    "category": "temple",
    "prefecture": "kanagawa",
    "osm_id": 625646968,
    "spot_type": "data_spot",
    "data_source": "osm"
  },
  {
    "name": "正覚寺",
    "name_en": "Shogaku-ji",
    "lat": 35.6352788,
    "lng": 139.7374543,
    "category": "temple",
    "prefecture": "kanagawa",
    "osm_id": 631424533,
    "spot_type": "data_spot",
    "data_source": "osm"
  },
  {
    "name": "柴崎稲荷神社",
    "name_en": "",
    "lat": 35.6606785,
    "lng": 139.5651395,
    "category": "shrine",
    "prefecture": "kanagawa",
    "osm_id": 638210315,
    "spot_type": "data_spot",
    "data_source": "osm"
  },
  {
    "name": "延浄寺",
    "name_en": "",
    "lat": 35.6634218,
    "lng": 139.5705916,
    "category": "temple",
    "prefecture": "kanagawa",
    "osm_id": 638217271,
    "spot_type": "data_spot",
    "data_source": "osm"
  },
  {
    "name": "昌翁寺",
    "name_en": "",
    "lat": 35.664072,
    "lng": 139.5849535,
    "category": "temple",
    "prefecture": "kanagawa",
    "osm_id": 638960286,
    "spot_type": "data_spot",
    "data_source": "osm"
  },
  {
    "name": "世田谷美術館分館 清川泰次記念ギャラリー",
    "name_en": "Setagaya Museum of Art Annex Kiyokawa Taiji Memorial Gallery",
    "lat": 35.6385768,
    "lng": 139.6008373,
    "category": "museum",
    "prefecture": "kanagawa",
    "osm_id": 651573302,
    "spot_type": "data_spot",
    "data_source": "osm"
  },
  {
    "name": "浄元寺",
    "name_en": "",
    "lat": 35.6062027,
    "lng": 139.6061704,
    "category": "temple",
    "prefecture": "kanagawa",
    "osm_id": 665211609,
    "spot_type": "data_spot",
    "data_source": "osm"
  },
  {
    "name": "氷川神社",
    "name_en": "Hikawa Shrine",
    "lat": 35.6187792,
    "lng": 139.6710749,
    "category": "shrine",
    "prefecture": "kanagawa",
    "osm_id": 665718732,
    "spot_type": "data_spot",
    "data_source": "osm"
  },
  {
    "name": "二宮神社",
    "name_en": "",
    "lat": 35.5174709,
    "lng": 139.4222109,
    "category": "shrine",
    "prefecture": "kanagawa",
    "osm_id": 665888868,
    "spot_type": "data_spot",
    "data_source": "osm"
  },
  {
    "name": "小田急相模原",
    "name_en": "Odakyu-Sagamihara",
    "lat": 35.5151962,
    "lng": 139.422646,
    "category": "station",
    "prefecture": "kanagawa",
    "osm_id": 666928567,
    "spot_type": "data_spot",
    "data_source": "osm"
  },
  {
    "name": "清滝",
    "name_en": "Kiyotaki",
    "lat": 35.6311026,
    "lng": 139.2668989,
    "category": "station",
    "prefecture": "kanagawa",
    "osm_id": 675449217,
    "spot_type": "data_spot",
    "data_source": "osm"
  },
  {
    "name": "円行八幡宮",
    "name_en": "",
    "lat": 35.3933806,
    "lng": 139.462082,
    "category": "shrine",
    "prefecture": "kanagawa",
    "osm_id": 676016142,
    "spot_type": "data_spot",
    "data_source": "osm"
  },
  {
    "name": "高尾山",
    "name_en": "Takaosan",
    "lat": 35.6310943,
    "lng": 139.2560936,
    "category": "station",
    "prefecture": "kanagawa",
    "osm_id": 676637945,
    "spot_type": "data_spot",
    "data_source": "osm"
  },
  {
    "name": "十日森稲荷神社",
    "name_en": "",
    "lat": 35.6332877,
    "lng": 139.688902,
    "category": "shrine",
    "prefecture": "kanagawa",
    "osm_id": 679058537,
    "spot_type": "data_spot",
    "data_source": "osm"
  },
  {
    "name": "東京門跡別院 満足院",
    "name_en": "",
    "lat": 35.6541761,
    "lng": 139.6516857,
    "category": "temple",
    "prefecture": "kanagawa",
    "osm_id": 683071138,
    "spot_type": "data_spot",
    "data_source": "osm"
  },
  {
    "name": "杓子稲荷神社",
    "name_en": "",
    "lat": 35.6533522,
    "lng": 139.651514,
    "category": "shrine",
    "prefecture": "kanagawa",
    "osm_id": 683071188,
    "spot_type": "data_spot",
    "data_source": "osm"
  },
  {
    "name": "大倉山",
    "name_en": "Okurayama",
    "lat": 35.52186,
    "lng": 139.6298585,
    "category": "station",
    "prefecture": "kanagawa",
    "osm_id": 694234836,
    "spot_type": "data_spot",
    "data_source": "osm"
  },
  {
    "name": "心岩禅寺",
    "name_en": "",
    "lat": 35.4826888,
    "lng": 139.3962936,
    "category": "temple",
    "prefecture": "kanagawa",
    "osm_id": 701920309,
    "spot_type": "data_spot",
    "data_source": "osm"
  },
  {
    "name": "伏見三宝稲荷神社",
    "name_en": "Fushimi Sambo Inari-jinja Shrine",
    "lat": 35.6542344,
    "lng": 139.7453916,
    "category": "shrine",
    "prefecture": "kanagawa",
    "osm_id": 703040018,
    "spot_type": "data_spot",
    "data_source": "osm"
  },
  {
    "name": "妙定院",
    "name_en": "Myojo-in Temple",
    "lat": 35.6545022,
    "lng": 139.7461635,
    "category": "temple",
    "prefecture": "kanagawa",
    "osm_id": 703042172,
    "spot_type": "data_spot",
    "data_source": "osm"
  },
  {
    "name": "三界寺",
    "name_en": "",
    "lat": 35.6586271,
    "lng": 139.6438024,
    "category": "temple",
    "prefecture": "kanagawa",
    "osm_id": 705142753,
    "spot_type": "data_spot",
    "data_source": "osm"
  },
  {
    "name": "杉山神社",
    "name_en": "",
    "lat": 35.5486891,
    "lng": 139.5730156,
    "category": "shrine",
    "prefecture": "kanagawa",
    "osm_id": 721674448,
    "spot_type": "data_spot",
    "data_source": "osm"
  },
  {
    "name": "光照寺",
    "name_en": "",
    "lat": 35.6561752,
    "lng": 139.561738,
    "category": "temple",
    "prefecture": "kanagawa",
    "osm_id": 725876350,
    "spot_type": "data_spot",
    "data_source": "osm"
  },
  {
    "name": "巌嶋神社",
    "name_en": "",
    "lat": 35.6608438,
    "lng": 139.5678877,
    "category": "shrine",
    "prefecture": "kanagawa",
    "osm_id": 731805423,
    "spot_type": "data_spot",
    "data_source": "osm"
  },
  {
    "name": "春日神社",
    "name_en": "",
    "lat": 35.5859717,
    "lng": 139.6453398,
    "category": "shrine",
    "prefecture": "kanagawa",
    "osm_id": 734921620,
    "spot_type": "data_spot",
    "data_source": "osm"
  },
  {
    "name": "東樹院多聞寺",
    "name_en": "",
    "lat": 35.5921052,
    "lng": 139.6428845,
    "category": "temple",
    "prefecture": "kanagawa",
    "osm_id": 734921669,
    "spot_type": "data_spot",
    "data_source": "osm"
  },
  {
    "name": "神明神社",
    "name_en": "",
    "lat": 35.5834729,
    "lng": 139.6432305,
    "category": "shrine",
    "prefecture": "kanagawa",
    "osm_id": 737222840,
    "spot_type": "data_spot",
    "data_source": "osm"
  },
  {
    "name": "杉山神社",
    "name_en": "",
    "lat": 35.5462085,
    "lng": 139.608173,
    "category": "shrine",
    "prefecture": "kanagawa",
    "osm_id": 739474111,
    "spot_type": "data_spot",
    "data_source": "osm"
  },
  {
    "name": "名称不明",
    "name_en": "",
    "lat": 35.5821453,
    "lng": 139.6445087,
    "category": "temple",
    "prefecture": "kanagawa",
    "osm_id": 740707096,
    "spot_type": "data_spot",
    "data_source": "osm"
  },
  {
    "name": "惟神會本部",
    "name_en": "Yuishinkai Headquarters",
    "lat": 35.6555774,
    "lng": 139.697984,
    "category": "shrine",
    "prefecture": "kanagawa",
    "osm_id": 741609972,
    "spot_type": "data_spot",
    "data_source": "osm"
  },
  {
    "name": "湯パーク",
    "name_en": "",
    "lat": 35.6462596,
    "lng": 139.6135351,
    "category": "onsen",
    "prefecture": "kanagawa",
    "osm_id": 759354840,
    "spot_type": "data_spot",
    "data_source": "osm"
  },
  {
    "name": "五反田神社",
    "name_en": "",
    "lat": 35.6144369,
    "lng": 139.5437319,
    "category": "shrine",
    "prefecture": "kanagawa",
    "osm_id": 771304715,
    "spot_type": "data_spot",
    "data_source": "osm"
  },
  {
    "name": "日枝社",
    "name_en": "",
    "lat": 35.4750839,
    "lng": 139.4735576,
    "category": "shrine",
    "prefecture": "kanagawa",
    "osm_id": 771449043,
    "spot_type": "data_spot",
    "data_source": "osm"
  },
  {
    "name": "土と農の交流園",
    "name_en": "Farming Garden for Citizen",
    "lat": 35.6590377,
    "lng": 139.6279406,
    "category": "museum",
    "prefecture": "kanagawa",
    "osm_id": 811208933,
    "spot_type": "data_spot",
    "data_source": "osm"
  },
  {
    "name": "大松寺",
    "name_en": "Daishoji",
    "lat": 35.6475246,
    "lng": 139.7411317,
    "category": "temple",
    "prefecture": "kanagawa",
    "osm_id": 820360466,
    "spot_type": "data_spot",
    "data_source": "osm"
  },
  {
    "name": "宝生院",
    "name_en": "Hoshoin",
    "lat": 35.6467098,
    "lng": 139.7405773,
    "category": "temple",
    "prefecture": "kanagawa",
    "osm_id": 820360469,
    "spot_type": "data_spot",
    "data_source": "osm"
  },
  {
    "name": "長延寺",
    "name_en": "Choenji",
    "lat": 35.6470135,
    "lng": 139.7406229,
    "category": "temple",
    "prefecture": "kanagawa",
    "osm_id": 820360471,
    "spot_type": "data_spot",
    "data_source": "osm"
  },
  {
    "name": "西藏院",
    "name_en": "Saizoin",
    "lat": 35.6472336,
    "lng": 139.740909,
    "category": "temple",
    "prefecture": "kanagawa",
    "osm_id": 820360478,
    "spot_type": "data_spot",
    "data_source": "osm"
  },
  {
    "name": "旧新橋停車場鉄道歴史展示室",
    "name_en": "Old Shimbashi Station Railway History Exhibition Hall",
    "lat": 35.6659465,
    "lng": 139.7616202,
    "category": "museum",
    "prefecture": "kanagawa",
    "osm_id": 820849494,
    "spot_type": "data_spot",
    "data_source": "osm"
  },
  {
    "name": "ゆめが丘",
    "name_en": "Yumegaoka",
    "lat": 35.4057234,
    "lng": 139.4824589,
    "category": "station",
    "prefecture": "kanagawa",
    "osm_id": 823268950,
    "spot_type": "data_spot",
    "data_source": "osm"
  },
  {
    "name": "弥生台",
    "name_en": "Yayoidai",
    "lat": 35.4298971,
    "lng": 139.5063488,
    "category": "station",
    "prefecture": "kanagawa",
    "osm_id": 823269102,
    "spot_type": "data_spot",
    "data_source": "osm"
  },
  {
    "name": "南万騎が原",
    "name_en": "Minami-Makigahara",
    "lat": 35.452353,
    "lng": 139.526377,
    "category": "station",
    "prefecture": "kanagawa",
    "osm_id": 823269235,
    "spot_type": "data_spot",
    "data_source": "osm"
  },
  {
    "name": "緑園都市",
    "name_en": "Ryokuen-toshi",
    "lat": 35.4394435,
    "lng": 139.5218816,
    "category": "station",
    "prefecture": "kanagawa",
    "osm_id": 823269267,
    "spot_type": "data_spot",
    "data_source": "osm"
  },
  {
    "name": "いずみ中央",
    "name_en": "Izumi-Chuo",
    "lat": 35.4151156,
    "lng": 139.4872659,
    "category": "station",
    "prefecture": "kanagawa",
    "osm_id": 823269414,
    "spot_type": "data_spot",
    "data_source": "osm"
  },
  {
    "name": "いずみ野",
    "name_en": "Izumino",
    "lat": 35.429465,
    "lng": 139.4949527,
    "category": "station",
    "prefecture": "kanagawa",
    "osm_id": 823269446,
    "spot_type": "data_spot",
    "data_source": "osm"
  },
  {
    "name": "鶴ケ峰",
    "name_en": "Tsurugamine",
    "lat": 35.4749432,
    "lng": 139.5493487,
    "category": "station",
    "prefecture": "kanagawa",
    "osm_id": 823271603,
    "spot_type": "data_spot",
    "data_source": "osm"
  },
  {
    "name": "三ツ境",
    "name_en": "Mitsukyo",
    "lat": 35.4678244,
    "lng": 139.5025493,
    "category": "station",
    "prefecture": "kanagawa",
    "osm_id": 823272153,
    "spot_type": "data_spot",
    "data_source": "osm"
  },
  {
    "name": "和田町",
    "name_en": "Wadamachi",
    "lat": 35.4636072,
    "lng": 139.5868099,
    "category": "station",
    "prefecture": "kanagawa",
    "osm_id": 823272267,
    "spot_type": "data_spot",
    "data_source": "osm"
  },
  {
    "name": "相模大塚",
    "name_en": "Sagami-Otsuka",
    "lat": 35.4705798,
    "lng": 139.440843,
    "category": "station",
    "prefecture": "kanagawa",
    "osm_id": 823272288,
    "spot_type": "data_spot",
    "data_source": "osm"
  },
  {
    "name": "西谷",
    "name_en": "Nishiya",
    "lat": 35.4781303,
    "lng": 139.5656561,
    "category": "station",
    "prefecture": "kanagawa",
    "osm_id": 823272622,
    "spot_type": "data_spot",
    "data_source": "osm"
  },
  {
    "name": "海老名",
    "name_en": "",
    "lat": 35.4530142,
    "lng": 139.3916744,
    "category": "station",
    "prefecture": "kanagawa",
    "osm_id": 823272628,
    "spot_type": "data_spot",
    "data_source": "osm"
  },
  {
    "name": "西横浜",
    "name_en": "Nishi-Yokohama",
    "lat": 35.4532879,
    "lng": 139.6084809,
    "category": "station",
    "prefecture": "kanagawa",
    "osm_id": 823272743,
    "spot_type": "data_spot",
    "data_source": "osm"
  },
  {
    "name": "天王町",
    "name_en": "Tennocho",
    "lat": 35.4540049,
    "lng": 139.6026308,
    "category": "station",
    "prefecture": "kanagawa",
    "osm_id": 823272815,
    "spot_type": "data_spot",
    "data_source": "osm"
  },
  {
    "name": "大和",
    "name_en": "Yamato",
    "lat": 35.4699613,
    "lng": 139.4614678,
    "category": "station",
    "prefecture": "kanagawa",
    "osm_id": 823272907,
    "spot_type": "data_spot",
    "data_source": "osm"
  },
  {
    "name": "二俣川",
    "name_en": "Futamatagawa",
    "lat": 35.4634653,
    "lng": 139.5322366,
    "category": "station",
    "prefecture": "kanagawa",
    "osm_id": 823272975,
    "spot_type": "data_spot",
    "data_source": "osm"
  },
  {
    "name": "星川",
    "name_en": "Hoshikawa",
    "lat": 35.4588276,
    "lng": 139.5946998,
    "category": "station",
    "prefecture": "kanagawa",
    "osm_id": 823273031,
    "spot_type": "data_spot",
    "data_source": "osm"
  },
  {
    "name": "瀬谷",
    "name_en": "Seya",
    "lat": 35.4703958,
    "lng": 139.4825295,
    "category": "station",
    "prefecture": "kanagawa",
    "osm_id": 823273057,
    "spot_type": "data_spot",
    "data_source": "osm"
  },
  {
    "name": "かしわ台",
    "name_en": "Kashiwadai",
    "lat": 35.4667081,
    "lng": 139.4153179,
    "category": "station",
    "prefecture": "kanagawa",
    "osm_id": 823273195,
    "spot_type": "data_spot",
    "data_source": "osm"
  },
  {
    "name": "上星川",
    "name_en": "Kami-Hoshikawa",
    "lat": 35.467719,
    "lng": 139.5800137,
    "category": "station",
    "prefecture": "kanagawa",
    "osm_id": 823273226,
    "spot_type": "data_spot",
    "data_source": "osm"
  },
  {
    "name": "さがみ野",
    "name_en": "Sagamino",
    "lat": 35.4715574,
    "lng": 139.4285691,
    "category": "station",
    "prefecture": "kanagawa",
    "osm_id": 823273322,
    "spot_type": "data_spot",
    "data_source": "osm"
  },
  {
    "name": "平沼橋",
    "name_en": "Hiranuma-bashi",
    "lat": 35.4596654,
    "lng": 139.6163426,
    "category": "station",
    "prefecture": "kanagawa",
    "osm_id": 823273354,
    "spot_type": "data_spot",
    "data_source": "osm"
  },
  {
    "name": "高幡不動尊",
    "name_en": "Takahata Fudoson",
    "lat": 35.6622183,
    "lng": 139.4108786,
    "category": "temple",
    "prefecture": "kanagawa",
    "osm_id": 841934372,
    "spot_type": "data_spot",
    "data_source": "osm"
  },
  {
    "name": "居木神社",
    "name_en": "Irugi Jinja",
    "lat": 35.6198531,
    "lng": 139.7252578,
    "category": "shrine",
    "prefecture": "kanagawa",
    "osm_id": 843098167,
    "spot_type": "data_spot",
    "data_source": "osm"
  },
  {
    "name": "六所神社",
    "name_en": "",
    "lat": 35.6585234,
    "lng": 139.6432292,
    "category": "shrine",
    "prefecture": "kanagawa",
    "osm_id": 849454032,
    "spot_type": "data_spot",
    "data_source": "osm"
  },
  {
    "name": "即法寺",
    "name_en": "",
    "lat": 35.6577801,
    "lng": 139.6387183,
    "category": "temple",
    "prefecture": "kanagawa",
    "osm_id": 849460144,
    "spot_type": "data_spot",
    "data_source": "osm"
  },
  {
    "name": "三菱みなとみらい技術館",
    "name_en": "Mitsubishi Minatomirai Industrial Museum",
    "lat": 35.4557307,
    "lng": 139.6300831,
    "category": "museum",
    "prefecture": "kanagawa",
    "osm_id": 863002235,
    "spot_type": "data_spot",
    "data_source": "osm"
  },
  {
    "name": "常楽寺",
    "name_en": "",
    "lat": 35.5203372,
    "lng": 139.4645952,
    "category": "temple",
    "prefecture": "kanagawa",
    "osm_id": 864279754,
    "spot_type": "data_spot",
    "data_source": "osm"
  },
  {
    "name": "八坂神社",
    "name_en": "",
    "lat": 35.5162419,
    "lng": 139.4667343,
    "category": "shrine",
    "prefecture": "kanagawa",
    "osm_id": 864279755,
    "spot_type": "data_spot",
    "data_source": "osm"
  },
  {
    "name": "稚児大師御影堂",
    "name_en": "Chigo Daishi Mieidō",
    "lat": 35.6038205,
    "lng": 139.6462502,
    "category": "temple",
    "prefecture": "kanagawa",
    "osm_id": 865373124,
    "spot_type": "data_spot",
    "data_source": "osm"
  },
  {
    "name": "名称不明",
    "name_en": "",
    "lat": 35.6036726,
    "lng": 139.6465855,
    "category": "temple",
    "prefecture": "kanagawa",
    "osm_id": 865373257,
    "spot_type": "data_spot",
    "data_source": "osm"
  },
  {
    "name": "海上保安資料館 横浜館",
    "name_en": "Japan Coast Guard Museum YOKOHAMA",
    "lat": 35.4542824,
    "lng": 139.6442523,
    "category": "museum",
    "prefecture": "kanagawa",
    "osm_id": 866264010,
    "spot_type": "data_spot",
    "data_source": "osm"
  },
  {
    "name": "円乗院",
    "name_en": "",
    "lat": 35.655422,
    "lng": 139.6609171,
    "category": "temple",
    "prefecture": "kanagawa",
    "osm_id": 873842087,
    "spot_type": "data_spot",
    "data_source": "osm"
  },
  {
    "name": "月見湯温泉",
    "name_en": "",
    "lat": 35.6654718,
    "lng": 139.6359584,
    "category": "onsen",
    "prefecture": "kanagawa",
    "osm_id": 897445502,
    "spot_type": "data_spot",
    "data_source": "osm"
  },
  {
    "name": "伊豆美神社",
    "name_en": "",
    "lat": 35.6346636,
    "lng": 139.5690795,
    "category": "shrine",
    "prefecture": "kanagawa",
    "osm_id": 906797518,
    "spot_type": "data_spot",
    "data_source": "osm"
  },
  {
    "name": "名称不明",
    "name_en": "",
    "lat": 35.5324964,
    "lng": 139.6817075,
    "category": "temple",
    "prefecture": "kanagawa",
    "osm_id": 908395388,
    "spot_type": "data_spot",
    "data_source": "osm"
  },
  {
    "name": "良忠寺",
    "name_en": "",
    "lat": 35.5330028,
    "lng": 139.6808062,
    "category": "temple",
    "prefecture": "kanagawa",
    "osm_id": 908396753,
    "spot_type": "data_spot",
    "data_source": "osm"
  },
  {
    "name": "相武台神社",
    "name_en": "Sōbudai Shrine",
    "lat": 35.4982601,
    "lng": 139.4054019,
    "category": "shrine",
    "prefecture": "kanagawa",
    "osm_id": 919587888,
    "spot_type": "data_spot",
    "data_source": "osm"
  },
  {
    "name": "名称不明",
    "name_en": "",
    "lat": 35.6137315,
    "lng": 139.5774126,
    "category": "temple",
    "prefecture": "kanagawa",
    "osm_id": 926574835,
    "spot_type": "data_spot",
    "data_source": "osm"
  },
  {
    "name": "龍門寺",
    "name_en": "",
    "lat": 35.3737186,
    "lng": 139.2310952,
    "category": "temple",
    "prefecture": "kanagawa",
    "osm_id": 934877570,
    "spot_type": "data_spot",
    "data_source": "osm"
  },
  {
    "name": "旭稲荷神社",
    "name_en": "",
    "lat": 35.6303124,
    "lng": 139.2673308,
    "category": "shrine",
    "prefecture": "kanagawa",
    "osm_id": 943265512,
    "spot_type": "data_spot",
    "data_source": "osm"
  },
  {
    "name": "トリックアート美術館",
    "name_en": "Trick Art Museum",
    "lat": 35.6330141,
    "lng": 139.2712036,
    "category": "museum",
    "prefecture": "kanagawa",
    "osm_id": 943287591,
    "spot_type": "data_spot",
    "data_source": "osm"
  },
  {
    "name": "神変堂",
    "name_en": "",
    "lat": 35.6289519,
    "lng": 139.2517956,
    "category": "temple",
    "prefecture": "kanagawa",
    "osm_id": 944867756,
    "spot_type": "data_spot",
    "data_source": "osm"
  },
  {
    "name": "冬木森稲荷大明神",
    "name_en": "",
    "lat": 35.4987695,
    "lng": 139.6749001,
    "category": "shrine",
    "prefecture": "kanagawa",
    "osm_id": 945228282,
    "spot_type": "data_spot",
    "data_source": "osm"
  },
  {
    "name": "光明山 金剛寺",
    "name_en": "",
    "lat": 35.5159074,
    "lng": 139.6813318,
    "category": "temple",
    "prefecture": "kanagawa",
    "osm_id": 945984360,
    "spot_type": "data_spot",
    "data_source": "osm"
  },
  {
    "name": "光輪成院",
    "name_en": "",
    "lat": 35.6535643,
    "lng": 139.6339258,
    "category": "temple",
    "prefecture": "kanagawa",
    "osm_id": 951386786,
    "spot_type": "data_spot",
    "data_source": "osm"
  },
  {
    "name": "天七岩屋比売神社",
    "name_en": "",
    "lat": 35.6533486,
    "lng": 139.6338078,
    "category": "shrine",
    "prefecture": "kanagawa",
    "osm_id": 951387669,
    "spot_type": "data_spot",
    "data_source": "osm"
  },
  {
    "name": "名称不明",
    "name_en": "",
    "lat": 35.6496456,
    "lng": 139.6279959,
    "category": "shrine",
    "prefecture": "kanagawa",
    "osm_id": 951395371,
    "spot_type": "data_spot",
    "data_source": "osm"
  },
  {
    "name": "浜川崎",
    "name_en": "Hama-Kawasaki",
    "lat": 35.5099281,
    "lng": 139.7138609,
    "category": "station",
    "prefecture": "kanagawa",
    "osm_id": 956052583,
    "spot_type": "data_spot",
    "data_source": "osm"
  },
  {
    "name": "町田市民文学館ことばらんど",
    "name_en": "",
    "lat": 35.5425627,
    "lng": 139.4515503,
    "category": "museum",
    "prefecture": "kanagawa",
    "osm_id": 978844927,
    "spot_type": "data_spot",
    "data_source": "osm"
  },
  {
    "name": "奈良谷戸 山神社",
    "name_en": "",
    "lat": 35.5471806,
    "lng": 139.4784951,
    "category": "shrine",
    "prefecture": "kanagawa",
    "osm_id": 979354840,
    "spot_type": "data_spot",
    "data_source": "osm"
  },
  {
    "name": "福泉寺",
    "name_en": "Fukusenji Temple",
    "lat": 35.6524973,
    "lng": 139.7361114,
    "category": "temple",
    "prefecture": "kanagawa",
    "osm_id": 990952265,
    "spot_type": "data_spot",
    "data_source": "osm"
  },
  {
    "name": "延命院",
    "name_en": "",
    "lat": 35.6483063,
    "lng": 139.732876,
    "category": "temple",
    "prefecture": "kanagawa",
    "osm_id": 994266787,
    "spot_type": "data_spot",
    "data_source": "osm"
  },
  {
    "name": "若松寺",
    "name_en": "",
    "lat": 35.6491366,
    "lng": 139.7324871,
    "category": "temple",
    "prefecture": "kanagawa",
    "osm_id": 994274642,
    "spot_type": "data_spot",
    "data_source": "osm"
  },
  {
    "name": "光林禅寺",
    "name_en": "",
    "lat": 35.6474298,
    "lng": 139.7274751,
    "category": "temple",
    "prefecture": "kanagawa",
    "osm_id": 994299891,
    "spot_type": "data_spot",
    "data_source": "osm"
  },
  {
    "name": "白山神社",
    "name_en": "",
    "lat": 35.5886697,
    "lng": 139.5106697,
    "category": "shrine",
    "prefecture": "kanagawa",
    "osm_id": 996223651,
    "spot_type": "data_spot",
    "data_source": "osm"
  },
  {
    "name": "宿河原八幡宮",
    "name_en": "",
    "lat": 35.6136335,
    "lng": 139.5786587,
    "category": "shrine",
    "prefecture": "kanagawa",
    "osm_id": 1007454611,
    "spot_type": "data_spot",
    "data_source": "osm"
  },
  {
    "name": "赤城神社",
    "name_en": "",
    "lat": 35.599682,
    "lng": 139.5988029,
    "category": "shrine",
    "prefecture": "kanagawa",
    "osm_id": 1010459395,
    "spot_type": "data_spot",
    "data_source": "osm"
  },
  {
    "name": "須賀神社",
    "name_en": "",
    "lat": 35.6124877,
    "lng": 139.5352654,
    "category": "shrine",
    "prefecture": "kanagawa",
    "osm_id": 1010678644,
    "spot_type": "data_spot",
    "data_source": "osm"
  },
  {
    "name": "宝珠院",
    "name_en": "Hoshuin Temple",
    "lat": 35.656536,
    "lng": 139.74633,
    "category": "temple",
    "prefecture": "kanagawa",
    "osm_id": 1015382333,
    "spot_type": "data_spot",
    "data_source": "osm"
  },
  {
    "name": "妙蓮寺",
    "name_en": "Myorenji",
    "lat": 35.4985364,
    "lng": 139.6332256,
    "category": "station",
    "prefecture": "kanagawa",
    "osm_id": 1017449063,
    "spot_type": "data_spot",
    "data_source": "osm"
  },
  {
    "name": "日比谷神社",
    "name_en": "Hibiya-jinja Shrine",
    "lat": 35.6633987,
    "lng": 139.7582964,
    "category": "shrine",
    "prefecture": "kanagawa",
    "osm_id": 1025845868,
    "spot_type": "data_spot",
    "data_source": "osm"
  },
  {
    "name": "世田谷山 観音寺",
    "name_en": "",
    "lat": 35.6364335,
    "lng": 139.6769539,
    "category": "temple",
    "prefecture": "kanagawa",
    "osm_id": 1031179524,
    "spot_type": "data_spot",
    "data_source": "osm"
  },
  {
    "name": "西照寺",
    "name_en": "",
    "lat": 35.6582218,
    "lng": 139.5847916,
    "category": "temple",
    "prefecture": "kanagawa",
    "osm_id": 1035484295,
    "spot_type": "data_spot",
    "data_source": "osm"
  },
  {
    "name": "立正佼成会 川崎教会",
    "name_en": "",
    "lat": 35.5898686,
    "lng": 139.6274757,
    "category": "temple",
    "prefecture": "kanagawa",
    "osm_id": 1054323554,
    "spot_type": "data_spot",
    "data_source": "osm"
  },
  {
    "name": "安養寺",
    "name_en": "",
    "lat": 35.5905273,
    "lng": 139.629455,
    "category": "temple",
    "prefecture": "kanagawa",
    "osm_id": 1054349430,
    "spot_type": "data_spot",
    "data_source": "osm"
  },
  {
    "name": "向井潤吉アトリエ館",
    "name_en": "Junkichi Mukai Atelier Museum",
    "lat": 35.6355896,
    "lng": 139.6556672,
    "category": "museum",
    "prefecture": "kanagawa",
    "osm_id": 1056757093,
    "spot_type": "data_spot",
    "data_source": "osm"
  },
  {
    "name": "金山神社",
    "name_en": "",
    "lat": 35.5319948,
    "lng": 139.4512276,
    "category": "shrine",
    "prefecture": "kanagawa",
    "osm_id": 1065716468,
    "spot_type": "data_spot",
    "data_source": "osm"
  },
  {
    "name": "大和天満宮",
    "name_en": "Yamato Tenmangu",
    "lat": 35.4689078,
    "lng": 139.464962,
    "category": "shrine",
    "prefecture": "kanagawa",
    "osm_id": 1090131236,
    "spot_type": "data_spot",
    "data_source": "osm"
  },
  {
    "name": "深見神社",
    "name_en": "",
    "lat": 35.4686365,
    "lng": 139.4716605,
    "category": "shrine",
    "prefecture": "kanagawa",
    "osm_id": 1090131259,
    "spot_type": "data_spot",
    "data_source": "osm"
  },
  {
    "name": "徳善寺",
    "name_en": "",
    "lat": 35.4724987,
    "lng": 139.4767148,
    "category": "temple",
    "prefecture": "kanagawa",
    "osm_id": 1092830530,
    "spot_type": "data_spot",
    "data_source": "osm"
  },
  {
    "name": "青龍山 勝国寺",
    "name_en": "",
    "lat": 35.6479578,
    "lng": 139.6524011,
    "category": "temple",
    "prefecture": "kanagawa",
    "osm_id": 1093867110,
    "spot_type": "data_spot",
    "data_source": "osm"
  },
  {
    "name": "念空寺",
    "name_en": "",
    "lat": 35.6491834,
    "lng": 139.653075,
    "category": "temple",
    "prefecture": "kanagawa",
    "osm_id": 1093879652,
    "spot_type": "data_spot",
    "data_source": "osm"
  },
  {
    "name": "幸稲荷神社",
    "name_en": "Koinari Shrine",
    "lat": 35.60745,
    "lng": 139.7437657,
    "category": "shrine",
    "prefecture": "kanagawa",
    "osm_id": 1130419693,
    "spot_type": "data_spot",
    "data_source": "osm"
  },
  {
    "name": "淵野辺",
    "name_en": "Fuchinobe",
    "lat": 35.568732,
    "lng": 139.3948202,
    "category": "station",
    "prefecture": "kanagawa",
    "osm_id": 1135519511,
    "spot_type": "data_spot",
    "data_source": "osm"
  },
  {
    "name": "相模原",
    "name_en": "Sagamihara",
    "lat": 35.5814551,
    "lng": 139.37074,
    "category": "station",
    "prefecture": "kanagawa",
    "osm_id": 1135519820,
    "spot_type": "data_spot",
    "data_source": "osm"
  },
  {
    "name": "古淵",
    "name_en": "Kobuchi",
    "lat": 35.5559505,
    "lng": 139.4193144,
    "category": "station",
    "prefecture": "kanagawa",
    "osm_id": 1135521236,
    "spot_type": "data_spot",
    "data_source": "osm"
  },
  {
    "name": "矢部",
    "name_en": "Yabe",
    "lat": 35.5730985,
    "lng": 139.3867585,
    "category": "station",
    "prefecture": "kanagawa",
    "osm_id": 1135522062,
    "spot_type": "data_spot",
    "data_source": "osm"
  },
  {
    "name": "浄土宗 龍原寺",
    "name_en": "Ryugenji Temple",
    "lat": 35.6525408,
    "lng": 139.7397904,
    "category": "temple",
    "prefecture": "kanagawa",
    "osm_id": 1145077203,
    "spot_type": "data_spot",
    "data_source": "osm"
  },
  {
    "name": "綱生山 当光寺",
    "name_en": "Tokoji Temple",
    "lat": 35.6526017,
    "lng": 139.7390717,
    "category": "temple",
    "prefecture": "kanagawa",
    "osm_id": 1145077215,
    "spot_type": "data_spot",
    "data_source": "osm"
  },
  {
    "name": "常祐山 圓徳寺",
    "name_en": "Entokuji Temple",
    "lat": 35.652885,
    "lng": 139.7374196,
    "category": "temple",
    "prefecture": "kanagawa",
    "osm_id": 1145077234,
    "spot_type": "data_spot",
    "data_source": "osm"
  },
  {
    "name": "臨済宗 金地禅院",
    "name_en": "Rinzai sect Kinji Zen-in",
    "lat": 35.6594538,
    "lng": 139.7456915,
    "category": "temple",
    "prefecture": "kanagawa",
    "osm_id": 1145149941,
    "spot_type": "data_spot",
    "data_source": "osm"
  },
  {
    "name": "菅生神社",
    "name_en": "",
    "lat": 35.5975112,
    "lng": 139.5539891,
    "category": "shrine",
    "prefecture": "kanagawa",
    "osm_id": 1146982606,
    "spot_type": "data_spot",
    "data_source": "osm"
  },
  {
    "name": "名称不明",
    "name_en": "",
    "lat": 35.6537401,
    "lng": 139.6171584,
    "category": "shrine",
    "prefecture": "kanagawa",
    "osm_id": 1149052367,
    "spot_type": "data_spot",
    "data_source": "osm"
  },
  {
    "name": "寳性寺",
    "name_en": "",
    "lat": 35.6542036,
    "lng": 139.6172197,
    "category": "temple",
    "prefecture": "kanagawa",
    "osm_id": 1149052369,
    "spot_type": "data_spot",
    "data_source": "osm"
  },
  {
    "name": "琴平神社",
    "name_en": "",
    "lat": 35.5819766,
    "lng": 139.5178591,
    "category": "shrine",
    "prefecture": "kanagawa",
    "osm_id": 1168245286,
    "spot_type": "data_spot",
    "data_source": "osm"
  },
  {
    "name": "NHKスタジオパーク",
    "name_en": "NHK Studio Park",
    "lat": 35.6651148,
    "lng": 139.6965929,
    "category": "museum",
    "prefecture": "kanagawa",
    "osm_id": 1177156758,
    "spot_type": "data_spot",
    "data_source": "osm"
  },
  {
    "name": "身代り不動尊",
    "name_en": "",
    "lat": 35.5969536,
    "lng": 139.6018308,
    "category": "temple",
    "prefecture": "kanagawa",
    "osm_id": 1189334294,
    "spot_type": "data_spot",
    "data_source": "osm"
  },
  {
    "name": "名称不明",
    "name_en": "",
    "lat": 35.600066,
    "lng": 139.5391985,
    "category": "shrine",
    "prefecture": "kanagawa",
    "osm_id": 1194187618,
    "spot_type": "data_spot",
    "data_source": "osm"
  },
  {
    "name": "杉山神社",
    "name_en": "",
    "lat": 35.6119588,
    "lng": 139.4861521,
    "category": "shrine",
    "prefecture": "kanagawa",
    "osm_id": 1210390234,
    "spot_type": "data_spot",
    "data_source": "osm"
  },
  {
    "name": "善正寺",
    "name_en": "",
    "lat": 35.5962473,
    "lng": 139.4914476,
    "category": "temple",
    "prefecture": "kanagawa",
    "osm_id": 1210611050,
    "spot_type": "data_spot",
    "data_source": "osm"
  },
  {
    "name": "名称不明",
    "name_en": "",
    "lat": 35.1428457,
    "lng": 139.6781667,
    "category": "lighthouse",
    "prefecture": "kanagawa",
    "osm_id": 1211620629,
    "spot_type": "data_spot",
    "data_source": "osm"
  },
  {
    "name": "観音埼灯台",
    "name_en": "Kannonzaki Lighthouse",
    "lat": 35.2561422,
    "lng": 139.7452765,
    "category": "lighthouse",
    "prefecture": "kanagawa",
    "osm_id": 1211620706,
    "spot_type": "data_spot",
    "data_source": "osm"
  },
  {
    "name": "名称不明",
    "name_en": "",
    "lat": 35.3117143,
    "lng": 139.7413195,
    "category": "lighthouse",
    "prefecture": "kanagawa",
    "osm_id": 1211620718,
    "spot_type": "data_spot",
    "data_source": "osm"
  },
  {
    "name": "城ヶ島灯台",
    "name_en": "",
    "lat": 35.1350791,
    "lng": 139.6111277,
    "category": "lighthouse",
    "prefecture": "kanagawa",
    "osm_id": 1211621029,
    "spot_type": "data_spot",
    "data_source": "osm"
  },
  {
    "name": "名称不明",
    "name_en": "Jogashima",
    "lat": 35.1393236,
    "lng": 139.6072006,
    "category": "lighthouse",
    "prefecture": "kanagawa",
    "osm_id": 1211621032,
    "spot_type": "data_spot",
    "data_source": "osm"
  },
  {
    "name": "名称不明",
    "name_en": "",
    "lat": 35.1398998,
    "lng": 139.6091898,
    "category": "lighthouse",
    "prefecture": "kanagawa",
    "osm_id": 1211621036,
    "spot_type": "data_spot",
    "data_source": "osm"
  },
  {
    "name": "名称不明",
    "name_en": "",
    "lat": 35.1345762,
    "lng": 139.6279524,
    "category": "lighthouse",
    "prefecture": "kanagawa",
    "osm_id": 1211621042,
    "spot_type": "data_spot",
    "data_source": "osm"
  },
  {
    "name": "名称不明",
    "name_en": "",
    "lat": 35.1555995,
    "lng": 139.6075512,
    "category": "lighthouse",
    "prefecture": "kanagawa",
    "osm_id": 1211621044,
    "spot_type": "data_spot",
    "data_source": "osm"
  },
  {
    "name": "名称不明",
    "name_en": "",
    "lat": 35.2997522,
    "lng": 139.4784733,
    "category": "lighthouse",
    "prefecture": "kanagawa",
    "osm_id": 1211621080,
    "spot_type": "data_spot",
    "data_source": "osm"
  },
  {
    "name": "反町",
    "name_en": "Tammachi",
    "lat": 35.4746815,
    "lng": 139.6252491,
    "category": "station",
    "prefecture": "kanagawa",
    "osm_id": 1218588914,
    "spot_type": "data_spot",
    "data_source": "osm"
  },
  {
    "name": "名称不明",
    "name_en": "",
    "lat": 35.6211052,
    "lng": 139.5619811,
    "category": "shrine",
    "prefecture": "kanagawa",
    "osm_id": 1219055951,
    "spot_type": "data_spot",
    "data_source": "osm"
  },
  {
    "name": "稲荷山 光明院",
    "name_en": "",
    "lat": 35.6210202,
    "lng": 139.562067,
    "category": "temple",
    "prefecture": "kanagawa",
    "osm_id": 1219055954,
    "spot_type": "data_spot",
    "data_source": "osm"
  },
  {
    "name": "登戸稲荷神社",
    "name_en": "",
    "lat": 35.6218198,
    "lng": 139.5634559,
    "category": "shrine",
    "prefecture": "kanagawa",
    "osm_id": 1219056000,
    "spot_type": "data_spot",
    "data_source": "osm"
  },
  {
    "name": "大庭神社",
    "name_en": "",
    "lat": 35.360488,
    "lng": 139.4585014,
    "category": "shrine",
    "prefecture": "kanagawa",
    "osm_id": 1229000716,
    "spot_type": "data_spot",
    "data_source": "osm"
  },
  {
    "name": "成瀬杉山神社",
    "name_en": "",
    "lat": 35.5422803,
    "lng": 139.4779704,
    "category": "shrine",
    "prefecture": "kanagawa",
    "osm_id": 1237302579,
    "spot_type": "data_spot",
    "data_source": "osm"
  },
  {
    "name": "東雲寺",
    "name_en": "",
    "lat": 35.5423954,
    "lng": 139.4787238,
    "category": "temple",
    "prefecture": "kanagawa",
    "osm_id": 1237302595,
    "spot_type": "data_spot",
    "data_source": "osm"
  },
  {
    "name": "天王社",
    "name_en": "",
    "lat": 35.5222825,
    "lng": 139.4909983,
    "category": "shrine",
    "prefecture": "kanagawa",
    "osm_id": 1237975588,
    "spot_type": "data_spot",
    "data_source": "osm"
  },
  {
    "name": "福泉寺",
    "name_en": "",
    "lat": 35.5259864,
    "lng": 139.4937132,
    "category": "temple",
    "prefecture": "kanagawa",
    "osm_id": 1237984937,
    "spot_type": "data_spot",
    "data_source": "osm"
  },
  {
    "name": "長津田 王子神社",
    "name_en": "",
    "lat": 35.5273494,
    "lng": 139.4942966,
    "category": "shrine",
    "prefecture": "kanagawa",
    "osm_id": 1237984938,
    "spot_type": "data_spot",
    "data_source": "osm"
  },
  {
    "name": "新清山 壽福寺",
    "name_en": "",
    "lat": 35.6442231,
    "lng": 139.6876326,
    "category": "temple",
    "prefecture": "kanagawa",
    "osm_id": 1238695587,
    "spot_type": "data_spot",
    "data_source": "osm"
  },
  {
    "name": "三宿神社",
    "name_en": "Mishuku Shrine",
    "lat": 35.6509033,
    "lng": 139.6742356,
    "category": "shrine",
    "prefecture": "kanagawa",
    "osm_id": 1240105704,
    "spot_type": "data_spot",
    "data_source": "osm"
  },
  {
    "name": "富士見湯",
    "name_en": "",
    "lat": 35.6470989,
    "lng": 139.6721354,
    "category": "onsen",
    "prefecture": "kanagawa",
    "osm_id": 1240105735,
    "spot_type": "data_spot",
    "data_source": "osm"
  },
  {
    "name": "善精寺",
    "name_en": "",
    "lat": 35.5610639,
    "lng": 139.3944236,
    "category": "temple",
    "prefecture": "kanagawa",
    "osm_id": 1243562095,
    "spot_type": "data_spot",
    "data_source": "osm"
  },
  {
    "name": "妙現寺",
    "name_en": "",
    "lat": 35.5712266,
    "lng": 139.3796932,
    "category": "temple",
    "prefecture": "kanagawa",
    "osm_id": 1245788923,
    "spot_type": "data_spot",
    "data_source": "osm"
  },
  {
    "name": "二子玉川",
    "name_en": "Futako-tamagawa",
    "lat": 35.6117897,
    "lng": 139.6268002,
    "category": "station",
    "prefecture": "kanagawa",
    "osm_id": 1252108021,
    "spot_type": "data_spot",
    "data_source": "osm"
  },
  {
    "name": "蓮慶寺",
    "name_en": "",
    "lat": 35.4267088,
    "lng": 139.4571645,
    "category": "temple",
    "prefecture": "kanagawa",
    "osm_id": 1269182280,
    "spot_type": "data_spot",
    "data_source": "osm"
  },
  {
    "name": "医王寺",
    "name_en": "",
    "lat": 35.6482852,
    "lng": 139.4876236,
    "category": "temple",
    "prefecture": "kanagawa",
    "osm_id": 1271183117,
    "spot_type": "data_spot",
    "data_source": "osm"
  },
  {
    "name": "日蓮宗 大丸教会",
    "name_en": "",
    "lat": 35.6500158,
    "lng": 139.4908223,
    "category": "temple",
    "prefecture": "kanagawa",
    "osm_id": 1271183127,
    "spot_type": "data_spot",
    "data_source": "osm"
  },
  {
    "name": "旧横浜東水堤灯台",
    "name_en": "",
    "lat": 35.4468327,
    "lng": 139.6516263,
    "category": "lighthouse",
    "prefecture": "kanagawa",
    "osm_id": 1271628898,
    "spot_type": "data_spot",
    "data_source": "osm"
  },
  {
    "name": "福蔵院",
    "name_en": "",
    "lat": 35.4031652,
    "lng": 139.3653328,
    "category": "temple",
    "prefecture": "kanagawa",
    "osm_id": 1276533337,
    "spot_type": "data_spot",
    "data_source": "osm"
  },
  {
    "name": "そしがや温泉21",
    "name_en": "",
    "lat": 35.6456524,
    "lng": 139.6078547,
    "category": "onsen",
    "prefecture": "kanagawa",
    "osm_id": 1279212900,
    "spot_type": "data_spot",
    "data_source": "osm"
  },
  {
    "name": "狸穴稲荷大明神",
    "name_en": "",
    "lat": 35.6582009,
    "lng": 139.7388381,
    "category": "shrine",
    "prefecture": "kanagawa",
    "osm_id": 1279272173,
    "spot_type": "data_spot",
    "data_source": "osm"
  },
  {
    "name": "観音院",
    "name_en": "",
    "lat": 35.6660971,
    "lng": 139.5155342,
    "category": "temple",
    "prefecture": "kanagawa",
    "osm_id": 1282865881,
    "spot_type": "data_spot",
    "data_source": "osm"
  },
  {
    "name": "名称不明",
    "name_en": "",
    "lat": 35.5061733,
    "lng": 139.4474699,
    "category": "shrine",
    "prefecture": "kanagawa",
    "osm_id": 1289165657,
    "spot_type": "data_spot",
    "data_source": "osm"
  },
  {
    "name": "稲荷神社",
    "name_en": "",
    "lat": 35.641365,
    "lng": 139.6113473,
    "category": "shrine",
    "prefecture": "kanagawa",
    "osm_id": 1302807330,
    "spot_type": "data_spot",
    "data_source": "osm"
  },
  {
    "name": "名称不明",
    "name_en": "",
    "lat": 35.484566,
    "lng": 139.3881335,
    "category": "shrine",
    "prefecture": "kanagawa",
    "osm_id": 1313131551,
    "spot_type": "data_spot",
    "data_source": "osm"
  },
  {
    "name": "磯部八幡宮",
    "name_en": "",
    "lat": 35.5104598,
    "lng": 139.3843847,
    "category": "shrine",
    "prefecture": "kanagawa",
    "osm_id": 1314181277,
    "spot_type": "data_spot",
    "data_source": "osm"
  },
  {
    "name": "久本神社",
    "name_en": "Hisamoto Jinja Shrine",
    "lat": 35.5964344,
    "lng": 139.6123669,
    "category": "shrine",
    "prefecture": "kanagawa",
    "osm_id": 1321899977,
    "spot_type": "data_spot",
    "data_source": "osm"
  },
  {
    "name": "龍台寺",
    "name_en": "",
    "lat": 35.593467,
    "lng": 139.6140961,
    "category": "temple",
    "prefecture": "kanagawa",
    "osm_id": 1322004500,
    "spot_type": "data_spot",
    "data_source": "osm"
  },
  {
    "name": "明鏡寺",
    "name_en": "",
    "lat": 35.589253,
    "lng": 139.6126423,
    "category": "temple",
    "prefecture": "kanagawa",
    "osm_id": 1322004507,
    "spot_type": "data_spot",
    "data_source": "osm"
  },
  {
    "name": "杉山神社",
    "name_en": "",
    "lat": 35.5884765,
    "lng": 139.6121542,
    "category": "shrine",
    "prefecture": "kanagawa",
    "osm_id": 1322004516,
    "spot_type": "data_spot",
    "data_source": "osm"
  },
  {
    "name": "神明社",
    "name_en": "",
    "lat": 35.5854568,
    "lng": 139.603016,
    "category": "shrine",
    "prefecture": "kanagawa",
    "osm_id": 1329625894,
    "spot_type": "data_spot",
    "data_source": "osm"
  },
  {
    "name": "千歳台稲荷神社",
    "name_en": "",
    "lat": 35.6564923,
    "lng": 139.6104377,
    "category": "shrine",
    "prefecture": "kanagawa",
    "osm_id": 1332553595,
    "spot_type": "data_spot",
    "data_source": "osm"
  },
  {
    "name": "名称不明",
    "name_en": "",
    "lat": 35.6427061,
    "lng": 139.5011715,
    "category": "shrine",
    "prefecture": "kanagawa",
    "osm_id": 1343513471,
    "spot_type": "data_spot",
    "data_source": "osm"
  },
  {
    "name": "普寛神宮",
    "name_en": "",
    "lat": 35.6356362,
    "lng": 139.4940252,
    "category": "shrine",
    "prefecture": "kanagawa",
    "osm_id": 1346358175,
    "spot_type": "data_spot",
    "data_source": "osm"
  },
  {
    "name": "名称不明",
    "name_en": "",
    "lat": 35.4948474,
    "lng": 139.6302749,
    "category": "temple",
    "prefecture": "kanagawa",
    "osm_id": 1354660081,
    "spot_type": "data_spot",
    "data_source": "osm"
  },
  {
    "name": "淵源山 龍像寺",
    "name_en": "",
    "lat": 35.5616991,
    "lng": 139.415293,
    "category": "temple",
    "prefecture": "kanagawa",
    "osm_id": 1364453714,
    "spot_type": "data_spot",
    "data_source": "osm"
  },
  {
    "name": "芝不動尊",
    "name_en": "",
    "lat": 35.6516186,
    "lng": 139.7527904,
    "category": "temple",
    "prefecture": "kanagawa",
    "osm_id": 1367525152,
    "spot_type": "data_spot",
    "data_source": "osm"
  },
  {
    "name": "長福寺",
    "name_en": "",
    "lat": 35.5071807,
    "lng": 139.6239312,
    "category": "temple",
    "prefecture": "kanagawa",
    "osm_id": 1368657969,
    "spot_type": "data_spot",
    "data_source": "osm"
  },
  {
    "name": "名称不明",
    "name_en": "",
    "lat": 35.5442422,
    "lng": 139.6783842,
    "category": "shrine",
    "prefecture": "kanagawa",
    "osm_id": 1375366602,
    "spot_type": "data_spot",
    "data_source": "osm"
  },
  {
    "name": "名称不明",
    "name_en": "",
    "lat": 35.5014206,
    "lng": 139.6171028,
    "category": "temple",
    "prefecture": "kanagawa",
    "osm_id": 1377897535,
    "spot_type": "data_spot",
    "data_source": "osm"
  },
  {
    "name": "商和稲荷神社",
    "name_en": "",
    "lat": 35.654269,
    "lng": 139.7079852,
    "category": "shrine",
    "prefecture": "kanagawa",
    "osm_id": 1378123985,
    "spot_type": "data_spot",
    "data_source": "osm"
  },
  {
    "name": "小寳稲荷",
    "name_en": "",
    "lat": 35.668933,
    "lng": 139.7520489,
    "category": "shrine",
    "prefecture": "kanagawa",
    "osm_id": 1385629844,
    "spot_type": "data_spot",
    "data_source": "osm"
  },
  {
    "name": "稲荷神社",
    "name_en": "",
    "lat": 35.4983956,
    "lng": 139.6107323,
    "category": "shrine",
    "prefecture": "kanagawa",
    "osm_id": 1387606497,
    "spot_type": "data_spot",
    "data_source": "osm"
  },
  {
    "name": "貴雲寺",
    "name_en": "",
    "lat": 35.4999042,
    "lng": 139.6093114,
    "category": "temple",
    "prefecture": "kanagawa",
    "osm_id": 1387606499,
    "spot_type": "data_spot",
    "data_source": "osm"
  },
  {
    "name": "宝秀寺",
    "name_en": "",
    "lat": 35.4879196,
    "lng": 139.6167951,
    "category": "temple",
    "prefecture": "kanagawa",
    "osm_id": 1394422168,
    "spot_type": "data_spot",
    "data_source": "osm"
  },
  {
    "name": "長遠寺",
    "name_en": "",
    "lat": 35.4903839,
    "lng": 139.6086358,
    "category": "temple",
    "prefecture": "kanagawa",
    "osm_id": 1402462813,
    "spot_type": "data_spot",
    "data_source": "osm"
  },
  {
    "name": "名称不明",
    "name_en": "",
    "lat": 35.5267451,
    "lng": 139.6371636,
    "category": "temple",
    "prefecture": "kanagawa",
    "osm_id": 1404297290,
    "spot_type": "data_spot",
    "data_source": "osm"
  },
  {
    "name": "名称不明",
    "name_en": "",
    "lat": 35.5083636,
    "lng": 139.6385438,
    "category": "temple",
    "prefecture": "kanagawa",
    "osm_id": 1404604774,
    "spot_type": "data_spot",
    "data_source": "osm"
  },
  {
    "name": "鶴嶋天神社",
    "name_en": "",
    "lat": 35.3718971,
    "lng": 139.4766837,
    "category": "shrine",
    "prefecture": "kanagawa",
    "osm_id": 1407003275,
    "spot_type": "data_spot",
    "data_source": "osm"
  },
  {
    "name": "神明社",
    "name_en": "",
    "lat": 35.3687903,
    "lng": 139.4857861,
    "category": "shrine",
    "prefecture": "kanagawa",
    "osm_id": 1407018642,
    "spot_type": "data_spot",
    "data_source": "osm"
  },
  {
    "name": "薬王寺",
    "name_en": "",
    "lat": 35.4875166,
    "lng": 139.6438789,
    "category": "temple",
    "prefecture": "kanagawa",
    "osm_id": 1417310989,
    "spot_type": "data_spot",
    "data_source": "osm"
  },
  {
    "name": "白幡八幡神社",
    "name_en": "",
    "lat": 35.4879698,
    "lng": 139.634337,
    "category": "shrine",
    "prefecture": "kanagawa",
    "osm_id": 1418856124,
    "spot_type": "data_spot",
    "data_source": "osm"
  },
  {
    "name": "ユニセフハウス",
    "name_en": "UNICEF House",
    "lat": 35.627927,
    "lng": 139.73305,
    "category": "museum",
    "prefecture": "kanagawa",
    "osm_id": 1420765386,
    "spot_type": "data_spot",
    "data_source": "osm"
  },
  {
    "name": "世田谷区立郷土資料館",
    "name_en": "Setagaya Local History Museum",
    "lat": 35.641461,
    "lng": 139.647222,
    "category": "museum",
    "prefecture": "kanagawa",
    "osm_id": 1420766065,
    "spot_type": "data_spot",
    "data_source": "osm"
  },
  {
    "name": "世田谷文学館",
    "name_en": "Setagaya Literary Museum",
    "lat": 35.666922,
    "lng": 139.608873,
    "category": "museum",
    "prefecture": "kanagawa",
    "osm_id": 1420766084,
    "spot_type": "data_spot",
    "data_source": "osm"
  },
  {
    "name": "世田谷美術館",
    "name_en": "Setagaya Art Museum",
    "lat": 35.631624,
    "lng": 139.6222,
    "category": "museum",
    "prefecture": "kanagawa",
    "osm_id": 1420766113,
    "spot_type": "data_spot",
    "data_source": "osm"
  },
  {
    "name": "中央区立築地社会教育会館・郷土資料館",
    "name_en": "Tsukiji Local Museum",
    "lat": 35.6664905,
    "lng": 139.7680837,
    "category": "museum",
    "prefecture": "kanagawa",
    "osm_id": 1420766180,
    "spot_type": "data_spot",
    "data_source": "osm"
  },
  {
    "name": "久米美術館",
    "name_en": "Kume Museum of Art",
    "lat": 35.634545,
    "lng": 139.714759,
    "category": "museum",
    "prefecture": "kanagawa",
    "osm_id": 1420766554,
    "spot_type": "data_spot",
    "data_source": "osm"
  },
  {
    "name": "五島美術館",
    "name_en": "Gotoh Museum",
    "lat": 35.612436,
    "lng": 139.6353641,
    "category": "museum",
    "prefecture": "kanagawa",
    "osm_id": 1420766636,
    "spot_type": "data_spot",
    "data_source": "osm"
  },
  {
    "name": "八王子市こども科学館（サイエンスドーム八王子）",
    "name_en": "",
    "lat": 35.664774,
    "lng": 139.327845,
    "category": "museum",
    "prefecture": "kanagawa",
    "osm_id": 1420767670,
    "spot_type": "data_spot",
    "data_source": "osm"
  },
  {
    "name": "古賀政男音楽博物館",
    "name_en": "",
    "lat": 35.6676979,
    "lng": 139.6800138,
    "category": "museum",
    "prefecture": "kanagawa",
    "osm_id": 1420771079,
    "spot_type": "data_spot",
    "data_source": "osm"
  },
  {
    "name": "吉田苞竹記念会館",
    "name_en": "Yoshida Hochiku Memorial Hall",
    "lat": 35.663653,
    "lng": 139.7417064,
    "category": "museum",
    "prefecture": "kanagawa",
    "osm_id": 1420771165,
    "spot_type": "data_spot",
    "data_source": "osm"
  },
  {
    "name": "國學院大學博物館",
    "name_en": "",
    "lat": 35.6562172,
    "lng": 139.7112005,
    "category": "museum",
    "prefecture": "kanagawa",
    "osm_id": 1420771752,
    "spot_type": "data_spot",
    "data_source": "osm"
  },
  {
    "name": "大倉集古館",
    "name_en": "Okura Museum of Art (Okura Shukokan)",
    "lat": 35.666923,
    "lng": 139.7432191,
    "category": "museum",
    "prefecture": "kanagawa",
    "osm_id": 1420772919,
    "spot_type": "data_spot",
    "data_source": "osm"
  },
  {
    "name": "大国魂神社宝物殿",
    "name_en": "",
    "lat": 35.6681332,
    "lng": 139.4785926,
    "category": "museum",
    "prefecture": "kanagawa",
    "osm_id": 1420773057,
    "spot_type": "data_spot",
    "data_source": "osm"
  },
  {
    "name": "大田区多摩川台公園古墳展示室",
    "name_en": "Tamakawadai Park Tumulus Exhibition Room",
    "lat": 35.590134,
    "lng": 139.666945,
    "category": "museum",
    "prefecture": "kanagawa",
    "osm_id": 1420774099,
    "spot_type": "data_spot",
    "data_source": "osm"
  },
  {
    "name": "大田区立郷土博物館",
    "name_en": "",
    "lat": 35.5885312,
    "lng": 139.7106663,
    "category": "museum",
    "prefecture": "kanagawa",
    "osm_id": 1420774303,
    "spot_type": "data_spot",
    "data_source": "osm"
  },
  {
    "name": "大田区立龍子記念館",
    "name_en": "",
    "lat": 35.582343,
    "lng": 139.715623,
    "category": "museum",
    "prefecture": "kanagawa",
    "osm_id": 1420774314,
    "spot_type": "data_spot",
    "data_source": "osm"
  },
  {
    "name": "太田記念美術館",
    "name_en": "Ota Memorial Museum of Art",
    "lat": 35.6693982,
    "lng": 139.7049049,
    "category": "museum",
    "prefecture": "kanagawa",
    "osm_id": 1420774658,
    "spot_type": "data_spot",
    "data_source": "osm"
  },
  {
    "name": "YEBISU BREWERY TOKYO",
    "name_en": "",
    "lat": 35.643088,
    "lng": 139.714541,
    "category": "museum",
    "prefecture": "kanagawa",
    "osm_id": 1420780290,
    "spot_type": "data_spot",
    "data_source": "osm"
  },
  {
    "name": "戸栗美術館",
    "name_en": "Toguri Museum of Art",
    "lat": 35.6614398,
    "lng": 139.6927998,
    "category": "museum",
    "prefecture": "kanagawa",
    "osm_id": 1420780494,
    "spot_type": "data_spot",
    "data_source": "osm"
  },
  {
    "name": "日本民藝館",
    "name_en": "Japanese Folk Crafts Museum",
    "lat": 35.660849,
    "lng": 139.679219,
    "category": "museum",
    "prefecture": "kanagawa",
    "osm_id": 1420781094,
    "spot_type": "data_spot",
    "data_source": "osm"
  },
  {
    "name": "日野市郷土資料館",
    "name_en": "",
    "lat": 35.652482,
    "lng": 139.41149,
    "category": "museum",
    "prefecture": "kanagawa",
    "osm_id": 1420781262,
    "spot_type": "data_spot",
    "data_source": "osm"
  },
  {
    "name": "昭和女子大学光葉博物館",
    "name_en": "Showa Koyo Museum",
    "lat": 35.6435213,
    "lng": 139.677022,
    "category": "museum",
    "prefecture": "kanagawa",
    "osm_id": 1420781419,
    "spot_type": "data_spot",
    "data_source": "osm"
  },
  {
    "name": "杉野学園衣裳博物館",
    "name_en": "Sugino Costume Museum",
    "lat": 35.630742,
    "lng": 139.715856,
    "category": "museum",
    "prefecture": "kanagawa",
    "osm_id": 1420782231,
    "spot_type": "data_spot",
    "data_source": "osm"
  },
  {
    "name": "東京家政学院生活文化博物館",
    "name_en": "",
    "lat": 35.6094954,
    "lng": 139.3117646,
    "category": "museum",
    "prefecture": "kanagawa",
    "osm_id": 1420783928,
    "spot_type": "data_spot",
    "data_source": "osm"
  },
  {
    "name": "東京海洋大学海洋科学部附属水産資料館",
    "name_en": "Tokyo University of Marine Science and Technology, Faculty of Marine Science, Attached Fisheries Museum",
    "lat": 35.626891,
    "lng": 139.747243,
    "category": "museum",
    "prefecture": "kanagawa",
    "osm_id": 1420784622,
    "spot_type": "data_spot",
    "data_source": "osm"
  },
  {
    "name": "東京農業大学「食と農」の博物館",
    "name_en": "Food and Agriculture Museum, Tokyo University of Agriculture",
    "lat": 35.638983,
    "lng": 139.631778,
    "category": "museum",
    "prefecture": "kanagawa",
    "osm_id": 1420785102,
    "spot_type": "data_spot",
    "data_source": "osm"
  },
  {
    "name": "東京都立芸術高等学校美術館",
    "name_en": "High School Art Museum",
    "lat": 35.654509,
    "lng": 139.684615,
    "category": "museum",
    "prefecture": "kanagawa",
    "osm_id": 1420785523,
    "spot_type": "data_spot",
    "data_source": "osm"
  },
  {
    "name": "パナソニック汐留美術館",
    "name_en": "Panasonic Shiodome Museum of Art",
    "lat": 35.665828,
    "lng": 139.761882,
    "category": "museum",
    "prefecture": "kanagawa",
    "osm_id": 1420786016,
    "spot_type": "data_spot",
    "data_source": "osm"
  },
  {
    "name": "松岡美術館",
    "name_en": "Matsuoka Museum of Art",
    "lat": 35.640021,
    "lng": 139.721806,
    "category": "museum",
    "prefecture": "kanagawa",
    "osm_id": 1420786033,
    "spot_type": "data_spot",
    "data_source": "osm"
  },
  {
    "name": "森美術館",
    "name_en": "Mori Art Museum",
    "lat": 35.660432,
    "lng": 139.729261,
    "category": "museum",
    "prefecture": "kanagawa",
    "osm_id": 1420786660,
    "spot_type": "data_spot",
    "data_source": "osm"
  },
  {
    "name": "次大夫堀公園民家園",
    "name_en": "",
    "lat": 35.630659,
    "lng": 139.599562,
    "category": "museum",
    "prefecture": "kanagawa",
    "osm_id": 1420786798,
    "spot_type": "data_spot",
    "data_source": "osm"
  },
  {
    "name": "霊寶殿",
    "name_en": "",
    "lat": 35.5786615,
    "lng": 139.7047202,
    "category": "museum",
    "prefecture": "kanagawa",
    "osm_id": 1420787748,
    "spot_type": "data_spot",
    "data_source": "osm"
  },
  {
    "name": "泉屋博古館東京",
    "name_en": "Sen-Oku Hakukokan Tokyo",
    "lat": 35.665033,
    "lng": 139.741068,
    "category": "museum",
    "prefecture": "kanagawa",
    "osm_id": 1420787831,
    "spot_type": "data_spot",
    "data_source": "osm"
  },
  {
    "name": "港区立港郷土資料館",
    "name_en": "Minato Local Museum",
    "lat": 35.6470718,
    "lng": 139.7452081,
    "category": "museum",
    "prefecture": "kanagawa",
    "osm_id": 1420789248,
    "spot_type": "data_spot",
    "data_source": "osm"
  },
  {
    "name": "物流博物館",
    "name_en": "Logistics Museum",
    "lat": 35.629097,
    "lng": 139.732315,
    "category": "museum",
    "prefecture": "kanagawa",
    "osm_id": 1420789431,
    "spot_type": "data_spot",
    "data_source": "osm"
  },
  {
    "name": "独立行政法人森林総合研究所多摩森林科学園",
    "name_en": "",
    "lat": 35.646281,
    "lng": 139.279012,
    "category": "zoo",
    "prefecture": "kanagawa",
    "osm_id": 1420789611,
    "spot_type": "data_spot",
    "data_source": "osm"
  },
  {
    "name": "玉川大学教育博物館",
    "name_en": "",
    "lat": 35.5693352,
    "lng": 139.4727312,
    "category": "museum",
    "prefecture": "kanagawa",
    "osm_id": 1420789696,
    "spot_type": "data_spot",
    "data_source": "osm"
  },
  {
    "name": "旧町田市立博物館",
    "name_en": "",
    "lat": 35.5674091,
    "lng": 139.4511864,
    "category": "museum",
    "prefecture": "kanagawa",
    "osm_id": 1420790193,
    "spot_type": "data_spot",
    "data_source": "osm"
  },
  {
    "name": "町田市立 自由民権資料館",
    "name_en": "",
    "lat": 35.5888691,
    "lng": 139.4532399,
    "category": "museum",
    "prefecture": "kanagawa",
    "osm_id": 1420790197,
    "spot_type": "data_spot",
    "data_source": "osm"
  },
  {
    "name": "畠山記念館",
    "name_en": "",
    "lat": 35.632242,
    "lng": 139.726938,
    "category": "museum",
    "prefecture": "kanagawa",
    "osm_id": 1420790339,
    "spot_type": "data_spot",
    "data_source": "osm"
  },
  {
    "name": "目黒寄生虫館",
    "name_en": "Meguro Parasitological Museum",
    "lat": 35.6317,
    "lng": 139.706666,
    "category": "museum",
    "prefecture": "kanagawa",
    "osm_id": 1420790484,
    "spot_type": "data_spot",
    "data_source": "osm"
  },
  {
    "name": "船の科学館",
    "name_en": "Museum of Maritime Science",
    "lat": 35.620217,
    "lng": 139.772296,
    "category": "museum",
    "prefecture": "kanagawa",
    "osm_id": 1420796470,
    "spot_type": "data_spot",
    "data_source": "osm"
  },
  {
    "name": "菊池寛実記念智美術館",
    "name_en": "Kikuchi Kanjitsu Memorial Tomo Museum",
    "lat": 35.666041,
    "lng": 139.744605,
    "category": "museum",
    "prefecture": "kanagawa",
    "osm_id": 1420797074,
    "spot_type": "data_spot",
    "data_source": "osm"
  },
  {
    "name": "西山美術館",
    "name_en": "",
    "lat": 35.589513,
    "lng": 139.454415,
    "category": "museum",
    "prefecture": "kanagawa",
    "osm_id": 1420797717,
    "spot_type": "data_spot",
    "data_source": "osm"
  },
  {
    "name": "調布市武者小路実篤記念館",
    "name_en": "",
    "lat": 35.656717,
    "lng": 139.581326,
    "category": "museum",
    "prefecture": "kanagawa",
    "osm_id": 1420797958,
    "spot_type": "data_spot",
    "data_source": "osm"
  },
  {
    "name": "調布市郷土博物館",
    "name_en": "",
    "lat": 35.6467528,
    "lng": 139.5362394,
    "category": "museum",
    "prefecture": "kanagawa",
    "osm_id": 1420797985,
    "spot_type": "data_spot",
    "data_source": "osm"
  },
  {
    "name": "賀川豊彦記念松沢資料館",
    "name_en": "",
    "lat": 35.667897,
    "lng": 139.625945,
    "category": "museum",
    "prefecture": "kanagawa",
    "osm_id": 1420798228,
    "spot_type": "data_spot",
    "data_source": "osm"
  },
  {
    "name": "長泉院附属現代彫刻美術館",
    "name_en": "Museum of Contemporary Sculpture",
    "lat": 35.635908,
    "lng": 139.703051,
    "category": "museum",
    "prefecture": "kanagawa",
    "osm_id": 1420799454,
    "spot_type": "data_spot",
    "data_source": "osm"
  },
  {
    "name": "長谷川町子美術館",
    "name_en": "Hasegawa Machiko Art Museum",
    "lat": 35.6279831,
    "lng": 139.6436212,
    "category": "museum",
    "prefecture": "kanagawa",
    "osm_id": 1420799460,
    "spot_type": "data_spot",
    "data_source": "osm"
  },
  {
    "name": "駒澤大学禅文化歴史博物館",
    "name_en": "Komazawa University Museum of Zen Culture & History",
    "lat": 35.6285028,
    "lng": 139.6581243,
    "category": "museum",
    "prefecture": "kanagawa",
    "osm_id": 1420800113,
    "spot_type": "data_spot",
    "data_source": "osm"
  },
  {
    "name": "齋田記念館",
    "name_en": "",
    "lat": 35.6534177,
    "lng": 139.6599619,
    "category": "museum",
    "prefecture": "kanagawa",
    "osm_id": 1420800621,
    "spot_type": "data_spot",
    "data_source": "osm"
  },
  {
    "name": "ＪＲＡ競馬博物館",
    "name_en": "JRA Race Museum",
    "lat": 35.6662471,
    "lng": 139.4881384,
    "category": "museum",
    "prefecture": "kanagawa",
    "osm_id": 1420800632,
    "spot_type": "data_spot",
    "data_source": "osm"
  },
  {
    "name": "Ｏ美術館",
    "name_en": "O Art Museum",
    "lat": 35.6207352,
    "lng": 139.729299,
    "category": "museum",
    "prefecture": "kanagawa",
    "osm_id": 1420800659,
    "spot_type": "data_spot",
    "data_source": "osm"
  },
  {
    "name": "そごう美術館",
    "name_en": "SOGO Museum of Art",
    "lat": 35.465652,
    "lng": 139.625204,
    "category": "museum",
    "prefecture": "kanagawa",
    "osm_id": 1420812637,
    "spot_type": "data_spot",
    "data_source": "osm"
  },
  {
    "name": "シルク博物館",
    "name_en": "Silk Museum",
    "lat": 35.447237,
    "lng": 139.64523,
    "category": "museum",
    "prefecture": "kanagawa",
    "osm_id": 1420813339,
    "spot_type": "data_spot",
    "data_source": "osm"
  },
  {
    "name": "ブリキのおもちゃ博物館",
    "name_en": "Museum of Tin Toys",
    "lat": 35.437639,
    "lng": 139.653063,
    "category": "museum",
    "prefecture": "kanagawa",
    "osm_id": 1420813409,
    "spot_type": "data_spot",
    "data_source": "osm"
  },
  {
    "name": "ミツトヨ博物館",
    "name_en": "",
    "lat": 35.5965268,
    "lng": 139.6204986,
    "category": "museum",
    "prefecture": "kanagawa",
    "osm_id": 1420813438,
    "spot_type": "data_spot",
    "data_source": "osm"
  },
  {
    "name": "三宮郷土博物館",
    "name_en": "",
    "lat": 35.401349,
    "lng": 139.284437,
    "category": "museum",
    "prefecture": "kanagawa",
    "osm_id": 1420813521,
    "spot_type": "data_spot",
    "data_source": "osm"
  },
  {
    "name": "横浜三渓園",
    "name_en": "Sankei-en",
    "lat": 35.417037,
    "lng": 139.658776,
    "category": "museum",
    "prefecture": "kanagawa",
    "osm_id": 1420813557,
    "spot_type": "data_spot",
    "data_source": "osm"
  },
  {
    "name": "伊勢原市立子ども科学館",
    "name_en": "Isehara Science Center",
    "lat": 35.4039103,
    "lng": 139.3140446,
    "category": "museum",
    "prefecture": "kanagawa",
    "osm_id": 1420814483,
    "spot_type": "data_spot",
    "data_source": "osm"
  },
  {
    "name": "光と緑の美術館",
    "name_en": "",
    "lat": 35.564287,
    "lng": 139.363657,
    "category": "museum",
    "prefecture": "kanagawa",
    "osm_id": 1420814728,
    "spot_type": "data_spot",
    "data_source": "osm"
  },