[
  {
    "name": "新利府",
    "name_en": "Shin-Rifu",
    "lat": 38.3169889,
    "lng": 140.9728144,
    "category": "station",
    "prefecture": "miyagi",
    "osm_id": 244879012,
    "spot_type": "data_spot",
    "data_source": "osm"
  },
  {
    "name": "天童",
    "name_en": "Tendo",
    "lat": 38.3599623,
    "lng": 140.3695642,
    "category": "station",
    "prefecture": "miyagi",
    "osm_id": 263224072,
    "spot_type": "data_spot",
    "data_source": "osm"
  },
  {
    "name": "かみのやま温泉",
    "name_en": "Kaminoyama-Onsen",
    "lat": 38.1520989,
    "lng": 140.2785301,
    "category": "station",
    "prefecture": "miyagi",
    "osm_id": 263229121,
    "spot_type": "data_spot",
    "data_source": "osm"
  },
  {
    "name": "平野",
    "name_en": "Hirano",
    "lat": 37.8054388,
    "lng": 140.4428112,
    "category": "station",
    "prefecture": "miyagi",
    "osm_id": 263239925,
    "spot_type": "data_spot",
    "data_source": "osm"
  },
  {
    "name": "あぶくま",
    "name_en": "Abukuma",
    "lat": 37.913718,
    "lng": 140.686133,
    "category": "station",
    "prefecture": "miyagi",
    "osm_id": 263242985,
    "spot_type": "data_spot",
    "data_source": "osm"
  },
  {
    "name": "やながわ希望の森公園前",
    "name_en": "Yanagawa Kibonomori Koen-mae",
    "lat": 37.8574948,
    "lng": 140.6155192,
    "category": "station",
    "prefecture": "miyagi",
    "osm_id": 263243929,
    "spot_type": "data_spot",
    "data_source": "osm"
  },
  {
    "name": "富野",
    "name_en": "Tomino",
    "lat": 37.874438,
    "lng": 140.6272908,
    "category": "station",
    "prefecture": "miyagi",
    "osm_id": 263244900,
    "spot_type": "data_spot",
    "data_source": "osm"
  },
  {
    "name": "丸森",
    "name_en": "Marumori",
    "lat": 37.9305042,
    "lng": 140.7615591,
    "category": "station",
    "prefecture": "miyagi",
    "osm_id": 263245073,
    "spot_type": "data_spot",
    "data_source": "osm"
  },
  {
    "name": "岡",
    "name_en": "Oka",
    "lat": 38.0191386,
    "lng": 140.7805741,
    "category": "station",
    "prefecture": "miyagi",
    "osm_id": 263246566,
    "spot_type": "data_spot",
    "data_source": "osm"
  },
  {
    "name": "兜",
    "name_en": "Kabuto",
    "lat": 37.8954216,
    "lng": 140.6466114,
    "category": "station",
    "prefecture": "miyagi",
    "osm_id": 263246581,
    "spot_type": "data_spot",
    "data_source": "osm"
  },
  {
    "name": "山ノ目",
    "name_en": "Yamanome",
    "lat": 38.9513097,
    "lng": 141.1317803,
    "category": "station",
    "prefecture": "miyagi",
    "osm_id": 264170285,
    "spot_type": "data_spot",
    "data_source": "osm"
  },
  {
    "name": "田尻",
    "name_en": "Tajiri",
    "lat": 38.5961483,
    "lng": 141.0588401,
    "category": "station",
    "prefecture": "miyagi",
    "osm_id": 264170299,
    "spot_type": "data_spot",
    "data_source": "osm"
  },
  {
    "name": "新田",
    "name_en": "Nitta",
    "lat": 38.7118149,
    "lng": 141.1199073,
    "category": "station",
    "prefecture": "miyagi",
    "osm_id": 264170585,
    "spot_type": "data_spot",
    "data_source": "osm"
  },
  {
    "name": "平泉",
    "name_en": "Hiraizumi",
    "lat": 38.9880865,
    "lng": 141.1176428,
    "category": "station",
    "prefecture": "miyagi",
    "osm_id": 264170614,
    "spot_type": "data_spot",
    "data_source": "osm"
  },
  {
    "name": "清水原",
    "name_en": "Shimizuhara",
    "lat": 38.8547504,
    "lng": 141.1568388,
    "category": "station",
    "prefecture": "miyagi",
    "osm_id": 264171726,
    "spot_type": "data_spot",
    "data_source": "osm"
  },
  {
    "name": "品井沼",
    "name_en": "Shinainuma",
    "lat": 38.4315961,
    "lng": 141.0822902,
    "category": "station",
    "prefecture": "miyagi",
    "osm_id": 264172881,
    "spot_type": "data_spot",
    "data_source": "osm"
  },
  {
    "name": "梅ヶ沢",
    "name_en": "Umegasawa",
    "lat": 38.6816912,
    "lng": 141.0855599,
    "category": "station",
    "prefecture": "miyagi",
    "osm_id": 264173718,
    "spot_type": "data_spot",
    "data_source": "osm"
  },
  {
    "name": "松山町",
    "name_en": "Matsuyamamachi",
    "lat": 38.512263,
    "lng": 141.0751387,
    "category": "station",
    "prefecture": "miyagi",
    "osm_id": 264173827,
    "spot_type": "data_spot",
    "data_source": "osm"
  },
  {
    "name": "有壁",
    "name_en": "Arikabe",
    "lat": 38.8673725,
    "lng": 141.1211596,
    "category": "station",
    "prefecture": "miyagi",
    "osm_id": 264174370,
    "spot_type": "data_spot",
    "data_source": "osm"
  },
  {
    "name": "船岡",
    "name_en": "Funaoka",
    "lat": 38.0594138,
    "lng": 140.7680113,
    "category": "station",
    "prefecture": "miyagi",
    "osm_id": 264175299,
    "spot_type": "data_spot",
    "data_source": "osm"
  },
  {
    "name": "大河原",
    "name_en": "Ogawara",
    "lat": 38.0474645,
    "lng": 140.740428,
    "category": "station",
    "prefecture": "miyagi",
    "osm_id": 264176370,
    "spot_type": "data_spot",
    "data_source": "osm"
  },
  {
    "name": "岩ノ下",
    "name_en": "Iwanoshita",
    "lat": 38.947444,
    "lng": 141.2450701,
    "category": "station",
    "prefecture": "miyagi",
    "osm_id": 264265148,
    "spot_type": "data_spot",
    "data_source": "osm"
  },
  {
    "name": "折壁",
    "name_en": "Orikabe",
    "lat": 38.9395086,
    "lng": 141.4523978,
    "category": "station",
    "prefecture": "miyagi",
    "osm_id": 264265150,
    "spot_type": "data_spot",
    "data_source": "osm"
  },
  {
    "name": "摺沢",
    "name_en": "Surisawa",
    "lat": 38.9959683,
    "lng": 141.3214278,
    "category": "station",
    "prefecture": "miyagi",
    "osm_id": 264265153,
    "spot_type": "data_spot",
    "data_source": "osm"
  },
  {
    "name": "千厩",
    "name_en": "Senmaya",
    "lat": 38.924595,
    "lng": 141.3457671,
    "category": "station",
    "prefecture": "miyagi",
    "osm_id": 264265353,
    "spot_type": "data_spot",
    "data_source": "osm"
  },
  {
    "name": "陸中門崎",
    "name_en": "Rikuchu-Kanzaki",
    "lat": 38.9170742,
    "lng": 141.2512569,
    "category": "station",
    "prefecture": "miyagi",
    "osm_id": 264265945,
    "spot_type": "data_spot",
    "data_source": "osm"
  },
  {
    "name": "陸中松川",
    "name_en": "Rikuchu-Matsukawa",
    "lat": 38.9763985,
    "lng": 141.2375962,
    "category": "station",
    "prefecture": "miyagi",
    "osm_id": 264266939,
    "spot_type": "data_spot",
    "data_source": "osm"
  },
  {
    "name": "新月",
    "name_en": "Niitsuki",
    "lat": 38.915438,
    "lng": 141.489317,
    "category": "station",
    "prefecture": "miyagi",
    "osm_id": 264266941,
    "spot_type": "data_spot",
    "data_source": "osm"
  },
  {
    "name": "矢越",
    "name_en": "Yagoshi",
    "lat": 38.9352621,
    "lng": 141.429451,
    "category": "station",
    "prefecture": "miyagi",
    "osm_id": 264268636,
    "spot_type": "data_spot",
    "data_source": "osm"
  },
  {
    "name": "柴宿",
    "name_en": "Shibajyuku",
    "lat": 38.9968015,
    "lng": 141.2724368,
    "category": "station",
    "prefecture": "miyagi",
    "osm_id": 264269176,
    "spot_type": "data_spot",
    "data_source": "osm"
  },
  {
    "name": "小梨",
    "name_en": "Konashi",
    "lat": 38.9325448,
    "lng": 141.3844211,
    "category": "station",
    "prefecture": "miyagi",
    "osm_id": 264269517,
    "spot_type": "data_spot",
    "data_source": "osm"
  },
  {
    "name": "真滝",
    "name_en": "Mataki",
    "lat": 38.9084404,
    "lng": 141.1779262,
    "category": "station",
    "prefecture": "miyagi",
    "osm_id": 264269846,
    "spot_type": "data_spot",
    "data_source": "osm"
  },
  {
    "name": "陸前戸倉",
    "name_en": "Rikuzen-Togura",
    "lat": 38.647832,
    "lng": 141.4333712,
    "category": "station",
    "prefecture": "miyagi",
    "osm_id": 264270539,
    "spot_type": "data_spot",
    "data_source": "osm"
  },
  {
    "name": "陸前階上",
    "name_en": "Rikuzen-Hashikami",
    "lat": 38.8375413,
    "lng": 141.580537,
    "category": "station",
    "prefecture": "miyagi",
    "osm_id": 264270557,
    "spot_type": "data_spot",
    "data_source": "osm"
  },
  {
    "name": "陸前横山",
    "name_en": "Rikuzen-Yokoyama",
    "lat": 38.6308879,
    "lng": 141.3537995,
    "category": "station",
    "prefecture": "miyagi",
    "osm_id": 264270721,
    "spot_type": "data_spot",
    "data_source": "osm"
  },
  {
    "name": "最知",
    "name_en": "Saichi",
    "lat": 38.8534361,
    "lng": 141.5813908,
    "category": "station",
    "prefecture": "miyagi",
    "osm_id": 264270743,
    "spot_type": "data_spot",
    "data_source": "osm"
  },
  {
    "name": "本吉",
    "name_en": "Motoyoshi",
    "lat": 38.786442,
    "lng": 141.5026524,
    "category": "station",
    "prefecture": "miyagi",
    "osm_id": 264270822,
    "spot_type": "data_spot",
    "data_source": "osm"
  },
  {
    "name": "陸前小泉",
    "name_en": "Rikuzen-Koizumi",
    "lat": 38.7666937,
    "lng": 141.5093315,
    "category": "station",
    "prefecture": "miyagi",
    "osm_id": 264270829,
    "spot_type": "data_spot",
    "data_source": "osm"
  },
  {
    "name": "南気仙沼",
    "name_en": "Minami-Kesennuma",
    "lat": 38.8952748,
    "lng": 141.5760589,
    "category": "station",
    "prefecture": "miyagi",
    "osm_id": 264271162,
    "spot_type": "data_spot",
    "data_source": "osm"
  },
  {
    "name": "清水浜",
    "name_en": "Shizuhama",
    "lat": 38.6918748,
    "lng": 141.4896089,
    "category": "station",
    "prefecture": "miyagi",
    "osm_id": 264271436,
    "spot_type": "data_spot",
    "data_source": "osm"
  },
  {
    "name": "のの岳",
    "name_en": "Nonodake",
    "lat": 38.5531667,
    "lng": 141.2257896,
    "category": "station",
    "prefecture": "miyagi",
    "osm_id": 264271438,
    "spot_type": "data_spot",
    "data_source": "osm"
  },
  {
    "name": "柳津",
    "name_en": "Yanaizu",
    "lat": 38.6116887,
    "lng": 141.3059037,
    "category": "station",
    "prefecture": "miyagi",
    "osm_id": 264271485,
    "spot_type": "data_spot",
    "data_source": "osm"
  },
  {
    "name": "陸前港",
    "name_en": "Rikuzen-Minato",
    "lat": 38.7391817,
    "lng": 141.5310138,
    "category": "station",
    "prefecture": "miyagi",
    "osm_id": 264271486,
    "spot_type": "data_spot",
    "data_source": "osm"
  },
  {
    "name": "蔵内",
    "name_en": "Kurauchi",
    "lat": 38.7536612,
    "lng": 141.5246606,
    "category": "station",
    "prefecture": "miyagi",
    "osm_id": 264271501,
    "spot_type": "data_spot",
    "data_source": "osm"
  },
  {
    "name": "御岳堂",
    "name_en": "Mitakedo",
    "lat": 38.6056937,
    "lng": 141.2648016,
    "category": "station",
    "prefecture": "miyagi",
    "osm_id": 264271502,
    "spot_type": "data_spot",
    "data_source": "osm"
  },
  {
    "name": "不動の沢",
    "name_en": "Fudōnosawa",
    "lat": 38.8984556,
    "lng": 141.5626248,
    "category": "station",
    "prefecture": "miyagi",
    "osm_id": 264271522,
    "spot_type": "data_spot",
    "data_source": "osm"
  },
  {
    "name": "陸前豊里",
    "name_en": "Rikuzen-Toyosato",
    "lat": 38.5825764,
    "lng": 141.2444137,
    "category": "station",
    "prefecture": "miyagi",
    "osm_id": 264271912,
    "spot_type": "data_spot",
    "data_source": "osm"
  },
  {
    "name": "和渕",
    "name_en": "Wabuchi",
    "lat": 38.5262126,
    "lng": 141.2207116,
    "category": "station",
    "prefecture": "miyagi",
    "osm_id": 264272322,
    "spot_type": "data_spot",
    "data_source": "osm"
  },
  {
    "name": "岩出山",
    "name_en": "Iwadeyama",
    "lat": 38.6523452,
    "lng": 140.8717017,
    "category": "station",
    "prefecture": "miyagi",
    "osm_id": 264400447,
    "spot_type": "data_spot",
    "data_source": "osm"
  },
  {
    "name": "陸前谷地",
    "name_en": "Rikuzen-Yachi",
    "lat": 38.5650268,
    "lng": 141.0000733,
    "category": "station",
    "prefecture": "miyagi",
    "osm_id": 264400488,
    "spot_type": "data_spot",
    "data_source": "osm"
  },
  {
    "name": "池月",
    "name_en": "Ikezuki",
    "lat": 38.7091634,
    "lng": 140.8355215,
    "category": "station",
    "prefecture": "miyagi",
    "osm_id": 264400676,
    "spot_type": "data_spot",
    "data_source": "osm"
  },
  {
    "name": "塚目",
    "name_en": "Tsukanome",
    "lat": 38.5725298,
    "lng": 140.9369507,
    "category": "station",
    "prefecture": "miyagi",
    "osm_id": 264400678,
    "spot_type": "data_spot",
    "data_source": "osm"
  },
  {
    "name": "上野目",
    "name_en": "Kaminome",
    "lat": 38.6803172,
    "lng": 140.8593878,
    "category": "station",
    "prefecture": "miyagi",
    "osm_id": 264400764,
    "spot_type": "data_spot",
    "data_source": "osm"
  },
  {
    "name": "東大崎",
    "name_en": "Higashi-Osaki",
    "lat": 38.6059529,
    "lng": 140.897232,
    "category": "station",
    "prefecture": "miyagi",
    "osm_id": 264400765,
    "spot_type": "data_spot",
    "data_source": "osm"
  },
  {
    "name": "鳴子温泉",
    "name_en": "Naruko-Onsen",
    "lat": 38.743466,
    "lng": 140.716093,
    "category": "station",
    "prefecture": "miyagi",
    "osm_id": 264400820,
    "spot_type": "data_spot",
    "data_source": "osm"
  },
  {
    "name": "北浦",
    "name_en": "Kitaura",
    "lat": 38.559972,
    "lng": 141.0226175,
    "category": "station",
    "prefecture": "miyagi",
    "osm_id": 264400823,
    "spot_type": "data_spot",
    "data_source": "osm"
  },
  {
    "name": "有備館",
    "name_en": "Yubikan",
    "lat": 38.6582256,
    "lng": 140.8638948,
    "category": "station",
    "prefecture": "miyagi",
    "osm_id": 264400864,
    "spot_type": "data_spot",
    "data_source": "osm"
  },
  {
    "name": "川渡温泉",
    "name_en": "Kawatabi-Onsen",
    "lat": 38.7367402,
    "lng": 140.7801528,
    "category": "station",
    "prefecture": "miyagi",
    "osm_id": 264400919,
    "spot_type": "data_spot",
    "data_source": "osm"
  },
  {
    "name": "赤倉温泉",
    "name_en": "Akakura-Onsen",
    "lat": 38.7305706,
    "lng": 140.5537397,
    "category": "station",
    "prefecture": "miyagi",
    "osm_id": 264400959,
    "spot_type": "data_spot",
    "data_source": "osm"
  },
  {
    "name": "西大崎",
    "name_en": "Nishi-Osaki",
    "lat": 38.6303048,
    "lng": 140.8896365,
    "category": "station",
    "prefecture": "miyagi",
    "osm_id": 264400962,
    "spot_type": "data_spot",
    "data_source": "osm"
  },
  {
    "name": "鳴子御殿湯",
    "name_en": "Naruko-Gotenyu",
    "lat": 38.7445129,
    "lng": 140.7373203,
    "category": "station",
    "prefecture": "miyagi",
    "osm_id": 264400966,
    "spot_type": "data_spot",
    "data_source": "osm"
  },
  {
    "name": "西古川",
    "name_en": "Nishi-Furukawa",
    "lat": 38.5783466,
    "lng": 140.8952747,
    "category": "station",
    "prefecture": "miyagi",
    "osm_id": 264400968,
    "spot_type": "data_spot",
    "data_source": "osm"
  },
  {
    "name": "堺田",
    "name_en": "Sakaida",
    "lat": 38.7352699,
    "lng": 140.6134414,
    "category": "station",
    "prefecture": "miyagi",
    "osm_id": 264401245,
    "spot_type": "data_spot",
    "data_source": "osm"
  },
  {
    "name": "鵜杉",
    "name_en": "Usugi",
    "lat": 38.7649613,
    "lng": 140.4542354,
    "category": "station",
    "prefecture": "miyagi",
    "osm_id": 264401562,
    "spot_type": "data_spot",
    "data_source": "osm"
  },
  {
    "name": "立小路",
    "name_en": "Tachikoji",
    "lat": 38.7420882,
    "lng": 140.5427453,
    "category": "station",
    "prefecture": "miyagi",
    "osm_id": 264401569,
    "spot_type": "data_spot",
    "data_source": "osm"
  },
  {
    "name": "最上",
    "name_en": "Mogami",
    "lat": 38.7561662,
    "lng": 140.5173539,
    "category": "station",
    "prefecture": "miyagi",
    "osm_id": 264401575,
    "spot_type": "data_spot",
    "data_source": "osm"
  },
  {
    "name": "東長沢",
    "name_en": "Higashi-Nagasawa",
    "lat": 38.718747,
    "lng": 140.3820899,
    "category": "station",
    "prefecture": "miyagi",
    "osm_id": 264401913,
    "spot_type": "data_spot",
    "data_source": "osm"
  },
  {
    "name": "長沢",
    "name_en": "Nagasawa",
    "lat": 38.7097377,
    "lng": 140.3660094,
    "category": "station",
    "prefecture": "miyagi",
    "osm_id": 264402016,
    "spot_type": "data_spot",
    "data_source": "osm"
  },
  {
    "name": "瀬見温泉",
    "name_en": "Semi-Onsen",
    "lat": 38.7550211,
    "lng": 140.4203867,
    "category": "station",
    "prefecture": "miyagi",
    "osm_id": 264402018,
    "spot_type": "data_spot",
    "data_source": "osm"
  },
  {
    "name": "新庄",
    "name_en": "Shinjo",
    "lat": 38.7626088,
    "lng": 140.30602,
    "category": "station",
    "prefecture": "miyagi",
    "osm_id": 264402336,
    "spot_type": "data_spot",
    "data_source": "osm"
  },
  {
    "name": "浜吉田",
    "name_en": "Hamayoshida",
    "lat": 38.0023133,
    "lng": 140.8898789,
    "category": "station",
    "prefecture": "miyagi",
    "osm_id": 264403020,
    "spot_type": "data_spot",
    "data_source": "osm"
  },
  {
    "name": "相馬",
    "name_en": "Soma",
    "lat": 37.8028828,
    "lng": 140.9254798,
    "category": "station",
    "prefecture": "miyagi",
    "osm_id": 264403655,
    "spot_type": "data_spot",
    "data_source": "osm"
  },
  {
    "name": "女川",
    "name_en": "Onagawa",
    "lat": 38.4468109,
    "lng": 141.4435933,
    "category": "station",
    "prefecture": "miyagi",
    "osm_id": 264404856,
    "spot_type": "data_spot",
    "data_source": "osm"
  },
  {
    "name": "渡波",
    "name_en": "Watanoha",
    "lat": 38.419843,
    "lng": 141.3650127,
    "category": "station",
    "prefecture": "miyagi",
    "osm_id": 264404860,
    "spot_type": "data_spot",
    "data_source": "osm"
  },
  {
    "name": "万石浦",
    "name_en": "Mangoku-Ura",
    "lat": 38.4290947,
    "lng": 141.3690561,
    "category": "station",
    "prefecture": "miyagi",
    "osm_id": 264404868,
    "spot_type": "data_spot",
    "data_source": "osm"
  },
  {
    "name": "沢田",
    "name_en": "Sawada",
    "lat": 38.4323145,
    "lng": 141.382387,
    "category": "station",
    "prefecture": "miyagi",
    "osm_id": 264404870,
    "spot_type": "data_spot",
    "data_source": "osm"
  },
  {
    "name": "陸前稲井",
    "name_en": "Rikuzen-Inai",
    "lat": 38.4454259,
    "lng": 141.3350339,
    "category": "station",
    "prefecture": "miyagi",
    "osm_id": 264404931,
    "spot_type": "data_spot",
    "data_source": "osm"
  },
  {
    "name": "浦宿",
    "name_en": "Urashuku",
    "lat": 38.436569,
    "lng": 141.4214896,
    "category": "station",
    "prefecture": "miyagi",
    "osm_id": 264404950,
    "spot_type": "data_spot",
    "data_source": "osm"
  },
  {
    "name": "曽波神",
    "name_en": "Sobanokami",
    "lat": 38.4657712,
    "lng": 141.287946,
    "category": "station",
    "prefecture": "miyagi",
    "osm_id": 264405147,
    "spot_type": "data_spot",
    "data_source": "osm"
  },
  {
    "name": "鹿又",
    "name_en": "Kanomata",
    "lat": 38.4858262,
    "lng": 141.2828856,
    "category": "station",
    "prefecture": "miyagi",
    "osm_id": 264405596,
    "spot_type": "data_spot",
    "data_source": "osm"
  },
  {
    "name": "涌谷",
    "name_en": "Wakuya",
    "lat": 38.5377483,
    "lng": 141.1278028,
    "category": "station",
    "prefecture": "miyagi",
    "osm_id": 264405714,
    "spot_type": "data_spot",
    "data_source": "osm"
  },
  {
    "name": "前谷地",
    "name_en": "Maeyachi",
    "lat": 38.5123152,
    "lng": 141.1938703,
    "category": "station",
    "prefecture": "miyagi",
    "osm_id": 264405758,
    "spot_type": "data_spot",
    "data_source": "osm"
  },
  {
    "name": "上涌谷",
    "name_en": "Kami-Wakuya",
    "lat": 38.5492627,
    "lng": 141.0993993,
    "category": "station",
    "prefecture": "miyagi",
    "osm_id": 264405825,
    "spot_type": "data_spot",
    "data_source": "osm"
  },
  {
    "name": "仙台",
    "name_en": "Sendai",
    "lat": 38.2597526,
    "lng": 140.8800249,
    "category": "station",
    "prefecture": "miyagi",
    "osm_id": 264415884,
    "spot_type": "data_spot",
    "data_source": "osm"
  },
  {
    "name": "くりこま高原",
    "name_en": "Kurikoma-Kogen",
    "lat": 38.7487399,
    "lng": 141.0716092,
    "category": "station",
    "prefecture": "miyagi",
    "osm_id": 265031015,
    "spot_type": "data_spot",
    "data_source": "osm"
  },
  {
    "name": "古川",
    "name_en": "Furukawa",
    "lat": 38.5705529,
    "lng": 140.9679338,
    "category": "station",
    "prefecture": "miyagi",
    "osm_id": 265031031,
    "spot_type": "data_spot",
    "data_source": "osm"
  },
  {
    "name": "秋乃宮博物館",
    "name_en": "Akinomiya Museum",
    "lat": 38.9601409,
    "lng": 140.5301006,
    "category": "museum",
    "prefecture": "miyagi",
    "osm_id": 863048026,
    "spot_type": "data_spot",
    "data_source": "osm"
  },
  {
    "name": "郷社刈田峯神社",
    "name_en": "",
    "lat": 38.1246085,
    "lng": 140.5765942,
    "category": "shrine",
    "prefecture": "miyagi",
    "osm_id": 864725679,
    "spot_type": "data_spot",
    "data_source": "osm"
  },
  {
    "name": "こけし館",
    "name_en": "Kokeshi Museum",
    "lat": 38.120475,
    "lng": 140.573216,
    "category": "museum",
    "prefecture": "miyagi",
    "osm_id": 864725692,
    "spot_type": "data_spot",
    "data_source": "osm"
  },
  {
    "name": "瑞巌寺",
    "name_en": "Zuigan-ji Temple",
    "lat": 38.3721758,
    "lng": 141.0595579,
    "category": "temple",
    "prefecture": "miyagi",
    "osm_id": 870453209,
    "spot_type": "data_spot",
    "data_source": "osm"
  },
  {
    "name": "名称不明",
    "name_en": "",
    "lat": 37.7780556,
    "lng": 140.4463697,
    "category": "shrine",
    "prefecture": "miyagi",
    "osm_id": 942265178,
    "spot_type": "data_spot",
    "data_source": "osm"
  },
  {
    "name": "岩切城跡",
    "name_en": "",
    "lat": 38.3138095,
    "lng": 140.939726,
    "category": "castle",
    "prefecture": "miyagi",
    "osm_id": 1001085154,
    "spot_type": "data_spot",
    "data_source": "osm"
  },
  {
    "name": "円通院",
    "name_en": "Entsu-in",
    "lat": 38.3712885,
    "lng": 141.0599598,
    "category": "temple",
    "prefecture": "miyagi",
    "osm_id": 1209848627,
    "spot_type": "data_spot",
    "data_source": "osm"
  },
  {
    "name": "名称不明",
    "name_en": "",
    "lat": 38.2964174,
    "lng": 141.4270602,
    "category": "lighthouse",
    "prefecture": "miyagi",
    "osm_id": 1211619428,
    "spot_type": "data_spot",
    "data_source": "osm"
  },
  {
    "name": "石ノ森萬画館",
    "name_en": "Ishinomori Manga Museum",
    "lat": 38.4295754,
    "lng": 141.3107621,
    "category": "museum",
    "prefecture": "miyagi",
    "osm_id": 1217256687,
    "spot_type": "data_spot",
    "data_source": "osm"
  },
  {
    "name": "旧堀切邸",
    "name_en": "",
    "lat": 37.8332669,
    "lng": 140.4524253,
    "category": "museum",
    "prefecture": "miyagi",
    "osm_id": 1727693689,
    "spot_type": "data_spot",
    "data_source": "osm"
  },
  {
    "name": "東北大学植物園",
    "name_en": "Tohoku University Botanical Gardens",
    "lat": 38.2559755,
    "lng": 140.851464,
    "category": "museum",
    "prefecture": "miyagi",
    "osm_id": 1744460187,
    "spot_type": "data_spot",
    "data_source": "osm"
  },
  {
    "name": "名称不明",
    "name_en": "",
    "lat": 38.3759348,
    "lng": 141.0718685,
    "category": "museum",
    "prefecture": "miyagi",
    "osm_id": 1945208975,
    "spot_type": "data_spot",
    "data_source": "osm"
  },
  {
    "name": "ベルギーオルゲールミュージアム",
    "name_en": "Belgium Orgel Museum",
    "lat": 38.3721757,
    "lng": 141.0668269,
    "category": "museum",
    "prefecture": "miyagi",
    "osm_id": 1945208982,
    "spot_type": "data_spot",
    "data_source": "osm"
  },
  {
    "name": "塩釜神社博物館",
    "name_en": "Shiogama Shrine Museum",
    "lat": 38.3181987,
    "lng": 141.0150931,
    "category": "museum",
    "prefecture": "miyagi",
    "osm_id": 2148806975,
    "spot_type": "data_spot",
    "data_source": "osm"
  },
  {
    "name": "鳥屋神社",
    "name_en": "",
    "lat": 38.431397,
    "lng": 141.302809,
    "category": "shrine",
    "prefecture": "miyagi",
    "osm_id": 2164679603,
    "spot_type": "data_spot",
    "data_source": "osm"
  },
  {
    "name": "佳景山",
    "name_en": "Kakeyama",
    "lat": 38.4979581,
    "lng": 141.2395823,
    "category": "station",
    "prefecture": "miyagi",
    "osm_id": 2194720290,
    "spot_type": "data_spot",
    "data_source": "osm"
  },
  {
    "name": "豊川稲荷",
    "name_en": "",
    "lat": 38.433278,
    "lng": 141.304979,
    "category": "shrine",
    "prefecture": "miyagi",
    "osm_id": 2265382108,
    "spot_type": "data_spot",
    "data_source": "osm"
  },
  {
    "name": "名称不明",
    "name_en": "",
    "lat": 38.434869,
    "lng": 141.311288,
    "category": "shrine",
    "prefecture": "miyagi",
    "osm_id": 2265446952,
    "spot_type": "data_spot",
    "data_source": "osm"
  },
  {
    "name": "名称不明",
    "name_en": "",
    "lat": 38.4346475,
    "lng": 141.310847,
    "category": "shrine",
    "prefecture": "miyagi",
    "osm_id": 2265506332,
    "spot_type": "data_spot",
    "data_source": "osm"
  },
  {
    "name": "縄張神社",
    "name_en": "",
    "lat": 38.4342982,
    "lng": 141.3085283,
    "category": "shrine",
    "prefecture": "miyagi",
    "osm_id": 2265507094,
    "spot_type": "data_spot",
    "data_source": "osm"
  },
  {
    "name": "ラドンサウナ石巻",
    "name_en": "",
    "lat": 38.4352851,
    "lng": 141.3112458,
    "category": "onsen",
    "prefecture": "miyagi",
    "osm_id": 2265516147,
    "spot_type": "data_spot",
    "data_source": "osm"
  },
  {
    "name": "大島神社",
    "name_en": "",
    "lat": 38.4339921,
    "lng": 141.311318,
    "category": "shrine",
    "prefecture": "miyagi",
    "osm_id": 2265523428,
    "spot_type": "data_spot",
    "data_source": "osm"
  },
  {
    "name": "愛宕神社",
    "name_en": "",
    "lat": 38.4342052,
    "lng": 141.3113447,
    "category": "shrine",
    "prefecture": "miyagi",
    "osm_id": 2265527464,
    "spot_type": "data_spot",
    "data_source": "osm"
  },
  {
    "name": "稲荷神社",
    "name_en": "",
    "lat": 38.4340081,
    "lng": 141.3114568,
    "category": "shrine",
    "prefecture": "miyagi",
    "osm_id": 2267152101,
    "spot_type": "data_spot",
    "data_source": "osm"
  },
  {
    "name": "永厳寺",
    "name_en": "",
    "lat": 38.4296527,
    "lng": 141.3051706,
    "category": "temple",
    "prefecture": "miyagi",
    "osm_id": 2267267175,
    "spot_type": "data_spot",
    "data_source": "osm"
  },
  {
    "name": "日権現",
    "name_en": "",
    "lat": 38.380425,
    "lng": 141.069161,
    "category": "shrine",
    "prefecture": "miyagi",
    "osm_id": 2271179658,
    "spot_type": "data_spot",
    "data_source": "osm"
  },
  {
    "name": "温麺の館 うーめん・こけし・白石和紙",
    "name_en": "",
    "lat": 37.995593,
    "lng": 140.63315,
    "category": "museum",
    "prefecture": "miyagi",
    "osm_id": 2285176669,
    "spot_type": "data_spot",
    "data_source": "osm"
  },
  {
    "name": "弥次郎こけし村",
    "name_en": "",
    "lat": 38.035397,
    "lng": 140.572714,
    "category": "museum",
    "prefecture": "miyagi",
    "osm_id": 2285228481,
    "spot_type": "data_spot",
    "data_source": "osm"
  },
  {
    "name": "こけし神社",
    "name_en": "",
    "lat": 38.035692,
    "lng": 140.571994,
    "category": "shrine",
    "prefecture": "miyagi",
    "osm_id": 2285236523,
    "spot_type": "data_spot",
    "data_source": "osm"
  },
  {
    "name": "山神神社",
    "name_en": "",
    "lat": 38.117955,
    "lng": 140.569822,
    "category": "shrine",
    "prefecture": "miyagi",
    "osm_id": 2286349694,
    "spot_type": "data_spot",
    "data_source": "osm"
  },
  {
    "name": "峰神社",
    "name_en": "",
    "lat": 38.118029,
    "lng": 140.569921,
    "category": "shrine",
    "prefecture": "miyagi",
    "osm_id": 2286349979,
    "spot_type": "data_spot",
    "data_source": "osm"
  },
  {
    "name": "稲荷神社",
    "name_en": "",
    "lat": 38.118062,
    "lng": 140.570017,
    "category": "shrine",
    "prefecture": "miyagi",
    "osm_id": 2286350005,
    "spot_type": "data_spot",
    "data_source": "osm"
  },
  {
    "name": "惟喬神社",
    "name_en": "",
    "lat": 38.117905,
    "lng": 140.569724,
    "category": "shrine",
    "prefecture": "miyagi",
    "osm_id": 2286350118,
    "spot_type": "data_spot",
    "data_source": "osm"
  },
  {
    "name": "神の湯",
    "name_en": "",
    "lat": 38.124205,
    "lng": 140.577237,
    "category": "onsen",
    "prefecture": "miyagi",
    "osm_id": 2286379666,
    "spot_type": "data_spot",
    "data_source": "osm"
  },
  {
    "name": "足湯",
    "name_en": "",
    "lat": 38.124016,
    "lng": 140.577143,
    "category": "onsen",
    "prefecture": "miyagi",
    "osm_id": 2286379801,
    "spot_type": "data_spot",
    "data_source": "osm"
  },
  {
    "name": "壽の湯",
    "name_en": "",
    "lat": 38.123244,
    "lng": 140.578612,
    "category": "onsen",
    "prefecture": "miyagi",
    "osm_id": 2286395814,
    "spot_type": "data_spot",
    "data_source": "osm"
  },
  {
    "name": "足湯",
    "name_en": "",
    "lat": 38.2254129,
    "lng": 140.7269037,
    "category": "onsen",
    "prefecture": "miyagi",
    "osm_id": 2287622953,
    "spot_type": "data_spot",
    "data_source": "osm"
  },
  {
    "name": "カメイ美術館",
    "name_en": "Kamei Museum",
    "lat": 38.2548262,
    "lng": 140.8813435,
    "category": "museum",
    "prefecture": "miyagi",
    "osm_id": 2288615204,
    "spot_type": "data_spot",
    "data_source": "osm"
  },
  {
    "name": "湯神神社",
    "name_en": "",
    "lat": 38.333916,
    "lng": 140.613839,
    "category": "shrine",
    "prefecture": "miyagi",
    "osm_id": 2288802085,
    "spot_type": "data_spot",
    "data_source": "osm"
  },
  {
    "name": "皇太明神神社",
    "name_en": "",
    "lat": 38.7368081,
    "lng": 140.6977241,
    "category": "shrine",
    "prefecture": "miyagi",
    "osm_id": 2289936035,
    "spot_type": "data_spot",
    "data_source": "osm"
  },
  {
    "name": "日本こけし館",
    "name_en": "",
    "lat": 38.7363431,
    "lng": 140.6975382,
    "category": "museum",
    "prefecture": "miyagi",
    "osm_id": 2289949971,
    "spot_type": "data_spot",
    "data_source": "osm"
  },
  {
    "name": "足湯",
    "name_en": "",
    "lat": 38.744539,
    "lng": 140.719127,
    "category": "onsen",
    "prefecture": "miyagi",
    "osm_id": 2290060752,
    "spot_type": "data_spot",
    "data_source": "osm"
  },
  {
    "name": "湯めぐり広場 手湯",
    "name_en": "",
    "lat": 38.7431214,
    "lng": 140.7171206,
    "category": "onsen",
    "prefecture": "miyagi",
    "osm_id": 2290064455,
    "spot_type": "data_spot",
    "data_source": "osm"
  },
  {
    "name": "滝の湯",
    "name_en": "Taki no Yu",
    "lat": 38.7415436,
    "lng": 140.7178562,
    "category": "onsen",
    "prefecture": "miyagi",
    "osm_id": 2290111025,
    "spot_type": "data_spot",
    "data_source": "osm"
  },
  {
    "name": "温泉神社",
    "name_en": "",
    "lat": 38.7408037,
    "lng": 140.71641,
    "category": "shrine",
    "prefecture": "miyagi",
    "osm_id": 2290245402,
    "spot_type": "data_spot",
    "data_source": "osm"
  },
  {
    "name": "ぽっぽの足湯",
    "name_en": "",
    "lat": 38.743184,
    "lng": 140.7160605,
    "category": "onsen",
    "prefecture": "miyagi",
    "osm_id": 2290259198,
    "spot_type": "data_spot",
    "data_source": "osm"
  },
  {
    "name": "ほっとパーク足湯",
    "name_en": "",
    "lat": 38.7426396,
    "lng": 140.7162472,
    "category": "onsen",
    "prefecture": "miyagi",
    "osm_id": 2290280538,
    "spot_type": "data_spot",
    "data_source": "osm"
  },
  {
    "name": "足湯",
    "name_en": "",
    "lat": 38.74447,
    "lng": 140.718012,
    "category": "onsen",
    "prefecture": "miyagi",
    "osm_id": 2290735004,
    "spot_type": "data_spot",
    "data_source": "osm"
  },
  {
    "name": "足湯",
    "name_en": "",
    "lat": 38.748221,
    "lng": 140.727135,
    "category": "onsen",
    "prefecture": "miyagi",
    "osm_id": 2290739395,
    "spot_type": "data_spot",
    "data_source": "osm"
  },
  {
    "name": "賀茂神社",
    "name_en": "",
    "lat": 38.9627838,
    "lng": 141.6311778,
    "category": "shrine",
    "prefecture": "miyagi",
    "osm_id": 2364922568,
    "spot_type": "data_spot",
    "data_source": "osm"
  },
  {
    "name": "村田城",
    "name_en": "",
    "lat": 38.1182653,
    "lng": 140.7207058,
    "category": "castle",
    "prefecture": "miyagi",
    "osm_id": 2483243930,
    "spot_type": "data_spot",
    "data_source": "osm"
  },
  {
    "name": "相馬神社",
    "name_en": "",
    "lat": 37.7982324,
    "lng": 140.9145294,
    "category": "shrine",
    "prefecture": "miyagi",
    "osm_id": 2483254258,
    "spot_type": "data_spot",
    "data_source": "osm"
  },
  {
    "name": "相馬中村神社",
    "name_en": "",
    "lat": 37.797275,
    "lng": 140.913059,
    "category": "shrine",
    "prefecture": "miyagi",
    "osm_id": 2483254289,
    "spot_type": "data_spot",
    "data_source": "osm"
  },
  {
    "name": "志津川",
    "name_en": "Shizugawa",
    "lat": 38.6796396,
    "lng": 141.4468945,
    "category": "station",
    "prefecture": "miyagi",
    "osm_id": 2493411817,
    "spot_type": "data_spot",
    "data_source": "osm"
  },
  {
    "name": "仙台市戦災復興記念館",
    "name_en": "",
    "lat": 38.2608558,
    "lng": 140.8670616,
    "category": "museum",
    "prefecture": "miyagi",
    "osm_id": 2494582238,
    "spot_type": "data_spot",
    "data_source": "osm"
  },
  {
    "name": "名称不明",
    "name_en": "",
    "lat": 38.9072918,
    "lng": 141.5790435,
    "category": "shrine",
    "prefecture": "miyagi",
    "osm_id": 2495986380,
    "spot_type": "data_spot",
    "data_source": "osm"
  },
  {
    "name": "五十鈴神社",
    "name_en": "",
    "lat": 38.9070893,
    "lng": 141.5791857,
    "category": "shrine",
    "prefecture": "miyagi",
    "osm_id": 2495986401,
    "spot_type": "data_spot",
    "data_source": "osm"
  },
  {
    "name": "猪狩神社",
    "name_en": "",
    "lat": 38.9064738,
    "lng": 141.5790099,
    "category": "shrine",
    "prefecture": "miyagi",
    "osm_id": 2495986403,
    "spot_type": "data_spot",
    "data_source": "osm"
  },
  {
    "name": "南三陸町役場・病院前",
    "name_en": "Minami-Sanriku Town Office・Hospital",
    "lat": 38.6791846,
    "lng": 141.4627181,
    "category": "station",
    "prefecture": "miyagi",
    "osm_id": 2512630999,
    "spot_type": "data_spot",
    "data_source": "osm"
  },
  {
    "name": "陸前高砂",
    "name_en": "Rikuzen-Takasago",
    "lat": 38.2735609,
    "lng": 140.9680029,
    "category": "station",
    "prefecture": "miyagi",
    "osm_id": 2552963359,
    "spot_type": "data_spot",
    "data_source": "osm"
  },
  {
    "name": "下増田神社",
    "name_en": "",
    "lat": 38.1370446,
    "lng": 140.9357131,
    "category": "shrine",
    "prefecture": "miyagi",
    "osm_id": 2574316240,
    "spot_type": "data_spot",
    "data_source": "osm"
  },
  {
    "name": "名称不明",
    "name_en": "",
    "lat": 38.7446621,
    "lng": 140.7197059,
    "category": "temple",
    "prefecture": "miyagi",
    "osm_id": 2621419923,
    "spot_type": "data_spot",
    "data_source": "osm"
  },
  {
    "name": "美與利大明神",
    "name_en": "Miyori Daimyojin Shrine",
    "lat": 38.3004213,
    "lng": 141.4185071,
    "category": "shrine",
    "prefecture": "miyagi",
    "osm_id": 2655823889,
    "spot_type": "data_spot",
    "data_source": "osm"
  },
  {
    "name": "閖上湊神社",
    "name_en": "Yuriageminato-jinja Shrine",
    "lat": 38.1724425,
    "lng": 140.9537576,
    "category": "shrine",
    "prefecture": "miyagi",
    "osm_id": 2708085738,
    "spot_type": "data_spot",
    "data_source": "osm"
  },
  {
    "name": "気仙沼",
    "name_en": "Kesennuma",
    "lat": 38.909879,
    "lng": 141.5592196,
    "category": "station",
    "prefecture": "miyagi",
    "osm_id": 2729956033,
    "spot_type": "data_spot",
    "data_source": "osm"
  },
  {
    "name": "八木山動物公園",
    "name_en": "Yagiyama Zoological Park",
    "lat": 38.2433949,
    "lng": 140.8440117,
    "category": "station",
    "prefecture": "miyagi",
    "osm_id": 2748877938,
    "spot_type": "data_spot",
    "data_source": "osm"
  },
  {
    "name": "青葉山",
    "name_en": "Aobayama",
    "lat": 38.2552501,
    "lng": 140.8353433,
    "category": "station",
    "prefecture": "miyagi",
    "osm_id": 2748877942,
    "spot_type": "data_spot",
    "data_source": "osm"
  },
  {
    "name": "名称不明",
    "name_en": "",
    "lat": 38.3081495,
    "lng": 140.3931605,
    "category": "shrine",
    "prefecture": "miyagi",
    "osm_id": 2800173263,
    "spot_type": "data_spot",
    "data_source": "osm"
  },
  {
    "name": "名称不明",
    "name_en": "",
    "lat": 38.308792,
    "lng": 140.3916707,
    "category": "temple",
    "prefecture": "miyagi",
    "osm_id": 2800173265,
    "spot_type": "data_spot",
    "data_source": "osm"
  },
  {
    "name": "相馬市歴史民俗資料館",
    "name_en": "",
    "lat": 37.796374,
    "lng": 140.919882,
    "category": "museum",
    "prefecture": "miyagi",
    "osm_id": 2834551401,
    "spot_type": "data_spot",
    "data_source": "osm"
  },
  {
    "name": "北野天満宮",
    "name_en": "",
    "lat": 37.7966314,
    "lng": 140.913437,
    "category": "shrine",
    "prefecture": "miyagi",
    "osm_id": 2834663691,
    "spot_type": "data_spot",
    "data_source": "osm"
  },
  {
    "name": "国王舎",
    "name_en": "",
    "lat": 37.797287,
    "lng": 140.912826,
    "category": "shrine",
    "prefecture": "miyagi",
    "osm_id": 2834663692,
    "spot_type": "data_spot",
    "data_source": "osm"
  },
  {
    "name": "松尾神社",
    "name_en": "",
    "lat": 37.7974537,
    "lng": 140.9132087,
    "category": "shrine",
    "prefecture": "miyagi",
    "osm_id": 2834663697,
    "spot_type": "data_spot",
    "data_source": "osm"
  },
  {
    "name": "御水神舎",
    "name_en": "",
    "lat": 37.7972655,
    "lng": 140.9128946,
    "category": "shrine",
    "prefecture": "miyagi",
    "osm_id": 2834664302,
    "spot_type": "data_spot",
    "data_source": "osm"
  },
  {
    "name": "塩釜神社 黄金神社",
    "name_en": "",
    "lat": 37.7974122,
    "lng": 140.9132262,
    "category": "shrine",
    "prefecture": "miyagi",
    "osm_id": 2834664307,
    "spot_type": "data_spot",
    "data_source": "osm"
  },
  {
    "name": "劔社",
    "name_en": "",
    "lat": 37.7981607,
    "lng": 140.9143466,
    "category": "shrine",
    "prefecture": "miyagi",
    "osm_id": 2834722590,
    "spot_type": "data_spot",
    "data_source": "osm"
  },
  {
    "name": "亘理町立郷土資料館",
    "name_en": "",
    "lat": 38.0400722,
    "lng": 140.8615588,
    "category": "museum",
    "prefecture": "miyagi",
    "osm_id": 2834837501,
    "spot_type": "data_spot",
    "data_source": "osm"
  },
  {
    "name": "名称不明",
    "name_en": "",
    "lat": 38.4789562,
    "lng": 140.386509,
    "category": "shrine",
    "prefecture": "miyagi",
    "osm_id": 2959552855,
    "spot_type": "data_spot",
    "data_source": "osm"
  },
  {
    "name": "南三陸ストーリー",
    "name_en": "",
    "lat": 38.6857366,
    "lng": 141.4403197,
    "category": "museum",
    "prefecture": "miyagi",
    "osm_id": 2982084643,
    "spot_type": "data_spot",
    "data_source": "osm"
  },
  {
    "name": "名称不明",
    "name_en": "",
    "lat": 38.860436,
    "lng": 141.5834441,
    "category": "shrine",
    "prefecture": "miyagi",
    "osm_id": 2982468634,
    "spot_type": "data_spot",
    "data_source": "osm"
  },
  {
    "name": "松岩",
    "name_en": "Matsuiwa",
    "lat": 38.8738703,
    "lng": 141.5836271,
    "category": "station",
    "prefecture": "miyagi",
    "osm_id": 2982468643,
    "spot_type": "data_spot",
    "data_source": "osm"
  },
  {
    "name": "伏見稲荷神社",
    "name_en": "Fushimi Inari Jinja Shrine",
    "lat": 38.256785,
    "lng": 140.88417,
    "category": "shrine",
    "prefecture": "miyagi",
    "osm_id": 3090575055,
    "spot_type": "data_spot",
    "data_source": "osm"
  },
  {
    "name": "仙台アンパンマンこどもミュージアム&モール",
    "name_en": "Sendai Anpanman Children's Museum and Mall",
    "lat": 38.2641806,
    "lng": 140.8875014,
    "category": "museum",
    "prefecture": "miyagi",
    "osm_id": 3090575056,
    "spot_type": "data_spot",
    "data_source": "osm"
  },
  {
    "name": "大谷海岸",
    "name_en": "Ōyakaigan",
    "lat": 38.8147111,
    "lng": 141.562549,
    "category": "station",
    "prefecture": "miyagi",
    "osm_id": 3160545768,
    "spot_type": "data_spot",
    "data_source": "osm"
  },
  {
    "name": "名称不明",
    "name_en": "",
    "lat": 38.6671681,
    "lng": 141.4439853,
    "category": "shrine",
    "prefecture": "miyagi",
    "osm_id": 3162364565,
    "spot_type": "data_spot",
    "data_source": "osm"
  },
  {
    "name": "蓮華寺",
    "name_en": "",
    "lat": 38.0592322,
    "lng": 140.7724959,
    "category": "temple",
    "prefecture": "miyagi",
    "osm_id": 3374475410,
    "spot_type": "data_spot",
    "data_source": "osm"
  },
  {
    "name": "秋葉神社",
    "name_en": "",
    "lat": 38.0535722,
    "lng": 140.768953,
    "category": "shrine",
    "prefecture": "miyagi",
    "osm_id": 3374512076,
    "spot_type": "data_spot",
    "data_source": "osm"
  },
  {
    "name": "大光寺",
    "name_en": "",
    "lat": 38.0534681,
    "lng": 140.7670174,
    "category": "temple",
    "prefecture": "miyagi",
    "osm_id": 3374512077,
    "spot_type": "data_spot",
    "data_source": "osm"
  },
  {
    "name": "白鳥神社",
    "name_en": "",
    "lat": 38.0554576,
    "lng": 140.7635885,
    "category": "temple",
    "prefecture": "miyagi",
    "osm_id": 3374512078,
    "spot_type": "data_spot",
    "data_source": "osm"
  },
  {
    "name": "貴船神社",
    "name_en": "",
    "lat": 38.0549282,
    "lng": 140.7881596,
    "category": "temple",
    "prefecture": "miyagi",
    "osm_id": 3374512082,
    "spot_type": "data_spot",
    "data_source": "osm"
  },
  {
    "name": "徳成寺",
    "name_en": "",
    "lat": 38.0550022,
    "lng": 140.7937579,
    "category": "temple",
    "prefecture": "miyagi",
    "osm_id": 3374513597,
    "spot_type": "data_spot",
    "data_source": "osm"
  },
  {
    "name": "しばたの郷土館",
    "name_en": "",
    "lat": 38.0556464,
    "lng": 140.7624365,
    "category": "museum",
    "prefecture": "miyagi",
    "osm_id": 3380626444,
    "spot_type": "data_spot",
    "data_source": "osm"
  },
  {
    "name": "伝承館",
    "name_en": "",
    "lat": 38.0550318,
    "lng": 140.762465,
    "category": "museum",
    "prefecture": "miyagi",
    "osm_id": 3380626445,
    "spot_type": "data_spot",
    "data_source": "osm"
  },
  {
    "name": "法源寺",
    "name_en": "",
    "lat": 38.0514096,
    "lng": 140.7578499,
    "category": "temple",
    "prefecture": "miyagi",
    "osm_id": 3380630780,
    "spot_type": "data_spot",
    "data_source": "osm"
  },
  {
    "name": "照源禅寺",
    "name_en": "",
    "lat": 38.4424847,
    "lng": 141.4347207,
    "category": "temple",
    "prefecture": "miyagi",
    "osm_id": 3405140404,
    "spot_type": "data_spot",
    "data_source": "osm"
  },
  {
    "name": "妙照寺",
    "name_en": "",
    "lat": 38.4378649,
    "lng": 141.4396546,
    "category": "temple",
    "prefecture": "miyagi",
    "osm_id": 3405140406,
    "spot_type": "data_spot",
    "data_source": "osm"
  },
  {
    "name": "名称不明",
    "name_en": "",
    "lat": 38.4466726,
    "lng": 141.4534499,
    "category": "shrine",
    "prefecture": "miyagi",
    "osm_id": 3405140408,
    "spot_type": "data_spot",
    "data_source": "osm"
  },
  {
    "name": "女川温泉ゆぽっぽ",
    "name_en": "yupo'po",
    "lat": 38.4468865,
    "lng": 141.4440051,
    "category": "onsen",
    "prefecture": "miyagi",
    "osm_id": 3420763658,
    "spot_type": "data_spot",
    "data_source": "osm"
  },
  {
    "name": "名称不明",
    "name_en": "",
    "lat": 38.4286561,
    "lng": 141.3681246,
    "category": "shrine",
    "prefecture": "miyagi",
    "osm_id": 3420763666,
    "spot_type": "data_spot",
    "data_source": "osm"
  },
  {
    "name": "足湯",
    "name_en": "",
    "lat": 38.4467629,
    "lng": 141.444032,
    "category": "onsen",
    "prefecture": "miyagi",
    "osm_id": 3420765003,
    "spot_type": "data_spot",
    "data_source": "osm"
  },
  {
    "name": "石巻",
    "name_en": "Ishinomaki",
    "lat": 38.4352418,
    "lng": 141.3038047,
    "category": "station",
    "prefecture": "miyagi",
    "osm_id": 3570916493,
    "spot_type": "data_spot",
    "data_source": "osm"
  },
  {
    "name": "松島",
    "name_en": "Matsushima",
    "lat": 38.3799813,
    "lng": 141.0659166,
    "category": "station",
    "prefecture": "miyagi",
    "osm_id": 3570916494,
    "spot_type": "data_spot",
    "data_source": "osm"
  },
  {
    "name": "松島海岸",
    "name_en": "Matsushima-Kaigan",
    "lat": 38.3678491,
    "lng": 141.0589956,
    "category": "station",
    "prefecture": "miyagi",
    "osm_id": 3570916495,
    "spot_type": "data_spot",
    "data_source": "osm"
  },
  {
    "name": "長町",
    "name_en": "Nagamachi",
    "lat": 38.2268046,
    "lng": 140.8855577,
    "category": "station",
    "prefecture": "miyagi",
    "osm_id": 3570916496,
    "spot_type": "data_spot",
    "data_source": "osm"
  },
  {
    "name": "陸前山下",
    "name_en": "Rikuzen-Yamashita",
    "lat": 38.4374889,
    "lng": 141.2879979,
    "category": "station",
    "prefecture": "miyagi",
    "osm_id": 3570916497,
    "spot_type": "data_spot",
    "data_source": "osm"
  },
  {
    "name": "仙台",
    "name_en": "Sendai",
    "lat": 38.2603516,
    "lng": 140.8823921,
    "category": "station",
    "prefecture": "miyagi",
    "osm_id": 3570916502,
    "spot_type": "data_spot",
    "data_source": "osm"
  },
  {
    "name": "陸前白沢",
    "name_en": "Rikuzen-Shirasawa",
    "lat": 38.2781762,
    "lng": 140.7022141,
    "category": "station",
    "prefecture": "miyagi",
    "osm_id": 3585108727,
    "spot_type": "data_spot",
    "data_source": "osm"
  },
  {
    "name": "作並",
    "name_en": "Sakunami",
    "lat": 38.3178791,
    "lng": 140.6324489,
    "category": "station",
    "prefecture": "miyagi",
    "osm_id": 3585108730,
    "spot_type": "data_spot",
    "data_source": "osm"
  },
  {
    "name": "高瀬",
    "name_en": "Takase",
    "lat": 38.3014954,
    "lng": 140.39607,
    "category": "station",
    "prefecture": "miyagi",
    "osm_id": 3585108732,
    "spot_type": "data_spot",
    "data_source": "osm"
  },
  {
    "name": "楯山",
    "name_en": "Tateyama",
    "lat": 38.3016195,
    "lng": 140.370593,
    "category": "station",
    "prefecture": "miyagi",
    "osm_id": 3585108734,
    "spot_type": "data_spot",
    "data_source": "osm"
  },
  {
    "name": "東北福祉大前",
    "name_en": "Tohoku Fukushi University",
    "lat": 38.2803707,
    "lng": 140.842515,
    "category": "station",
    "prefecture": "miyagi",
    "osm_id": 3585108736,
    "spot_type": "data_spot",
    "data_source": "osm"
  },
  {
    "name": "東照宮",
    "name_en": "Toshogu",
    "lat": 38.2773598,
    "lng": 140.8863968,
    "category": "station",
    "prefecture": "miyagi",
    "osm_id": 3585108737,
    "spot_type": "data_spot",
    "data_source": "osm"
  },
  {
    "name": "羽前千歳",
    "name_en": "Uzen-Chitose",
    "lat": 38.2872691,
    "lng": 140.3422441,
    "category": "station",
    "prefecture": "miyagi",
    "osm_id": 3585108739,
    "spot_type": "data_spot",
    "data_source": "osm"
  },
  {
    "name": "山寺",
    "name_en": "Yamadera",
    "lat": 38.3095946,
    "lng": 140.434729,
    "category": "station",
    "prefecture": "miyagi",
    "osm_id": 3585108742,
    "spot_type": "data_spot",
    "data_source": "osm"
  },
  {
    "name": "山形",
    "name_en": "Yamagata",
    "lat": 38.2484701,
    "lng": 140.3278031,
    "category": "station",
    "prefecture": "miyagi",
    "osm_id": 3585108748,
    "spot_type": "data_spot",
    "data_source": "osm"
  },
  {
    "name": "愛子",
    "name_en": "Ayashi",
    "lat": 38.2727717,
    "lng": 140.761571,
    "category": "station",
    "prefecture": "miyagi",
    "osm_id": 3585108873,
    "spot_type": "data_spot",
    "data_source": "osm"
  },
  {
    "name": "北仙台",
    "name_en": "Kita-Sendai",
    "lat": 38.2817626,
    "lng": 140.8696768,
    "category": "station",
    "prefecture": "miyagi",
    "osm_id": 3585108876,
    "spot_type": "data_spot",
    "data_source": "osm"
  },
  {
    "name": "北山形",
    "name_en": "Kita-Yamagata",
    "lat": 38.2655514,
    "lng": 140.3324675,
    "category": "station",
    "prefecture": "miyagi",
    "osm_id": 3585108879,
    "spot_type": "data_spot",
    "data_source": "osm"
  },
  {
    "name": "北山",
    "name_en": "Kitayama",
    "lat": 38.2850866,
    "lng": 140.8513927,
    "category": "station",
    "prefecture": "miyagi",
    "osm_id": 3585108884,
    "spot_type": "data_spot",
    "data_source": "osm"
  },
  {
    "name": "熊ヶ根",
    "name_en": "Kumagane",
    "lat": 38.2980518,
    "lng": 140.6806585,
    "category": "station",
    "prefecture": "miyagi",
    "osm_id": 3585108886,
    "spot_type": "data_spot",
    "data_source": "osm"
  },
  {
    "name": "国見",
    "name_en": "Kunimi",
    "lat": 38.2748298,
    "lng": 140.8339779,
    "category": "station",
    "prefecture": "miyagi",
    "osm_id": 3585108888,
    "spot_type": "data_spot",
    "data_source": "osm"
  },
  {
    "name": "葛岡",
    "name_en": "Kuzuoka",
    "lat": 38.2689104,
    "lng": 140.8186299,
    "category": "station",
    "prefecture": "miyagi",
    "osm_id": 3585108890,
    "spot_type": "data_spot",
    "data_source": "osm"
  },
  {
    "name": "奥新川",
    "name_en": "Okunikkawa",
    "lat": 38.3260087,
    "lng": 140.594073,
    "category": "station",
    "prefecture": "miyagi",
    "osm_id": 3585108892,
    "spot_type": "data_spot",
    "data_source": "osm"
  },
  {
    "name": "面白山高原",
    "name_en": "Omoshiroyama-Kōgen",
    "lat": 38.333017,
    "lng": 140.4969262,
    "category": "station",
    "prefecture": "miyagi",
    "osm_id": 3585109693,
    "spot_type": "data_spot",
    "data_source": "osm"
  },
  {
    "name": "陸前落合",
    "name_en": "Rikuzen-Ochiai",
    "lat": 38.2733989,
    "lng": 140.7903422,
    "category": "station",
    "prefecture": "miyagi",
    "osm_id": 3585109695,
    "spot_type": "data_spot",
    "data_source": "osm"
  },
  {
    "name": "東金井",
    "name_en": "Higashi-Kanai",
    "lat": 38.277119,
    "lng": 140.3024865,
    "category": "station",
    "prefecture": "miyagi",
    "osm_id": 3585199036,
    "spot_type": "data_spot",
    "data_source": "osm"
  },
  {
    "name": "南寒河江",
    "name_en": "Minami-Sagae",
    "lat": 38.3560091,
    "lng": 140.2776524,
    "category": "station",
    "prefecture": "miyagi",
    "osm_id": 3585199037,
    "spot_type": "data_spot",
    "data_source": "osm"
  },
  {
    "name": "寒河江",
    "name_en": "Sagae",
    "lat": 38.3716369,
    "lng": 140.2751598,
    "category": "station",
    "prefecture": "miyagi",
    "osm_id": 3585199039,
    "spot_type": "data_spot",
    "data_source": "osm"
  },
  {
    "name": "羽前金沢",
    "name_en": "Uzen-Kanezawa",
    "lat": 38.3207171,
    "lng": 140.270377,
    "category": "station",
    "prefecture": "miyagi",
    "osm_id": 3585199041,
    "spot_type": "data_spot",
    "data_source": "osm"
  },
  {
    "name": "羽前長崎",
    "name_en": "Uzen-Nagasaki",
    "lat": 38.3334872,
    "lng": 140.2732632,
    "category": "station",
    "prefecture": "miyagi",
    "osm_id": 3585199042,
    "spot_type": "data_spot",
    "data_source": "osm"
  },
  {
    "name": "羽前山辺",
    "name_en": "Uzen-Yamabe",
    "lat": 38.2946123,
    "lng": 140.2715936,
    "category": "station",
    "prefecture": "miyagi",
    "osm_id": 3585199045,
    "spot_type": "data_spot",
    "data_source": "osm"
  },
  {
    "name": "国際センター",
    "name_en": "International Center",
    "lat": 38.2602515,
    "lng": 140.8567785,
    "category": "station",
    "prefecture": "miyagi",
    "osm_id": 3594254135,
    "spot_type": "data_spot",
    "data_source": "osm"
  },
  {
    "name": "名称不明",
    "name_en": "",
    "lat": 38.1628147,
    "lng": 140.2767699,
    "category": "temple",
    "prefecture": "miyagi",
    "osm_id": 3612377901,
    "spot_type": "data_spot",
    "data_source": "osm"
  },
  {
    "name": "庭坂",
    "name_en": "Niwasaka",
    "lat": 37.7716676,
    "lng": 140.390059,
    "category": "station",
    "prefecture": "miyagi",
    "osm_id": 3647437878,
    "spot_type": "data_spot",
    "data_source": "osm"
  },
  {
    "name": "大町西公園",
    "name_en": "Omachi Nishi-koen",
    "lat": 38.2589973,
    "lng": 140.8644629,
    "category": "station",
    "prefecture": "miyagi",
    "osm_id": 3651059967,
    "spot_type": "data_spot",
    "data_source": "osm"
  },
  {
    "name": "陸前大島灯台",
    "name_en": "",
    "lat": 38.8305865,
    "lng": 141.6245401,
    "category": "lighthouse",
    "prefecture": "miyagi",
    "osm_id": 3663139078,
    "spot_type": "data_spot",
    "data_source": "osm"
  },
  {
    "name": "曹洞宗 東月山 西光寺",
    "name_en": "",
    "lat": 38.8452481,
    "lng": 141.6171376,
    "category": "temple",
    "prefecture": "miyagi",
    "osm_id": 3663139530,
    "spot_type": "data_spot",
    "data_source": "osm"
  },
  {
    "name": "名称不明",
    "name_en": "",
    "lat": 38.8534321,
    "lng": 141.6262436,
    "category": "lighthouse",
    "prefecture": "miyagi",
    "osm_id": 3663139657,
    "spot_type": "data_spot",
    "data_source": "osm"
  },
  {
    "name": "名称不明",
    "name_en": "",
    "lat": 38.884601,
    "lng": 141.6195282,
    "category": "lighthouse",
    "prefecture": "miyagi",
    "osm_id": 3663140754,
    "spot_type": "data_spot",
    "data_source": "osm"
  },
  {
    "name": "長石稲荷神社",
    "name_en": "",
    "lat": 38.3739993,
    "lng": 141.1447391,
    "category": "shrine",
    "prefecture": "miyagi",
    "osm_id": 3665922160,
    "spot_type": "data_spot",
    "data_source": "osm"
  },
  {
    "name": "五十鈴神社",
    "name_en": "",
    "lat": 38.3806754,
    "lng": 141.1284019,
    "category": "shrine",
    "prefecture": "miyagi",
    "osm_id": 3665922234,
    "spot_type": "data_spot",
    "data_source": "osm"
  },
  {
    "name": "洞安寺",
    "name_en": "",
    "lat": 38.3813626,
    "lng": 141.1292406,
    "category": "temple",
    "prefecture": "miyagi",
    "osm_id": 3665922235,
    "spot_type": "data_spot",
    "data_source": "osm"
  },
  {
    "name": "名称不明",
    "name_en": "",
    "lat": 38.3828396,
    "lng": 141.1514135,
    "category": "temple",
    "prefecture": "miyagi",
    "osm_id": 3665922238,
    "spot_type": "data_spot",
    "data_source": "osm"
  },
  {
    "name": "名称不明",
    "name_en": "",
    "lat": 38.3835746,
    "lng": 141.1503996,
    "category": "shrine",
    "prefecture": "miyagi",
    "osm_id": 3665922239,
    "spot_type": "data_spot",
    "data_source": "osm"
  },
  {
    "name": "名称不明",
    "name_en": "",
    "lat": 38.3847791,
    "lng": 141.1597298,
    "category": "shrine",
    "prefecture": "miyagi",
    "osm_id": 3665922241,
    "spot_type": "data_spot",
    "data_source": "osm"
  },
  {
    "name": "シャークミュージアム",
    "name_en": "",
    "lat": 38.9000998,
    "lng": 141.5792178,
    "category": "museum",
    "prefecture": "miyagi",
    "osm_id": 3666892545,
    "spot_type": "data_spot",
    "data_source": "osm"
  },
  {
    "name": "名称不明",
    "name_en": "",
    "lat": 38.6936717,
    "lng": 141.4827171,
    "category": "shrine",
    "prefecture": "miyagi",
    "osm_id": 3666892580,
    "spot_type": "data_spot",
    "data_source": "osm"
  },
  {
    "name": "名称不明",
    "name_en": "",
    "lat": 38.4285385,
    "lng": 141.3672291,
    "category": "shrine",
    "prefecture": "miyagi",
    "osm_id": 3667879861,
    "spot_type": "data_spot",
    "data_source": "osm"
  },
  {
    "name": "愛宕神社",
    "name_en": "",
    "lat": 38.8730562,
    "lng": 141.6188449,
    "category": "shrine",
    "prefecture": "miyagi",
    "osm_id": 3668222567,
    "spot_type": "data_spot",
    "data_source": "osm"
  },
  {
    "name": "名称不明",
    "name_en": "",
    "lat": 38.96441,
    "lng": 141.6322558,
    "category": "shrine",
    "prefecture": "miyagi",
    "osm_id": 3669785736,
    "spot_type": "data_spot",
    "data_source": "osm"
  },
  {
    "name": "東園寺",
    "name_en": "",
    "lat": 38.3159384,
    "lng": 141.0209039,
    "category": "temple",
    "prefecture": "miyagi",
    "osm_id": 3677021187,
    "spot_type": "data_spot",
    "data_source": "osm"
  },
  {
    "name": "寒河江八幡宮",
    "name_en": "",
    "lat": 38.3783794,
    "lng": 140.2708179,
    "category": "shrine",
    "prefecture": "miyagi",
    "osm_id": 3718242825,
    "spot_type": "data_spot",
    "data_source": "osm"
  },
  {
    "name": "あおば通",
    "name_en": "Aoba-dōri",
    "lat": 38.2606881,
    "lng": 140.8786913,
    "category": "station",
    "prefecture": "miyagi",
    "osm_id": 3791321430,
    "spot_type": "data_spot",
    "data_source": "osm"
  },
  {
    "name": "下馬",
    "name_en": "Geba",
    "lat": 38.3056276,
    "lng": 141.0151519,
    "category": "station",
    "prefecture": "miyagi",
    "osm_id": 3791321432,
    "spot_type": "data_spot",
    "data_source": "osm"
  },
  {
    "name": "蛇田",
    "name_en": "Hebita",
    "lat": 38.4384215,
    "lng": 141.2774621,
    "category": "station",
    "prefecture": "miyagi",
    "osm_id": 3791321433,
    "spot_type": "data_spot",
    "data_source": "osm"
  },
  {
    "name": "東仙台",
    "name_en": "Higashi-Sendai",
    "lat": 38.2764881,
    "lng": 140.9201836,
    "category": "station",
    "prefecture": "miyagi",
    "osm_id": 3791321435,
    "spot_type": "data_spot",
    "data_source": "osm"
  },
  {
    "name": "東塩釜",
    "name_en": "Higashi-Shiogama",
    "lat": 38.325502,
    "lng": 141.0317915,
    "category": "station",
    "prefecture": "miyagi",
    "osm_id": 3791321436,
    "spot_type": "data_spot",
    "data_source": "osm"
  },
  {
    "name": "東矢本",
    "name_en": "Higashi-Yamoto",
    "lat": 38.42814,
    "lng": 141.2228836,
    "category": "station",
    "prefecture": "miyagi",
    "osm_id": 3791321437,
    "spot_type": "data_spot",
    "data_source": "osm"
  },
  {
    "name": "本塩釜",
    "name_en": "Hon-Shiogama",
    "lat": 38.3178146,
    "lng": 141.0228114,
    "category": "station",
    "prefecture": "miyagi",
    "osm_id": 3791321438,
    "spot_type": "data_spot",
    "data_source": "osm"
  },
  {
    "name": "岩切",
    "name_en": "Iwakiri",
    "lat": 38.3008721,
    "lng": 140.9552302,
    "category": "station",
    "prefecture": "miyagi",
    "osm_id": 3791321444,
    "spot_type": "data_spot",
    "data_source": "osm"
  },
  {
    "name": "鹿妻",
    "name_en": "Kazuma",
    "lat": 38.4032417,
    "lng": 141.19014,
    "category": "station",
    "prefecture": "miyagi",
    "osm_id": 3791321447,
    "spot_type": "data_spot",
    "data_source": "osm"
  },
  {
    "name": "国府多賀城",
    "name_en": "Kokufu-Tagajo",
    "lat": 38.3009098,
    "lng": 140.9941986,
    "category": "station",
    "prefecture": "miyagi",
    "osm_id": 3791321448,
    "spot_type": "data_spot",
    "data_source": "osm"
  },
  {
    "name": "小鶴新田",
    "name_en": "Kozurushinden",
    "lat": 38.2734014,
    "lng": 140.935357,
    "category": "station",
    "prefecture": "miyagi",
    "osm_id": 3791321449,
    "spot_type": "data_spot",
    "data_source": "osm"
  },
  {
    "name": "宮城野原",
    "name_en": "Miyaginohara",
    "lat": 38.2608253,
    "lng": 140.9048201,
    "category": "station",
    "prefecture": "miyagi",
    "osm_id": 3791321510,
    "spot_type": "data_spot",
    "data_source": "osm"
  },
  {
    "name": "中野栄",
    "name_en": "Nakanosakae",
    "lat": 38.2804972,
    "lng": 140.9848017,
    "category": "station",
    "prefecture": "miyagi",
    "osm_id": 3791321511,
    "spot_type": "data_spot",
    "data_source": "osm"
  },
  {
    "name": "苦竹",
    "name_en": "Nigatake",
    "lat": 38.2686318,
    "lng": 140.9189804,
    "category": "station",
    "prefecture": "miyagi",
    "osm_id": 3791321512,
    "spot_type": "data_spot",
    "data_source": "osm"
  },
  {
    "name": "野蒜",
    "name_en": "Nobiru",
    "lat": 38.3791351,
    "lng": 141.1570646,
    "category": "station",
    "prefecture": "miyagi",
    "osm_id": 3791321514,
    "spot_type": "data_spot",
    "data_source": "osm"
  },
  {
    "name": "利府",
    "name_en": "Rifu",
    "lat": 38.3292781,
    "lng": 140.9847624,
    "category": "station",
    "prefecture": "miyagi",
    "osm_id": 3791321515,
    "spot_type": "data_spot",
    "data_source": "osm"
  },
  {
    "name": "陸前赤井",
    "name_en": "Rikuzen-Akai",
    "lat": 38.4324287,
    "lng": 141.2387668,
    "category": "station",
    "prefecture": "miyagi",
    "osm_id": 3791321516,
    "spot_type": "data_spot",
    "data_source": "osm"
  },
  {
    "name": "陸前浜田",
    "name_en": "Rikuzen-Hamada",
    "lat": 38.3507746,
    "lng": 141.0419928,
    "category": "station",
    "prefecture": "miyagi",
    "osm_id": 3791321517,
    "spot_type": "data_spot",
    "data_source": "osm"
  },
  {
    "name": "陸前原ノ町",
    "name_en": "Rikuzen-Haranomachi",
    "lat": 38.2662062,
    "lng": 140.9110021,
    "category": "station",
    "prefecture": "miyagi",
    "osm_id": 3791321518,
    "spot_type": "data_spot",
    "data_source": "osm"
  },
  {
    "name": "陸前小野",
    "name_en": "Rikuzen-Ono",
    "lat": 38.3959842,
    "lng": 141.1743801,
    "category": "station",
    "prefecture": "miyagi",
    "osm_id": 3791321519,
    "spot_type": "data_spot",
    "data_source": "osm"
  },
  {
    "name": "陸前山王",
    "name_en": "Rikuzen-Sannō",
    "lat": 38.2995007,
    "lng": 140.9792044,
    "category": "station",
    "prefecture": "miyagi",
    "osm_id": 3791321521,
    "spot_type": "data_spot",
    "data_source": "osm"
  },
  {
    "name": "陸前富山",
    "name_en": "Rikuzen-Tomiyama",
    "lat": 38.3862845,
    "lng": 141.1073267,
    "category": "station",
    "prefecture": "miyagi",
    "osm_id": 3791321523,
    "spot_type": "data_spot",
    "data_source": "osm"
  },
  {
    "name": "陸前大塚",
    "name_en": "Rikuzen-Ōtsuka",
    "lat": 38.3791229,
    "lng": 141.1290892,
    "category": "station",
    "prefecture": "miyagi",
    "osm_id": 3791321524,
    "spot_type": "data_spot",
    "data_source": "osm"
  },
  {
    "name": "塩釜",
    "name_en": "Shiogama",
    "lat": 38.309546,
    "lng": 141.0095991,
    "category": "station",
    "prefecture": "miyagi",
    "osm_id": 3791321533,
    "spot_type": "data_spot",
    "data_source": "osm"
  },
  {
    "name": "多賀城",
    "name_en": "Tagajo",
    "lat": 38.291696,
    "lng": 141.0060171,
    "category": "station",
    "prefecture": "miyagi",
    "osm_id": 3791321534,
    "spot_type": "data_spot",
    "data_source": "osm"
  },
  {
    "name": "高城町",
    "name_en": "Takagimachi",
    "lat": 38.3826611,
    "lng": 141.0732011,
    "category": "station",
    "prefecture": "miyagi",
    "osm_id": 3791321535,
    "spot_type": "data_spot",
    "data_source": "osm"
  },
  {
    "name": "手樽",
    "name_en": "Tetaru",
    "lat": 38.3870035,
    "lng": 141.0927405,
    "category": "station",
    "prefecture": "miyagi",
    "osm_id": 3791321536,
    "spot_type": "data_spot",
    "data_source": "osm"
  },
  {
    "name": "榴ヶ岡",
    "name_en": "Tsutsujigaoka",
    "lat": 38.2587711,
    "lng": 140.8942638,
    "category": "station",
    "prefecture": "miyagi",
    "osm_id": 3791321537,
    "spot_type": "data_spot",
    "data_source": "osm"
  },
  {
    "name": "東名",
    "name_en": "Tōna",
    "lat": 38.3753285,
    "lng": 141.1440162,
    "category": "station",
    "prefecture": "miyagi",
    "osm_id": 3791321538,
    "spot_type": "data_spot",
    "data_source": "osm"
  },
  {
    "name": "矢本",
    "name_en": "Yamoto",
    "lat": 38.4205282,
    "lng": 141.2096652,
    "category": "station",
    "prefecture": "miyagi",
    "osm_id": 3791321539,
    "spot_type": "data_spot",
    "data_source": "osm"
  },
  {
    "name": "岩沼",
    "name_en": "Iwanuma",
    "lat": 38.1121315,
    "lng": 140.8639243,
    "category": "station",
    "prefecture": "miyagi",
    "osm_id": 3792749081,
    "spot_type": "data_spot",
    "data_source": "osm"
  },
  {
    "name": "南仙台",
    "name_en": "Minami-Sendai",
    "lat": 38.197257,
    "lng": 140.8833873,
    "category": "station",
    "prefecture": "miyagi",
    "osm_id": 3792749084,
    "spot_type": "data_spot",
    "data_source": "osm"
  },
  {
    "name": "美田園",
    "name_en": "Mitazono",
    "lat": 38.1596683,
    "lng": 140.9174637,
    "category": "station",
    "prefecture": "miyagi",
    "osm_id": 3792749088,
    "spot_type": "data_spot",
    "data_source": "osm"
  },
  {
    "name": "杜せきのした",
    "name_en": "Morisekinoshita",
    "lat": 38.1653873,
    "lng": 140.8960128,
    "category": "station",
    "prefecture": "miyagi",
    "osm_id": 3792749091,
    "spot_type": "data_spot",
    "data_source": "osm"
  },
  {
    "name": "名取",
    "name_en": "Natori",
    "lat": 38.1733422,
    "lng": 140.8827769,
    "category": "station",
    "prefecture": "miyagi",
    "osm_id": 3792749097,
    "spot_type": "data_spot",
    "data_source": "osm"
  },
  {
    "name": "仙台空港",
    "name_en": "Sendai Airport",
    "lat": 38.1371602,
    "lng": 140.9290141,
    "category": "station",
    "prefecture": "miyagi",
    "osm_id": 3792749099,
    "spot_type": "data_spot",
    "data_source": "osm"
  },
  {
    "name": "太子堂",
    "name_en": "Taishido",
    "lat": 38.2178195,
    "lng": 140.8834227,
    "category": "station",
    "prefecture": "miyagi",
    "osm_id": 3792749100,
    "spot_type": "data_spot",
    "data_source": "osm"
  },
  {
    "name": "館腰",
    "name_en": "Tatekoshi",
    "lat": 38.1431219,
    "lng": 140.8803223,
    "category": "station",
    "prefecture": "miyagi",
    "osm_id": 3792749102,
    "spot_type": "data_spot",
    "data_source": "osm"
  },
  {
    "name": "猊鼻渓",
    "name_en": "Geibikei",
    "lat": 38.9887792,
    "lng": 141.2532381,
    "category": "station",
    "prefecture": "miyagi",
    "osm_id": 3838451239,
    "spot_type": "data_spot",
    "data_source": "osm"
  },
  {
    "name": "青葉通一番町",
    "name_en": "Aoba-dori Ichibancho",
    "lat": 38.2596981,
    "lng": 140.8719207,
    "category": "station",
    "prefecture": "miyagi",
    "osm_id": 3880060317,
    "spot_type": "data_spot",
    "data_source": "osm"
  },
  {
    "name": "荒井",
    "name_en": "Arai",
    "lat": 38.2448857,
    "lng": 140.9484215,
    "category": "station",
    "prefecture": "miyagi",
    "osm_id": 3880060318,
    "spot_type": "data_spot",
    "data_source": "osm"
  },
  {
    "name": "連坊",
    "name_en": "Rembo",
    "lat": 38.2511739,
    "lng": 140.8932704,
    "category": "station",
    "prefecture": "miyagi",
    "osm_id": 3880061718,
    "spot_type": "data_spot",
    "data_source": "osm"
  },
  {
    "name": "卸町",
    "name_en": "Oroshimachi",
    "lat": 38.2515983,
    "lng": 140.9208595,
    "category": "station",
    "prefecture": "miyagi",
    "osm_id": 3880061721,
    "spot_type": "data_spot",
    "data_source": "osm"
  },
  {
    "name": "六丁の目",
    "name_en": "Rokuchonome",
    "lat": 38.2509885,
    "lng": 140.9356293,
    "category": "station",
    "prefecture": "miyagi",
    "osm_id": 3880061722,
    "spot_type": "data_spot",
    "data_source": "osm"
  },
  {
    "name": "宮城野通",
    "name_en": "Miyagino-dori",
    "lat": 38.2579376,
    "lng": 140.8858661,
    "category": "station",
    "prefecture": "miyagi",
    "osm_id": 3880061736,
    "spot_type": "data_spot",
    "data_source": "osm"
  },
  {
    "name": "川内",
    "name_en": "Kawauchi",
    "lat": 38.2608821,
    "lng": 140.8503638,
    "category": "station",
    "prefecture": "miyagi",
    "osm_id": 3880061738,
    "spot_type": "data_spot",
    "data_source": "osm"
  },
  {
    "name": "小牛田",
    "name_en": "Kogota",
    "lat": 38.5414704,
    "lng": 141.0642558,
    "category": "station",
    "prefecture": "miyagi",
    "osm_id": 3906691755,
    "spot_type": "data_spot",
    "data_source": "osm"
  },
  {
    "name": "白石蔵王",
    "name_en": "Shiroishi-Zao",
    "lat": 37.9954269,
    "lng": 140.6331751,
    "category": "station",
    "prefecture": "miyagi",
    "osm_id": 3908803392,
    "spot_type": "data_spot",
    "data_source": "osm"
  },
  {
    "name": "藤坂神社",
    "name_en": "",
    "lat": 38.2577155,
    "lng": 140.8643475,
    "category": "shrine",
    "prefecture": "miyagi",
    "osm_id": 3933677092,
    "spot_type": "data_spot",
    "data_source": "osm"
  },
  {
    "name": "月山神社",
    "name_en": "",
    "lat": 38.9927123,
    "lng": 141.6156706,
    "category": "shrine",
    "prefecture": "miyagi",
    "osm_id": 4004958269,
    "spot_type": "data_spot",
    "data_source": "osm"
  },
  {
    "name": "法泉寺",
    "name_en": "",
    "lat": 38.3773531,
    "lng": 140.2740743,
    "category": "temple",
    "prefecture": "miyagi",
    "osm_id": 4008924582,
    "spot_type": "data_spot",
    "data_source": "osm"
  },
  {
    "name": "澄江寺",
    "name_en": "",
    "lat": 38.3780103,
    "lng": 140.2738477,
    "category": "temple",
    "prefecture": "miyagi",
    "osm_id": 4008924583,
    "spot_type": "data_spot",
    "data_source": "osm"
  },
  {
    "name": "正覚寺",
    "name_en": "",
    "lat": 38.3762844,
    "lng": 140.2729408,
    "category": "temple",
    "prefecture": "miyagi",
    "osm_id": 4008924584,
    "spot_type": "data_spot",
    "data_source": "osm"
  },
  {
    "name": "本願寺",
    "name_en": "",
    "lat": 38.374804,
    "lng": 140.2765443,
    "category": "temple",
    "prefecture": "miyagi",
    "osm_id": 4008924585,
    "spot_type": "data_spot",
    "data_source": "osm"
  },
  {
    "name": "陽春院",
    "name_en": "",
    "lat": 38.376728,
    "lng": 140.276936,
    "category": "temple",
    "prefecture": "miyagi",
    "osm_id": 4008924586,
    "spot_type": "data_spot",
    "data_source": "osm"
  },
  {
    "name": "坂元",
    "name_en": "Sakamoto",
    "lat": 37.9242343,
    "lng": 140.901033,
    "category": "station",
    "prefecture": "miyagi",
    "osm_id": 4057942478,
    "spot_type": "data_spot",
    "data_source": "osm"
  },
  {
    "name": "山下",
    "name_en": "Yamashita",
    "lat": 37.9662549,
    "lng": 140.8890163,
    "category": "station",
    "prefecture": "miyagi",
    "osm_id": 4057942479,
    "spot_type": "data_spot",
    "data_source": "osm"
  },
  {
    "name": "名称不明",
    "name_en": "",
    "lat": 38.4419223,
    "lng": 141.331225,
    "category": "shrine",
    "prefecture": "miyagi",
    "osm_id": 4160183901,
    "spot_type": "data_spot",
    "data_source": "osm"
  },
  {
    "name": "名称不明",
    "name_en": "",
    "lat": 38.4438545,
    "lng": 141.332511,
    "category": "shrine",
    "prefecture": "miyagi",
    "osm_id": 4160183939,
    "spot_type": "data_spot",
    "data_source": "osm"
  },
  {
    "name": "熊野神社",
    "name_en": "",
    "lat": 38.4977987,
    "lng": 141.2398835,
    "category": "shrine",
    "prefecture": "miyagi",
    "osm_id": 4160249915,
    "spot_type": "data_spot",
    "data_source": "osm"
  },
  {
    "name": "御嶋真珠稲荷大明神",
    "name_en": "",
    "lat": 38.365624,
    "lng": 141.0623066,
    "category": "shrine",
    "prefecture": "miyagi",
    "osm_id": 4264208726,
    "spot_type": "data_spot",
    "data_source": "osm"
  },
  {
    "name": "名称不明",
    "name_en": "",
    "lat": 38.3405511,
    "lng": 141.0393374,
    "category": "shrine",
    "prefecture": "miyagi",
    "osm_id": 4264229808,
    "spot_type": "data_spot",
    "data_source": "osm"
  },
  {
    "name": "大海祇神社",
    "name_en": "",
    "lat": 38.2953411,
    "lng": 141.5667941,
    "category": "shrine",
    "prefecture": "miyagi",
    "osm_id": 4264255409,
    "spot_type": "data_spot",
    "data_source": "osm"
  },
  {
    "name": "北野神社",
    "name_en": "",
    "lat": 38.9080089,
    "lng": 141.5638207,
    "category": "shrine",
    "prefecture": "miyagi",
    "osm_id": 4327655894,
    "spot_type": "data_spot",
    "data_source": "osm"
  },
  {
    "name": "妙傳寺",
    "name_en": "",
    "lat": 37.8562876,
    "lng": 140.6104564,
    "category": "temple",
    "prefecture": "miyagi",
    "osm_id": 4329343599,
    "spot_type": "data_spot",
    "data_source": "osm"
  },
  {
    "name": "浅間神社",
    "name_en": "",
    "lat": 37.8554868,
    "lng": 140.6117272,
    "category": "shrine",
    "prefecture": "miyagi",
    "osm_id": 4329353325,
    "spot_type": "data_spot",
    "data_source": "osm"
  },
  {
    "name": "安養寺",
    "name_en": "",
    "lat": 37.857912,
    "lng": 140.6097389,
    "category": "temple",
    "prefecture": "miyagi",
    "osm_id": 4329374234,
    "spot_type": "data_spot",
    "data_source": "osm"
  },
  {
    "name": "天神社",
    "name_en": "",
    "lat": 37.8607725,
    "lng": 140.6107724,
    "category": "shrine",
    "prefecture": "miyagi",
    "osm_id": 4329378038,
    "spot_type": "data_spot",
    "data_source": "osm"
  },
  {
    "name": "松島博物館",
    "name_en": "",
    "lat": 38.3694876,
    "lng": 141.0613672,
    "category": "museum",
    "prefecture": "miyagi",
    "osm_id": 4331653906,
    "spot_type": "data_spot",
    "data_source": "osm"
  },
  {
    "name": "名称不明",
    "name_en": "",
    "lat": 38.2727158,
    "lng": 140.9605345,
    "category": "shrine",
    "prefecture": "miyagi",
    "osm_id": 4357261494,
    "spot_type": "data_spot",
    "data_source": "osm"
  },
  {
    "name": "田村神社",
    "name_en": "",
    "lat": 38.2705706,
    "lng": 140.959063,
    "category": "shrine",
    "prefecture": "miyagi",
    "osm_id": 4357267993,
    "spot_type": "data_spot",
    "data_source": "osm"
  },
  {
    "name": "洞雲寺",
    "name_en": "",
    "lat": 38.3351039,
    "lng": 140.8953099,
    "category": "temple",
    "prefecture": "miyagi",
    "osm_id": 4391615933,
    "spot_type": "data_spot",
    "data_source": "osm"
  },
  {
    "name": "弁天様",
    "name_en": "Benten-sama",
    "lat": 38.3657697,
    "lng": 141.0703974,
    "category": "shrine",
    "prefecture": "miyagi",
    "osm_id": 4405213190,
    "spot_type": "data_spot",
    "data_source": "osm"
  },
  {
    "name": "竹駒神社馬事博物館",
    "name_en": "",
    "lat": 38.1048022,
    "lng": 140.8639326,
    "category": "museum",
    "prefecture": "miyagi",
    "osm_id": 4419179248,
    "spot_type": "data_spot",
    "data_source": "osm"
  },
  {
    "name": "円立寺",
    "name_en": "",
    "lat": 38.1053757,
    "lng": 140.8816777,
    "category": "temple",
    "prefecture": "miyagi",
    "osm_id": 4425302069,
    "spot_type": "data_spot",
    "data_source": "osm"
  },
  {
    "name": "丸山神社",
    "name_en": "",
    "lat": 38.1076201,
    "lng": 140.8633292,
    "category": "shrine",
    "prefecture": "miyagi",
    "osm_id": 4431101574,
    "spot_type": "data_spot",
    "data_source": "osm"
  },
  {
    "name": "白山神社",
    "name_en": "",
    "lat": 38.2513533,
    "lng": 140.9034815,
    "category": "shrine",
    "prefecture": "miyagi",
    "osm_id": 4475431696,
    "spot_type": "data_spot",
    "data_source": "osm"
  },
  {
    "name": "白鳥神社",
    "name_en": "",
    "lat": 38.248361,
    "lng": 140.8967897,
    "category": "shrine",
    "prefecture": "miyagi",
    "osm_id": 4475484194,
    "spot_type": "data_spot",
    "data_source": "osm"
  },
  {
    "name": "火防秋葉神社",
    "name_en": "",
    "lat": 38.2403551,
    "lng": 140.8876174,
    "category": "shrine",
    "prefecture": "miyagi",
    "osm_id": 4476670590,
    "spot_type": "data_spot",
    "data_source": "osm"
  },
  {
    "name": "鹿島香取神社",
    "name_en": "",
    "lat": 38.2820929,
    "lng": 140.8667103,
    "category": "shrine",
    "prefecture": "miyagi",
    "osm_id": 4487214390,
    "spot_type": "data_spot",
    "data_source": "osm"
  },
  {
    "name": "日浄寺",
    "name_en": "",
    "lat": 38.2842243,
    "lng": 140.8687175,
    "category": "temple",
    "prefecture": "miyagi",
    "osm_id": 4487228793,
    "spot_type": "data_spot",
    "data_source": "osm"
  },
  {
    "name": "古城神社",
    "name_en": "",
    "lat": 38.2378807,
    "lng": 140.8932664,
    "category": "shrine",
    "prefecture": "miyagi",
    "osm_id": 4489390089,
    "spot_type": "data_spot",
    "data_source": "osm"
  },
  {
    "name": "金刀比羅神社",
    "name_en": "",
    "lat": 38.2421616,
    "lng": 140.8888473,
    "category": "shrine",
    "prefecture": "miyagi",
    "osm_id": 4489390291,
    "spot_type": "data_spot",
    "data_source": "osm"
  },
  {
    "name": "宮城野八幡神社",
    "name_en": "",
    "lat": 38.263001,
    "lng": 140.9070762,
    "category": "shrine",
    "prefecture": "miyagi",
    "osm_id": 4491857092,
    "spot_type": "data_spot",
    "data_source": "osm"
  },
  {
    "name": "善正寺",
    "name_en": "",
    "lat": 38.3181416,
    "lng": 140.8866043,
    "category": "temple",
    "prefecture": "miyagi",
    "osm_id": 4496683291,
    "spot_type": "data_spot",
    "data_source": "osm"
  },
  {
    "name": "八坂神社",
    "name_en": "",
    "lat": 38.3056074,
    "lng": 140.945926,
    "category": "shrine",
    "prefecture": "miyagi",
    "osm_id": 4497740893,
    "spot_type": "data_spot",
    "data_source": "osm"
  },
  {
    "name": "八幡神社",
    "name_en": "",
    "lat": 38.3024117,
    "lng": 140.9404202,
    "category": "shrine",
    "prefecture": "miyagi",
    "osm_id": 4497757090,
    "spot_type": "data_spot",
    "data_source": "osm"
  },
  {
    "name": "東光寺",
    "name_en": "",
    "lat": 38.3065416,
    "lng": 140.943202,
    "category": "temple",
    "prefecture": "miyagi",
    "osm_id": 4497757092,
    "spot_type": "data_spot",
    "data_source": "osm"
  },
  {
    "name": "沖野八幡神社",
    "name_en": "",
    "lat": 38.2280712,
    "lng": 140.9114871,
    "category": "shrine",
    "prefecture": "miyagi",
    "osm_id": 4501699292,
    "spot_type": "data_spot",
    "data_source": "osm"
  },
  {
    "name": "多賀神社",
    "name_en": "",
    "lat": 38.3003333,
    "lng": 140.9980985,
    "category": "shrine",
    "prefecture": "miyagi",
    "osm_id": 4502249792,
    "spot_type": "data_spot",
    "data_source": "osm"
  },
  {
    "name": "鎌倉神社",
    "name_en": "",
    "lat": 38.3040347,
    "lng": 141.0141688,
    "category": "shrine",
    "prefecture": "miyagi",
    "osm_id": 4502277693,
    "spot_type": "data_spot",
    "data_source": "osm"
  },
  {
    "name": "浮島神社",
    "name_en": "",
    "lat": 38.3037049,
    "lng": 140.9944656,
    "category": "shrine",
    "prefecture": "miyagi",
    "osm_id": 4502301992,
    "spot_type": "data_spot",
    "data_source": "osm"
  },
  {
    "name": "一乗寺",
    "name_en": "",
    "lat": 38.5780756,
    "lng": 140.9648199,
    "category": "temple",
    "prefecture": "miyagi",
    "osm_id": 4510209201,
    "spot_type": "data_spot",
    "data_source": "osm"
  },
  {
    "name": "熊野神社",
    "name_en": "",
    "lat": 38.5780434,
    "lng": 140.9601259,
    "category": "shrine",
    "prefecture": "miyagi",
    "osm_id": 4510315591,
    "spot_type": "data_spot",
    "data_source": "osm"
  },
  {
    "name": "向泉寺",
    "name_en": "Kousenji Temple",
    "lat": 38.2615502,
    "lng": 140.6767326,
    "category": "temple",
    "prefecture": "miyagi",
    "osm_id": 4515216193,
    "spot_type": "data_spot",
    "data_source": "osm"
  },
  {
    "name": "秋保神社",
    "name_en": "Akiu-jinja Shrine",
    "lat": 38.2635975,
    "lng": 140.6596246,
    "category": "shrine",
    "prefecture": "miyagi",
    "osm_id": 4515248691,
    "spot_type": "data_spot",
    "data_source": "osm"
  },
  {
    "name": "愛宕神社",
    "name_en": "",
    "lat": 38.271143,
    "lng": 140.647043,
    "category": "shrine",
    "prefecture": "miyagi",
    "osm_id": 4515248692,
    "spot_type": "data_spot",
    "data_source": "osm"
  },
  {
    "name": "西光寺",
    "name_en": "Saikoji Temple",
    "lat": 38.2743808,
    "lng": 140.6034817,
    "category": "temple",
    "prefecture": "miyagi",
    "osm_id": 4515248693,
    "spot_type": "data_spot",
    "data_source": "osm"
  },
  {
    "name": "神明神社",
    "name_en": "",
    "lat": 38.2570673,
    "lng": 140.677348,
    "category": "shrine",
    "prefecture": "miyagi",
    "osm_id": 4515257489,
    "spot_type": "data_spot",
    "data_source": "osm"
  },
  {
    "name": "慈眼寺",
    "name_en": "Jigenji Temple",
    "lat": 38.2704891,
    "lng": 140.6155428,
    "category": "temple",
    "prefecture": "miyagi",
    "osm_id": 4515259489,
    "spot_type": "data_spot",
    "data_source": "osm"
  },
  {
    "name": "第六天神社",
    "name_en": "Dairokuten-jinja Shrine",
    "lat": 38.1682049,
    "lng": 140.8863861,
    "category": "shrine",
    "prefecture": "miyagi",
    "osm_id": 4516940193,
    "spot_type": "data_spot",
    "data_source": "osm"
  },
  {
    "name": "浄澤寺",
    "name_en": "",
    "lat": 38.2429811,
    "lng": 140.8915907,
    "category": "temple",
    "prefecture": "miyagi",
    "osm_id": 4517035489,
    "spot_type": "data_spot",
    "data_source": "osm"
  },
  {
    "name": "金華山灯台",
    "name_en": "Kinkasan Lighthouse",
    "lat": 38.276594,
    "lng": 141.584055,
    "category": "lighthouse",
    "prefecture": "miyagi",
    "osm_id": 4520597005,
    "spot_type": "data_spot",
    "data_source": "osm"
  },
  {
    "name": "賀茂皇大神社",
    "name_en": "",
    "lat": 38.2561789,
    "lng": 140.9639406,
    "category": "shrine",
    "prefecture": "miyagi",
    "osm_id": 4523050790,
    "spot_type": "data_spot",
    "data_source": "osm"
  },
  {
    "name": "吉祥寺",
    "name_en": "",
    "lat": 38.1706011,
    "lng": 140.8729329,
    "category": "temple",
    "prefecture": "miyagi",
    "osm_id": 4524332796,
    "spot_type": "data_spot",
    "data_source": "osm"
  },
  {
    "name": "阿武隈神社",
    "name_en": "",
    "lat": 38.0979337,
    "lng": 140.8699368,
    "category": "shrine",
    "prefecture": "miyagi",
    "osm_id": 4526157203,
    "spot_type": "data_spot",
    "data_source": "osm"
  },
  {
    "name": "湊神社",
    "name_en": "Minato Shrine",
    "lat": 38.0718653,
    "lng": 140.9035379,
    "category": "shrine",
    "prefecture": "miyagi",
    "osm_id": 4526171001,
    "spot_type": "data_spot",
    "data_source": "osm"
  },
  {
    "name": "光明寺",
    "name_en": "",
    "lat": 38.0759847,
    "lng": 140.8736512,
    "category": "temple",
    "prefecture": "miyagi",
    "osm_id": 4526212389,
    "spot_type": "data_spot",
    "data_source": "osm"
  },
  {
    "name": "熊野神社",
    "name_en": "",
    "lat": 38.7692171,
    "lng": 141.1626737,
    "category": "shrine",
    "prefecture": "miyagi",
    "osm_id": 4527879092,
    "spot_type": "data_spot",
    "data_source": "osm"
  },
  {
    "name": "山神社",
    "name_en": "",
    "lat": 38.769067,
    "lng": 141.1612729,
    "category": "shrine",
    "prefecture": "miyagi",
    "osm_id": 4527880996,
    "spot_type": "data_spot",
    "data_source": "osm"
  },
  {
    "name": "香津山神社",
    "name_en": "",
    "lat": 38.312614,
    "lng": 141.0157172,
    "category": "shrine",
    "prefecture": "miyagi",
    "osm_id": 4528178702,
    "spot_type": "data_spot",
    "data_source": "osm"
  },
  {
    "name": "塩竈市杉村惇美術館",
    "name_en": "Shiogama Sugimura Jun Museum of Art",
    "lat": 38.3158067,
    "lng": 141.0166124,
    "category": "museum",
    "prefecture": "miyagi",
    "osm_id": 4528178706,
    "spot_type": "data_spot",
    "data_source": "osm"
  },
  {
    "name": "愛宕神社",
    "name_en": "",
    "lat": 38.3162673,
    "lng": 141.0139004,
    "category": "shrine",
    "prefecture": "miyagi",
    "osm_id": 4528178707,
    "spot_type": "data_spot",
    "data_source": "osm"
  },
  {
    "name": "山の神神社",
    "name_en": "",
    "lat": 38.3152588,
    "lng": 141.0182875,
    "category": "shrine",
    "prefecture": "miyagi",
    "osm_id": 4528178709,
    "spot_type": "data_spot",
    "data_source": "osm"
  },
  {
    "name": "菅野美術館",
    "name_en": "Kanno Museum",
    "lat": 38.3114141,
    "lng": 141.0056234,
    "category": "museum",
    "prefecture": "miyagi",
    "osm_id": 4528209293,
    "spot_type": "data_spot",
    "data_source": "osm"
  },
  {
    "name": "御釜神社",
    "name_en": "Okama Shrine",
    "lat": 38.3160871,
    "lng": 141.0179079,
    "category": "shrine",
    "prefecture": "miyagi",
    "osm_id": 4528209296,
    "spot_type": "data_spot",
    "data_source": "osm"
  },
  {
    "name": "小室ヶ崎稲荷神社",
    "name_en": "",
    "lat": 38.3141701,
    "lng": 141.020241,
    "category": "shrine",
    "prefecture": "miyagi",
    "osm_id": 4528231090,
    "spot_type": "data_spot",
    "data_source": "osm"
  },
  {
    "name": "稲荷神社",
    "name_en": "",
    "lat": 38.3161797,
    "lng": 141.022856,
    "category": "shrine",
    "prefecture": "miyagi",
    "osm_id": 4529954001,
    "spot_type": "data_spot",
    "data_source": "osm"
  },
  {
    "name": "寿福寺",
    "name_en": "",
    "lat": 38.3200444,
    "lng": 141.0198531,
    "category": "temple",
    "prefecture": "miyagi",
    "osm_id": 4530032189,
    "spot_type": "data_spot",
    "data_source": "osm"
  },
  {
    "name": "慈門院",
    "name_en": "",
    "lat": 38.3289042,
    "lng": 141.0293434,
    "category": "temple",
    "prefecture": "miyagi",
    "osm_id": 4530032195,
    "spot_type": "data_spot",
    "data_source": "osm"
  },
  {
    "name": "須賀神社",
    "name_en": "",
    "lat": 38.3078757,
    "lng": 141.0331263,
    "category": "shrine",
    "prefecture": "miyagi",
    "osm_id": 4530052089,
    "spot_type": "data_spot",
    "data_source": "osm"
  },
  {
    "name": "柏木神社",
    "name_en": "",
    "lat": 38.295231,
    "lng": 141.0379613,
    "category": "shrine",
    "prefecture": "miyagi",
    "osm_id": 4530080692,
    "spot_type": "data_spot",
    "data_source": "osm"
  },
  {
    "name": "七ヶ浜 歴史資料館",
    "name_en": "",
    "lat": 38.3025878,
    "lng": 141.0449321,
    "category": "museum",
    "prefecture": "miyagi",
    "osm_id": 4530094989,
    "spot_type": "data_spot",
    "data_source": "osm"
  },
  {
    "name": "弥栄神社",
    "name_en": "",
    "lat": 38.2974443,
    "lng": 141.0429764,
    "category": "shrine",
    "prefecture": "miyagi",
    "osm_id": 4530095489,
    "spot_type": "data_spot",
    "data_source": "osm"
  },
  {
    "name": "鹿落観音",
    "name_en": "Shishiochi Kannon",
    "lat": 38.2485608,
    "lng": 140.8673643,
    "category": "temple",
    "prefecture": "miyagi",
    "osm_id": 4531759993,
    "spot_type": "data_spot",
    "data_source": "osm"
  },
  {
    "name": "賀茂神社",
    "name_en": "",
    "lat": 38.3201233,
    "lng": 140.8499857,
    "category": "shrine",
    "prefecture": "miyagi",
    "osm_id": 4531802792,
    "spot_type": "data_spot",
    "data_source": "osm"
  },
  {
    "name": "熊野神社",
    "name_en": "",
    "lat": 38.9892187,
    "lng": 141.2524281,
    "category": "shrine",
    "prefecture": "miyagi",
    "osm_id": 4531869024,
    "spot_type": "data_spot",
    "data_source": "osm"
  },
  {
    "name": "葉山神社",
    "name_en": "",
    "lat": 38.9928288,
    "lng": 141.2561436,
    "category": "shrine",
    "prefecture": "miyagi",
    "osm_id": 4531869070,
    "spot_type": "data_spot",
    "data_source": "osm"
  },
  {
    "name": "慈眼寺",
    "name_en": "",
    "lat": 38.3195035,
    "lng": 140.8506668,
    "category": "temple",
    "prefecture": "miyagi",
    "osm_id": 4533656899,
    "spot_type": "data_spot",
    "data_source": "osm"
  },
  {
    "name": "妙遍寺",
    "name_en": "",
    "lat": 38.3114804,
    "lng": 140.8549362,
    "category": "temple",
    "prefecture": "miyagi",
    "osm_id": 4533656900,
    "spot_type": "data_spot",
    "data_source": "osm"
  },
  {
    "name": "石留神社",
    "name_en": "",
    "lat": 38.3169004,
    "lng": 140.888167,
    "category": "shrine",
    "prefecture": "miyagi",
    "osm_id": 4535602990,
    "spot_type": "data_spot",
    "data_source": "osm"
  },
  {
    "name": "伊達八幡神社",
    "name_en": "Date Hachiman Jinja",
    "lat": 38.2452508,
    "lng": 140.8955507,
    "category": "shrine",
    "prefecture": "miyagi",
    "osm_id": 4536995893,
    "spot_type": "data_spot",
    "data_source": "osm"
  },
  {
    "name": "みんなの寺",
    "name_en": "Minnano Tera",
    "lat": 38.3077868,
    "lng": 140.8390283,
    "category": "temple",
    "prefecture": "miyagi",
    "osm_id": 4537516597,
    "spot_type": "data_spot",
    "data_source": "osm"
  },
  {
    "name": "吉成天満神社",
    "name_en": "",
    "lat": 38.2977929,
    "lng": 140.8246419,
    "category": "shrine",
    "prefecture": "miyagi",
    "osm_id": 4537604590,
    "spot_type": "data_spot",
    "data_source": "osm"
  },
  {
    "name": "雷神社",
    "name_en": "",
    "lat": 38.2765902,
    "lng": 140.8350467,
    "category": "shrine",
    "prefecture": "miyagi",
    "osm_id": 4537653391,
    "spot_type": "data_spot",
    "data_source": "osm"
  },
  {
    "name": "古峯神社",
    "name_en": "",
    "lat": 38.2280875,
    "lng": 140.9115839,
    "category": "shrine",
    "prefecture": "miyagi",
    "osm_id": 4538731397,
    "spot_type": "data_spot",
    "data_source": "osm"
  },
  {
    "name": "大山祗神社",
    "name_en": "",
    "lat": 38.2736634,
    "lng": 140.9242234,
    "category": "shrine",
    "prefecture": "miyagi",
    "osm_id": 4539466894,
    "spot_type": "data_spot",
    "data_source": "osm"
  },
  {
    "name": "深山神社",
    "name_en": "",
    "lat": 38.226601,
    "lng": 140.8637562,
    "category": "shrine",
    "prefecture": "miyagi",
    "osm_id": 4539564200,
    "spot_type": "data_spot",
    "data_source": "osm"
  },
  {
    "name": "伊豆佐比賣神社",
    "name_en": "",
    "lat": 38.3223459,
    "lng": 140.9637617,
    "category": "shrine",
    "prefecture": "miyagi",
    "osm_id": 4540796294,
    "spot_type": "data_spot",
    "data_source": "osm"
  },
  {
    "name": "山の神神社",
    "name_en": "",
    "lat": 38.3314556,
    "lng": 140.9658535,
    "category": "shrine",
    "prefecture": "miyagi",
    "osm_id": 4540845500,
    "spot_type": "data_spot",
    "data_source": "osm"
  },
  {
    "name": "熊野神社",
    "name_en": "",
    "lat": 38.3322685,
    "lng": 140.9678739,
    "category": "shrine",
    "prefecture": "miyagi",
    "osm_id": 4540845703,
    "spot_type": "data_spot",
    "data_source": "osm"
  },
  {
    "name": "熊野神社",
    "name_en": "",
    "lat": 38.3373117,
    "lng": 140.995875,
    "category": "shrine",
    "prefecture": "miyagi",
    "osm_id": 4540845706,
    "spot_type": "data_spot",
    "data_source": "osm"
  },
  {
    "name": "八幡宮",
    "name_en": "",
    "lat": 38.3298683,
    "lng": 140.9791577,
    "category": "shrine",
    "prefecture": "miyagi",
    "osm_id": 4540867495,
    "spot_type": "data_spot",
    "data_source": "osm"
  },
  {
    "name": "石神神社",
    "name_en": "",
    "lat": 38.3317322,
    "lng": 140.9628558,
    "category": "shrine",
    "prefecture": "miyagi",
    "osm_id": 4540867798,
    "spot_type": "data_spot",
    "data_source": "osm"
  },
  {
    "name": "圓城寺",
    "name_en": "",
    "lat": 38.3316745,
    "lng": 140.9817829,
    "category": "temple",
    "prefecture": "miyagi",
    "osm_id": 4540901791,
    "spot_type": "data_spot",
    "data_source": "osm"
  },
  {
    "name": "雷神社",
    "name_en": "",
    "lat": 38.333579,
    "lng": 140.9781201,
    "category": "shrine",
    "prefecture": "miyagi",
    "osm_id": 4540904590,
    "spot_type": "data_spot",
    "data_source": "osm"
  },
  {
    "name": "楊岐寺",
    "name_en": "",
    "lat": 38.3310283,
    "lng": 140.9735744,
    "category": "temple",
    "prefecture": "miyagi",
    "osm_id": 4540904591,
    "spot_type": "data_spot",
    "data_source": "osm"
  },
  {
    "name": "長龍寺",
    "name_en": "",
    "lat": 38.3315584,
    "lng": 140.982873,
    "category": "temple",
    "prefecture": "miyagi",
    "osm_id": 4540906289,
    "spot_type": "data_spot",
    "data_source": "osm"
  },
  {
    "name": "稲荷神社",
    "name_en": "",
    "lat": 38.3802979,
    "lng": 141.0743787,
    "category": "shrine",
    "prefecture": "miyagi",
    "osm_id": 4541071594,
    "spot_type": "data_spot",
    "data_source": "osm"
  },
  {
    "name": "日吉山王神社",
    "name_en": "",
    "lat": 38.3703587,
    "lng": 141.058324,
    "category": "shrine",
    "prefecture": "miyagi",
    "osm_id": 4541083490,
    "spot_type": "data_spot",
    "data_source": "osm"
  },
  {
    "name": "宝船寺",
    "name_en": "",
    "lat": 38.3799633,
    "lng": 141.0745441,
    "category": "temple",
    "prefecture": "miyagi",
    "osm_id": 4541108095,
    "spot_type": "data_spot",
    "data_source": "osm"
  },
  {
    "name": "三聖堂",
    "name_en": "Sanseido Temple",
    "lat": 38.3707592,
    "lng": 141.0604898,
    "category": "temple",
    "prefecture": "miyagi",
    "osm_id": 4541111592,
    "spot_type": "data_spot",
    "data_source": "osm"
  },
  {
    "name": "葉山神社",
    "name_en": "",
    "lat": 38.3750724,
    "lng": 141.0580934,
    "category": "shrine",
    "prefecture": "miyagi",
    "osm_id": 4541111600,
    "spot_type": "data_spot",
    "data_source": "osm"
  },
  {
    "name": "貴船神社",
    "name_en": "",
    "lat": 38.5961391,
    "lng": 141.0600023,
    "category": "shrine",
    "prefecture": "miyagi",
    "osm_id": 4544755401,
    "spot_type": "data_spot",
    "data_source": "osm"
  },
  {
    "name": "加茂神社",
    "name_en": "",
    "lat": 38.5996331,
    "lng": 141.0213562,
    "category": "shrine",
    "prefecture": "miyagi",
    "osm_id": 4544755403,
    "spot_type": "data_spot",
    "data_source": "osm"
  },
  {
    "name": "天神社",
    "name_en": "",
    "lat": 38.6054361,
    "lng": 141.0520516,
    "category": "shrine",
    "prefecture": "miyagi",
    "osm_id": 4544777794,
    "spot_type": "data_spot",
    "data_source": "osm"
  },
  {
    "name": "竹駒稲荷神社",
    "name_en": "",
    "lat": 38.6061383,
    "lng": 141.0282533,
    "category": "shrine",
    "prefecture": "miyagi",
    "osm_id": 4544778795,
    "spot_type": "data_spot",
    "data_source": "osm"
  },
  {
    "name": "熊野神社",
    "name_en": "",
    "lat": 38.5836622,
    "lng": 141.0340777,
    "category": "shrine",
    "prefecture": "miyagi",
    "osm_id": 4544785690,
    "spot_type": "data_spot",
    "data_source": "osm"
  },
  {
    "name": "孝勝寺別院",
    "name_en": "",
    "lat": 38.5373087,
    "lng": 141.0628991,
    "category": "temple",
    "prefecture": "miyagi",
    "osm_id": 4544812790,
    "spot_type": "data_spot",
    "data_source": "osm"
  },
  {
    "name": "東渓寺",
    "name_en": "",
    "lat": 38.5976727,
    "lng": 141.0241988,
    "category": "temple",
    "prefecture": "miyagi",
    "osm_id": 4544814591,
    "spot_type": "data_spot",
    "data_source": "osm"
  },
  {
    "name": "西林寺",
    "name_en": "",
    "lat": 38.6058233,
    "lng": 141.025266,
    "category": "temple",
    "prefecture": "miyagi",
    "osm_id": 4544825591,
    "spot_type": "data_spot",
    "data_source": "osm"
  },
  {
    "name": "神寺不動院松景院",
    "name_en": "",
    "lat": 38.5859005,
    "lng": 141.0311553,
    "category": "temple",
    "prefecture": "miyagi",
    "osm_id": 4544825592,
    "spot_type": "data_spot",
    "data_source": "osm"
  },
  {
    "name": "八幡神社",
    "name_en": "",
    "lat": 38.6076112,
    "lng": 141.0594058,
    "category": "shrine",
    "prefecture": "miyagi",
    "osm_id": 4544825993,
    "spot_type": "data_spot",
    "data_source": "osm"
  },
  {
    "name": "玄松院",
    "name_en": "",
    "lat": 38.5844038,
    "lng": 141.0345908,
    "category": "temple",
    "prefecture": "miyagi",
    "osm_id": 4544825994,
    "spot_type": "data_spot",
    "data_source": "osm"
  },
  {
    "name": "陽山寺",
    "name_en": "",
    "lat": 38.6075373,
    "lng": 141.05995,
    "category": "temple",
    "prefecture": "miyagi",
    "osm_id": 4544840392,
    "spot_type": "data_spot",
    "data_source": "osm"
  },
  {
    "name": "熊野神社",
    "name_en": "",
    "lat": 38.602552,
    "lng": 141.0577313,
    "category": "shrine",
    "prefecture": "miyagi",
    "osm_id": 4544841289,
    "spot_type": "data_spot",
    "data_source": "osm"
  },
  {
    "name": "富沢三丁目小社",
    "name_en": "",
    "lat": 38.2165054,
    "lng": 140.8580381,
    "category": "shrine",
    "prefecture": "miyagi",
    "osm_id": 4546154693,
    "spot_type": "data_spot",
    "data_source": "osm"
  },
  {
    "name": "多賀神社",
    "name_en": "",
    "lat": 38.217988,
    "lng": 140.8595395,
    "category": "shrine",
    "prefecture": "miyagi",
    "osm_id": 4546179689,
    "spot_type": "data_spot",
    "data_source": "osm"
  },
  {
    "name": "春日神社",
    "name_en": "",
    "lat": 38.2136917,
    "lng": 140.8752432,
    "category": "shrine",
    "prefecture": "miyagi",
    "osm_id": 4546297491,
    "spot_type": "data_spot",
    "data_source": "osm"
  },
  {
    "name": "石間稲荷神社",
    "name_en": "",
    "lat": 38.0620065,
    "lng": 140.8538904,
    "category": "shrine",
    "prefecture": "miyagi",
    "osm_id": 4547362051,
    "spot_type": "data_spot",
    "data_source": "osm"
  },
  {
    "name": "山神社",
    "name_en": "",
    "lat": 37.999914,
    "lng": 140.8900318,
    "category": "shrine",
    "prefecture": "miyagi",
    "osm_id": 4547362054,
    "spot_type": "data_spot",
    "data_source": "osm"
  },
  {
    "name": "熊野神社",
    "name_en": "",
    "lat": 38.0684964,
    "lng": 140.7654332,
    "category": "shrine",
    "prefecture": "miyagi",
    "osm_id": 4547840893,
    "spot_type": "data_spot",
    "data_source": "osm"
  },
  {
    "name": "大光院",
    "name_en": "",
    "lat": 38.0679166,
    "lng": 140.7651433,
    "category": "temple",
    "prefecture": "miyagi",
    "osm_id": 4547853090,
    "spot_type": "data_spot",
    "data_source": "osm"
  },
  {
    "name": "八幡神社",
    "name_en": "",
    "lat": 38.0711974,
    "lng": 140.8054877,
    "category": "shrine",
    "prefecture": "miyagi",
    "osm_id": 4547861290,
    "spot_type": "data_spot",
    "data_source": "osm"
  },
  {
    "name": "天王社",
    "name_en": "",
    "lat": 38.0656765,
    "lng": 140.7826176,
    "category": "shrine",
    "prefecture": "miyagi",
    "osm_id": 4547861391,
    "spot_type": "data_spot",
    "data_source": "osm"
  },
  {
    "name": "竹原神社",
    "name_en": "",
    "lat": 38.0716189,
    "lng": 140.8057871,
    "category": "shrine",
    "prefecture": "miyagi",
    "osm_id": 4547861392,
    "spot_type": "data_spot",
    "data_source": "osm"
  },
  {
    "name": "久須志神社",
    "name_en": "",
    "lat": 38.0793661,
    "lng": 140.8145952,
    "category": "shrine",
    "prefecture": "miyagi",
    "osm_id": 4548992521,
    "spot_type": "data_spot",
    "data_source": "osm"
  },
  {
    "name": "千貫神社",
    "name_en": "",
    "lat": 38.0908315,
    "lng": 140.8428007,
    "category": "shrine",
    "prefecture": "miyagi",
    "osm_id": 4548992541,
    "spot_type": "data_spot",
    "data_source": "osm"
  },
  {
    "name": "二本木稲荷神社",
    "name_en": "",
    "lat": 38.0870007,
    "lng": 140.8283672,
    "category": "shrine",
    "prefecture": "miyagi",
    "osm_id": 4549001929,
    "spot_type": "data_spot",
    "data_source": "osm"
  },
  {
    "name": "山神社",
    "name_en": "",
    "lat": 38.0919349,
    "lng": 140.8287285,
    "category": "shrine",
    "prefecture": "miyagi",
    "osm_id": 4549004412,
    "spot_type": "data_spot",
    "data_source": "osm"
  },
  {
    "name": "安國寺",
    "name_en": "",
    "lat": 38.1005184,
    "lng": 140.8640664,
    "category": "temple",
    "prefecture": "miyagi",
    "osm_id": 4549010690,
    "spot_type": "data_spot",
    "data_source": "osm"
  },
  {
    "name": "歴史民俗資料館",
    "name_en": "",
    "lat": 37.9619851,
    "lng": 140.8788129,
    "category": "museum",
    "prefecture": "miyagi",
    "osm_id": 4549017462,
    "spot_type": "data_spot",
    "data_source": "osm"
  },
  {
    "name": "夢海庵　鈴倭人形美術館",
    "name_en": "",
    "lat": 37.8428495,
    "lng": 140.9221692,
    "category": "museum",
    "prefecture": "miyagi",
    "osm_id": 4549220667,
    "spot_type": "data_spot",
    "data_source": "osm"
  },
  {
    "name": "雷神社",
    "name_en": "",
    "lat": 38.1165883,
    "lng": 140.8519512,
    "category": "shrine",
    "prefecture": "miyagi",
    "osm_id": 4550577989,
    "spot_type": "data_spot",
    "data_source": "osm"
  },
  {
    "name": "庄司神社",
    "name_en": "",
    "lat": 38.0503803,
    "lng": 140.7467484,
    "category": "shrine",
    "prefecture": "miyagi",
    "osm_id": 4550639714,
    "spot_type": "data_spot",
    "data_source": "osm"
  },
  {
    "name": "日蓮正宗 信正寺",
    "name_en": "",
    "lat": 38.054203,
    "lng": 140.7419405,
    "category": "temple",
    "prefecture": "miyagi",
    "osm_id": 4552202389,
    "spot_type": "data_spot",
    "data_source": "osm"
  },