[
  {
    "name": "Shrine",
    "name_en": "",
    "lat": 34.5175154,
    "lng": 134.3037104,
    "category": "shrine",
    "prefecture": "okayama",
    "osm_id": 261014731,
    "spot_type": "data_spot",
    "data_source": "osm"
  },
  {
    "name": "名称不明",
    "name_en": "",
    "lat": 34.5171358,
    "lng": 134.3143543,
    "category": "shrine",
    "prefecture": "okayama",
    "osm_id": 261014903,
    "spot_type": "data_spot",
    "data_source": "osm"
  },
  {
    "name": "名称不明",
    "name_en": "",
    "lat": 34.5181903,
    "lng": 134.312446,
    "category": "shrine",
    "prefecture": "okayama",
    "osm_id": 261014907,
    "spot_type": "data_spot",
    "data_source": "osm"
  },
  {
    "name": "銚子渓自然動物園 お猿の国",
    "name_en": "Choshi-Kei Monkey Park",
    "lat": 34.5153878,
    "lng": 134.242635,
    "category": "zoo",
    "prefecture": "okayama",
    "osm_id": 261020205,
    "spot_type": "data_spot",
    "data_source": "osm"
  },
  {
    "name": "宝生院 54",
    "name_en": "Hoshoin Temple 54",
    "lat": 34.4932721,
    "lng": 134.1971027,
    "category": "temple",
    "prefecture": "okayama",
    "osm_id": 261028794,
    "spot_type": "data_spot",
    "data_source": "osm"
  },
  {
    "name": "名称不明",
    "name_en": "",
    "lat": 34.4932781,
    "lng": 134.19679,
    "category": "shrine",
    "prefecture": "okayama",
    "osm_id": 261028796,
    "spot_type": "data_spot",
    "data_source": "osm"
  },
  {
    "name": "上道",
    "name_en": "Jyoto",
    "lat": 34.6994525,
    "lng": 134.0205696,
    "category": "station",
    "prefecture": "okayama",
    "osm_id": 265912275,
    "spot_type": "data_spot",
    "data_source": "osm"
  },
  {
    "name": "西阿知",
    "name_en": "Nishiachi",
    "lat": 34.585774,
    "lng": 133.7277573,
    "category": "station",
    "prefecture": "okayama",
    "osm_id": 265917572,
    "spot_type": "data_spot",
    "data_source": "osm"
  },
  {
    "name": "新倉敷",
    "name_en": "Shin-Kurashiki",
    "lat": 34.5650164,
    "lng": 133.6786647,
    "category": "station",
    "prefecture": "okayama",
    "osm_id": 265917731,
    "spot_type": "data_spot",
    "data_source": "osm"
  },
  {
    "name": "矢神",
    "name_en": "Yagami",
    "lat": 34.9431902,
    "lng": 133.3326139,
    "category": "station",
    "prefecture": "okayama",
    "osm_id": 266045429,
    "spot_type": "data_spot",
    "data_source": "osm"
  },
  {
    "name": "東城",
    "name_en": "Tōjō",
    "lat": 34.9015307,
    "lng": 133.273792,
    "category": "station",
    "prefecture": "okayama",
    "osm_id": 266045431,
    "spot_type": "data_spot",
    "data_source": "osm"
  },
  {
    "name": "市岡",
    "name_en": "Ichioka",
    "lat": 34.9663099,
    "lng": 133.34677,
    "category": "station",
    "prefecture": "okayama",
    "osm_id": 266045472,
    "spot_type": "data_spot",
    "data_source": "osm"
  },
  {
    "name": "野馳",
    "name_en": "Nochi",
    "lat": 34.9149754,
    "lng": 133.3167741,
    "category": "station",
    "prefecture": "okayama",
    "osm_id": 266045474,
    "spot_type": "data_spot",
    "data_source": "osm"
  },
  {
    "name": "坂根",
    "name_en": "Sakane",
    "lat": 34.9729672,
    "lng": 133.3707349,
    "category": "station",
    "prefecture": "okayama",
    "osm_id": 266045671,
    "spot_type": "data_spot",
    "data_source": "osm"
  },
  {
    "name": "足立",
    "name_en": "Ashidachi",
    "lat": 35.0388593,
    "lng": 133.3836136,
    "category": "station",
    "prefecture": "okayama",
    "osm_id": 266088575,
    "spot_type": "data_spot",
    "data_source": "osm"
  },
  {
    "name": "上菅",
    "name_en": "Kamisuge",
    "lat": 35.1937828,
    "lng": 133.3415741,
    "category": "station",
    "prefecture": "okayama",
    "osm_id": 266088913,
    "spot_type": "data_spot",
    "data_source": "osm"
  },
  {
    "name": "根雨",
    "name_en": "Neu",
    "lat": 35.24162,
    "lng": 133.4420322,
    "category": "station",
    "prefecture": "okayama",
    "osm_id": 266088938,
    "spot_type": "data_spot",
    "data_source": "osm"
  },
  {
    "name": "武庫",
    "name_en": "Muko",
    "lat": 35.267501,
    "lng": 133.4764904,
    "category": "station",
    "prefecture": "okayama",
    "osm_id": 266089170,
    "spot_type": "data_spot",
    "data_source": "osm"
  },
  {
    "name": "備中神代",
    "name_en": "Bitchū-Kōjiro",
    "lat": 34.9944566,
    "lng": 133.4006497,
    "category": "station",
    "prefecture": "okayama",
    "osm_id": 266089373,
    "spot_type": "data_spot",
    "data_source": "osm"
  },
  {
    "name": "井倉",
    "name_en": "Ikura",
    "lat": 34.9316454,
    "lng": 133.5148576,
    "category": "station",
    "prefecture": "okayama",
    "osm_id": 266090323,
    "spot_type": "data_spot",
    "data_source": "osm"
  },
  {
    "name": "生山",
    "name_en": "Shōyama",
    "lat": 35.1710725,
    "lng": 133.3220379,
    "category": "station",
    "prefecture": "okayama",
    "osm_id": 266090534,
    "spot_type": "data_spot",
    "data_source": "osm"
  },
  {
    "name": "江尾",
    "name_en": "Ebi",
    "lat": 35.2832987,
    "lng": 133.4849214,
    "category": "station",
    "prefecture": "okayama",
    "osm_id": 266090810,
    "spot_type": "data_spot",
    "data_source": "osm"
  },
  {
    "name": "黒坂",
    "name_en": "Kurosaka",
    "lat": 35.2069959,
    "lng": 133.3837022,
    "category": "station",
    "prefecture": "okayama",
    "osm_id": 266108267,
    "spot_type": "data_spot",
    "data_source": "osm"
  },
  {
    "name": "布原",
    "name_en": "Nunohara",
    "lat": 34.9876155,
    "lng": 133.4213819,
    "category": "station",
    "prefecture": "okayama",
    "osm_id": 266108702,
    "spot_type": "data_spot",
    "data_source": "osm"
  },
  {
    "name": "新郷",
    "name_en": "Niizato",
    "lat": 35.0825514,
    "lng": 133.3677881,
    "category": "station",
    "prefecture": "okayama",
    "osm_id": 266108795,
    "spot_type": "data_spot",
    "data_source": "osm"
  },
  {
    "name": "伯耆溝口",
    "name_en": "Hoki-Mizoguchi",
    "lat": 35.3482021,
    "lng": 133.4354226,
    "category": "station",
    "prefecture": "okayama",
    "osm_id": 266108977,
    "spot_type": "data_spot",
    "data_source": "osm"
  },
  {
    "name": "上石見",
    "name_en": "Kamiiwami",
    "lat": 35.1125466,
    "lng": 133.3512379,
    "category": "station",
    "prefecture": "okayama",
    "osm_id": 266110961,
    "spot_type": "data_spot",
    "data_source": "osm"
  },
  {
    "name": "戸手",
    "name_en": "Tode",
    "lat": 34.546754,
    "lng": 133.299884,
    "category": "station",
    "prefecture": "okayama",
    "osm_id": 266917675,
    "spot_type": "data_spot",
    "data_source": "osm"
  },
  {
    "name": "新市",
    "name_en": "Shin-ichi",
    "lat": 34.5543508,
    "lng": 133.2694533,
    "category": "station",
    "prefecture": "okayama",
    "osm_id": 266917681,
    "spot_type": "data_spot",
    "data_source": "osm"
  },
  {
    "name": "道上",
    "name_en": "Michinoue",
    "lat": 34.5535097,
    "lng": 133.3613836,
    "category": "station",
    "prefecture": "okayama",
    "osm_id": 266917744,
    "spot_type": "data_spot",
    "data_source": "osm"
  },
  {
    "name": "湯田村",
    "name_en": "Yudamura",
    "lat": 34.5519716,
    "lng": 133.3710077,
    "category": "station",
    "prefecture": "okayama",
    "osm_id": 266917748,
    "spot_type": "data_spot",
    "data_source": "osm"
  },
  {
    "name": "高木",
    "name_en": "Takagi",
    "lat": 34.5628176,
    "lng": 133.2536043,
    "category": "station",
    "prefecture": "okayama",
    "osm_id": 266917778,
    "spot_type": "data_spot",
    "data_source": "osm"
  },
  {
    "name": "駅家",
    "name_en": "Ekiya",
    "lat": 34.5489892,
    "lng": 133.3259223,
    "category": "station",
    "prefecture": "okayama",
    "osm_id": 266917956,
    "spot_type": "data_spot",
    "data_source": "osm"
  },
  {
    "name": "横尾",
    "name_en": "Yokoo",
    "lat": 34.521376,
    "lng": 133.36333,
    "category": "station",
    "prefecture": "okayama",
    "osm_id": 266917957,
    "spot_type": "data_spot",
    "data_source": "osm"
  },
  {
    "name": "神辺",
    "name_en": "Kannabe",
    "lat": 34.5371406,
    "lng": 133.3787131,
    "category": "station",
    "prefecture": "okayama",
    "osm_id": 266917967,
    "spot_type": "data_spot",
    "data_source": "osm"
  },
  {
    "name": "万能倉",
    "name_en": "Managura",
    "lat": 34.5509873,
    "lng": 133.3381302,
    "category": "station",
    "prefecture": "okayama",
    "osm_id": 266917973,
    "spot_type": "data_spot",
    "data_source": "osm"
  },
  {
    "name": "近田",
    "name_en": "Chikata",
    "lat": 34.5462221,
    "lng": 133.3105806,
    "category": "station",
    "prefecture": "okayama",
    "osm_id": 266917975,
    "spot_type": "data_spot",
    "data_source": "osm"
  },
  {
    "name": "上戸手",
    "name_en": "Kami-Tode",
    "lat": 34.5514516,
    "lng": 133.282431,
    "category": "station",
    "prefecture": "okayama",
    "osm_id": 266918030,
    "spot_type": "data_spot",
    "data_source": "osm"
  },
  {
    "name": "備後本庄",
    "name_en": "Bingo-Honjō",
    "lat": 34.4933882,
    "lng": 133.3451945,
    "category": "station",
    "prefecture": "okayama",
    "osm_id": 266918126,
    "spot_type": "data_spot",
    "data_source": "osm"
  },
  {
    "name": "楢原",
    "name_en": "Narahara",
    "lat": 35.0197024,
    "lng": 134.1894466,
    "category": "station",
    "prefecture": "okayama",
    "osm_id": 266922046,
    "spot_type": "data_spot",
    "data_source": "osm"
  },
  {
    "name": "美作江見",
    "name_en": "Mimasaka-Emi",
    "lat": 35.0134263,
    "lng": 134.2197632,
    "category": "station",
    "prefecture": "okayama",
    "osm_id": 266922446,
    "spot_type": "data_spot",
    "data_source": "osm"
  },
  {
    "name": "上月",
    "name_en": "Kozuki",
    "lat": 34.9836369,
    "lng": 134.3226039,
    "category": "station",
    "prefecture": "okayama",
    "osm_id": 266922630,
    "spot_type": "data_spot",
    "data_source": "osm"
  },
  {
    "name": "美作土居",
    "name_en": "Mimasaka-Doi",
    "lat": 34.9950742,
    "lng": 134.259908,
    "category": "station",
    "prefecture": "okayama",
    "osm_id": 266922646,
    "spot_type": "data_spot",
    "data_source": "osm"
  },
  {
    "name": "播磨徳久",
    "name_en": "Harima-Tokusa",
    "lat": 34.990524,
    "lng": 134.3860046,
    "category": "station",
    "prefecture": "okayama",
    "osm_id": 266922713,
    "spot_type": "data_spot",
    "data_source": "osm"
  },
  {
    "name": "美作大崎",
    "name_en": "Mimasaka-Ōsaki",
    "lat": 35.0453349,
    "lng": 134.0675002,
    "category": "station",
    "prefecture": "okayama",
    "osm_id": 266922787,
    "spot_type": "data_spot",
    "data_source": "osm"
  },
  {
    "name": "西勝間田",
    "name_en": "Nishi-Katsumada",
    "lat": 35.0435938,
    "lng": 134.0892774,
    "category": "station",
    "prefecture": "okayama",
    "osm_id": 266923670,
    "spot_type": "data_spot",
    "data_source": "osm"
  },
  {
    "name": "院庄",
    "name_en": "Innosho",
    "lat": 35.0590442,
    "lng": 133.9573718,
    "category": "station",
    "prefecture": "okayama",
    "osm_id": 266923831,
    "spot_type": "data_spot",
    "data_source": "osm"
  },
  {
    "name": "勝間田",
    "name_en": "Katsumada",
    "lat": 35.0357716,
    "lng": 134.1189305,
    "category": "station",
    "prefecture": "okayama",
    "osm_id": 266924919,
    "spot_type": "data_spot",
    "data_source": "osm"
  },
  {
    "name": "林野",
    "name_en": "Hayashino",
    "lat": 35.0139324,
    "lng": 134.1521491,
    "category": "station",
    "prefecture": "okayama",
    "osm_id": 266925222,
    "spot_type": "data_spot",
    "data_source": "osm"
  },
  {
    "name": "刑部",
    "name_en": "Osakabe",
    "lat": 35.0762602,
    "lng": 133.5659802,
    "category": "station",
    "prefecture": "okayama",
    "osm_id": 266925879,
    "spot_type": "data_spot",
    "data_source": "osm"
  },
  {
    "name": "岩山",
    "name_en": "Iwayama",
    "lat": 35.0228418,
    "lng": 133.5127736,
    "category": "station",
    "prefecture": "okayama",
    "osm_id": 266926400,
    "spot_type": "data_spot",
    "data_source": "osm"
  },
  {
    "name": "美作千代",
    "name_en": "Mimasaka-Sendai",
    "lat": 35.0584386,
    "lng": 133.9061711,
    "category": "station",
    "prefecture": "okayama",
    "osm_id": 266926506,
    "spot_type": "data_spot",
    "data_source": "osm"
  },
  {
    "name": "美作追分",
    "name_en": "Mimasaka-Oiwake",
    "lat": 35.0589005,
    "lng": 133.8201161,
    "category": "station",
    "prefecture": "okayama",
    "osm_id": 266930117,
    "spot_type": "data_spot",
    "data_source": "osm"
  },
  {
    "name": "中国勝山",
    "name_en": "Chugoku-Katsuyama",
    "lat": 35.0804497,
    "lng": 133.6946943,
    "category": "station",
    "prefecture": "okayama",
    "osm_id": 266930260,
    "spot_type": "data_spot",
    "data_source": "osm"
  },
  {
    "name": "月田",
    "name_en": "Tsukida",
    "lat": 35.048216,
    "lng": 133.6667587,
    "category": "station",
    "prefecture": "okayama",
    "osm_id": 266930290,
    "spot_type": "data_spot",
    "data_source": "osm"
  },
  {
    "name": "久世",
    "name_en": "Kuse",
    "lat": 35.0809912,
    "lng": 133.7452808,
    "category": "station",
    "prefecture": "okayama",
    "osm_id": 266930293,
    "spot_type": "data_spot",
    "data_source": "osm"
  },
  {
    "name": "美作落合",
    "name_en": "Mimasaka-Ochiai",
    "lat": 35.0231695,
    "lng": 133.7596564,
    "category": "station",
    "prefecture": "okayama",
    "osm_id": 266930334,
    "spot_type": "data_spot",
    "data_source": "osm"
  },
  {
    "name": "坪井",
    "name_en": "Tsuboi",
    "lat": 35.0621337,
    "lng": 133.8773469,
    "category": "station",
    "prefecture": "okayama",
    "osm_id": 266930335,
    "spot_type": "data_spot",
    "data_source": "osm"
  },
  {
    "name": "古見",
    "name_en": "Komi",
    "lat": 35.0491459,
    "lng": 133.7606253,
    "category": "station",
    "prefecture": "okayama",
    "osm_id": 266930340,
    "spot_type": "data_spot",
    "data_source": "osm"
  },
  {
    "name": "富原",
    "name_en": "Tomihara",
    "lat": 35.0549302,
    "lng": 133.6122002,
    "category": "station",
    "prefecture": "okayama",
    "osm_id": 266931136,
    "spot_type": "data_spot",
    "data_source": "osm"
  },
  {
    "name": "丹治部",
    "name_en": "Tajibe",
    "lat": 35.0461768,
    "lng": 133.5535158,
    "category": "station",
    "prefecture": "okayama",
    "osm_id": 266931199,
    "spot_type": "data_spot",
    "data_source": "osm"
  },
  {
    "name": "亀甲",
    "name_en": "Kamenoko",
    "lat": 34.9987946,
    "lng": 133.9591509,
    "category": "station",
    "prefecture": "okayama",
    "osm_id": 267054639,
    "spot_type": "data_spot",
    "data_source": "osm"
  },
  {
    "name": "金川",
    "name_en": "Kanagawa",
    "lat": 34.7920571,
    "lng": 133.9337335,
    "category": "station",
    "prefecture": "okayama",
    "osm_id": 267054644,
    "spot_type": "data_spot",
    "data_source": "osm"
  },
  {
    "name": "玉柏",
    "name_en": "Tamagashi",
    "lat": 34.7169327,
    "lng": 133.9644626,
    "category": "station",
    "prefecture": "okayama",
    "osm_id": 267054744,
    "spot_type": "data_spot",
    "data_source": "osm"
  },
  {
    "name": "神目",
    "name_en": "Kome",
    "lat": 34.8961727,
    "lng": 133.9351998,
    "category": "station",
    "prefecture": "okayama",
    "osm_id": 267054914,
    "spot_type": "data_spot",
    "data_source": "osm"
  },
  {
    "name": "津山口",
    "name_en": "Tsuyamaguchi",
    "lat": 35.0545867,
    "lng": 133.9828585,
    "category": "station",
    "prefecture": "okayama",
    "osm_id": 267054922,
    "spot_type": "data_spot",
    "data_source": "osm"
  },
  {
    "name": "弓削",
    "name_en": "Yuge",
    "lat": 34.9255556,
    "lng": 133.957848,
    "category": "station",
    "prefecture": "okayama",
    "osm_id": 267055003,
    "spot_type": "data_spot",
    "data_source": "osm"
  },
  {
    "name": "備前原",
    "name_en": "Bizen-Hara",
    "lat": 34.7049705,
    "lng": 133.9448882,
    "category": "station",
    "prefecture": "okayama",
    "osm_id": 267055010,
    "spot_type": "data_spot",
    "data_source": "osm"
  },
  {
    "name": "牧山",
    "name_en": "Makiyama",
    "lat": 34.7410383,
    "lng": 133.9606731,
    "category": "station",
    "prefecture": "okayama",
    "osm_id": 267055051,
    "spot_type": "data_spot",
    "data_source": "osm"
  },
  {
    "name": "誕生寺",
    "name_en": "Tanjoji",
    "lat": 34.9514682,
    "lng": 133.9593952,
    "category": "station",
    "prefecture": "okayama",
    "osm_id": 267055382,
    "spot_type": "data_spot",
    "data_source": "osm"
  },
  {
    "name": "小原",
    "name_en": "Obara",
    "lat": 34.968556,
    "lng": 133.9620004,
    "category": "station",
    "prefecture": "okayama",
    "osm_id": 267055383,
    "spot_type": "data_spot",
    "data_source": "osm"
  },
  {
    "name": "野々口",
    "name_en": "Nonokuchi",
    "lat": 34.7712833,
    "lng": 133.9325249,
    "category": "station",
    "prefecture": "okayama",
    "osm_id": 267055390,
    "spot_type": "data_spot",
    "data_source": "osm"
  },
  {
    "name": "佐良山",
    "name_en": "Sarayama",
    "lat": 35.0320527,
    "lng": 133.9607861,
    "category": "station",
    "prefecture": "okayama",
    "osm_id": 267055539,
    "spot_type": "data_spot",
    "data_source": "osm"
  },
  {
    "name": "福渡",
    "name_en": "Fukuwatari",
    "lat": 34.8704336,
    "lng": 133.9039797,
    "category": "station",
    "prefecture": "okayama",
    "osm_id": 267055795,
    "spot_type": "data_spot",
    "data_source": "osm"
  },
  {
    "name": "建部",
    "name_en": "Takebe",
    "lat": 34.8422745,
    "lng": 133.8991477,
    "category": "station",
    "prefecture": "okayama",
    "osm_id": 267057667,
    "spot_type": "data_spot",
    "data_source": "osm"
  },
  {
    "name": "法界院",
    "name_en": "Hōkaiin",
    "lat": 34.684794,
    "lng": 133.9274864,
    "category": "station",
    "prefecture": "okayama",
    "osm_id": 267057849,
    "spot_type": "data_spot",
    "data_source": "osm"
  },
  {
    "name": "東岡山",
    "name_en": "Higashi-Okayama",
    "lat": 34.6857877,
    "lng": 133.9881287,
    "category": "station",
    "prefecture": "okayama",
    "osm_id": 267058713,
    "spot_type": "data_spot",
    "data_source": "osm"
  },
  {
    "name": "因幡社",
    "name_en": "Inaba-Yashiro",
    "lat": 35.3124649,
    "lng": 134.1966116,
    "category": "station",
    "prefecture": "okayama",
    "osm_id": 267059422,
    "spot_type": "data_spot",
    "data_source": "osm"
  },
  {
    "name": "土師",
    "name_en": "Haji",
    "lat": 35.2328134,
    "lng": 134.2257895,
    "category": "station",
    "prefecture": "okayama",
    "osm_id": 267059656,
    "spot_type": "data_spot",
    "data_source": "osm"
  },
  {
    "name": "用瀬",
    "name_en": "Mochigase",
    "lat": 35.3434833,
    "lng": 134.2048976,
    "category": "station",
    "prefecture": "okayama",
    "osm_id": 267059727,
    "spot_type": "data_spot",
    "data_source": "osm"
  },
  {
    "name": "美作河井",
    "name_en": "Mimasaka-Kawai",
    "lat": 35.2053071,
    "lng": 134.1070101,
    "category": "station",
    "prefecture": "okayama",
    "osm_id": 267059821,
    "spot_type": "data_spot",
    "data_source": "osm"
  },
  {
    "name": "美作滝尾",
    "name_en": "Mimasaka-Takio",
    "lat": 35.1236569,
    "lng": 134.0713819,
    "category": "station",
    "prefecture": "okayama",
    "osm_id": 267059830,
    "spot_type": "data_spot",
    "data_source": "osm"
  },
  {
    "name": "美作加茂",
    "name_en": "Mimasaka-Kamo",
    "lat": 35.1694399,
    "lng": 134.0622633,
    "category": "station",
    "prefecture": "okayama",
    "osm_id": 267059932,
    "spot_type": "data_spot",
    "data_source": "osm"
  },
  {
    "name": "那岐",
    "name_en": "Nagi",
    "lat": 35.2138216,
    "lng": 134.2103877,
    "category": "station",
    "prefecture": "okayama",
    "osm_id": 267060087,
    "spot_type": "data_spot",
    "data_source": "osm"
  },
  {
    "name": "三浦",
    "name_en": "Miura",
    "lat": 35.141664,
    "lng": 134.0780212,
    "category": "station",
    "prefecture": "okayama",
    "osm_id": 267060565,
    "spot_type": "data_spot",
    "data_source": "osm"
  },
  {
    "name": "知和",
    "name_en": "Chiwa",
    "lat": 35.1928538,
    "lng": 134.077514,
    "category": "station",
    "prefecture": "okayama",
    "osm_id": 267060750,
    "spot_type": "data_spot",
    "data_source": "osm"
  },
  {
    "name": "高野",
    "name_en": "Takano",
    "lat": 35.08042,
    "lng": 134.066007,
    "category": "station",
    "prefecture": "okayama",
    "osm_id": 267060876,
    "spot_type": "data_spot",
    "data_source": "osm"
  },
  {
    "name": "三菱自工前",
    "name_en": "Mitsubishijiko-mae",
    "lat": 34.5229584,
    "lng": 133.7331149,
    "category": "station",
    "prefecture": "okayama",
    "osm_id": 270866516,
    "spot_type": "data_spot",
    "data_source": "osm"
  },
  {
    "name": "栄",
    "name_en": "Sakae",
    "lat": 34.5377661,
    "lng": 133.7448862,
    "category": "station",
    "prefecture": "okayama",
    "osm_id": 270866536,
    "spot_type": "data_spot",
    "data_source": "osm"
  },
  {
    "name": "球場前",
    "name_en": "Kyujo-mae",
    "lat": 34.5912368,
    "lng": 133.7473548,
    "category": "station",
    "prefecture": "okayama",
    "osm_id": 270866538,
    "spot_type": "data_spot",
    "data_source": "osm"
  },
  {
    "name": "弥生",
    "name_en": "Yayoi",
    "lat": 34.543717,
    "lng": 133.7474038,
    "category": "station",
    "prefecture": "okayama",
    "osm_id": 270866584,
    "spot_type": "data_spot",
    "data_source": "osm"
  },
  {
    "name": "倉敷市",
    "name_en": "Kurashikishi",
    "lat": 34.6009414,
    "lng": 133.7649638,
    "category": "station",
    "prefecture": "okayama",
    "osm_id": 270866603,
    "spot_type": "data_spot",
    "data_source": "osm"
  },
  {
    "name": "西富井",
    "name_en": "Nishitomi",
    "lat": 34.5775703,
    "lng": 133.7433446,
    "category": "station",
    "prefecture": "okayama",
    "osm_id": 270866604,
    "spot_type": "data_spot",
    "data_source": "osm"
  },
  {
    "name": "福井",
    "name_en": "Fukui",
    "lat": 34.5697694,
    "lng": 133.7444441,
    "category": "station",
    "prefecture": "okayama",
    "osm_id": 270866607,
    "spot_type": "data_spot",
    "data_source": "osm"
  },
  {
    "name": "常盤",
    "name_en": "Tokiwa",
    "lat": 34.5345508,
    "lng": 133.7434695,
    "category": "station",
    "prefecture": "okayama",
    "osm_id": 270866623,
    "spot_type": "data_spot",
    "data_source": "osm"
  },
  {
    "name": "浦田",
    "name_en": "Urada",
    "lat": 34.5611335,
    "lng": 133.7498617,
    "category": "station",
    "prefecture": "okayama",
    "osm_id": 270866626,
    "spot_type": "data_spot",
    "data_source": "osm"
  },
  {
    "name": "子守唄の里高屋",
    "name_en": "Komoriuta no sato Takaya",
    "lat": 34.5818061,
    "lng": 133.4333612,
    "category": "station",
    "prefecture": "okayama",
    "osm_id": 339080252,
    "spot_type": "data_spot",
    "data_source": "osm"
  },
  {
    "name": "早雲の里荏原",
    "name_en": "Sounnosato-Ebara",
    "lat": 34.596785,
    "lng": 133.5079931,
    "category": "station",
    "prefecture": "okayama",
    "osm_id": 339080255,
    "spot_type": "data_spot",
    "data_source": "osm"
  },
  {
    "name": "井原",
    "name_en": "Ibara",
    "lat": 34.5929244,
    "lng": 133.4690962,
    "category": "station",
    "prefecture": "okayama",
    "osm_id": 339080347,
    "spot_type": "data_spot",
    "data_source": "osm"
  },
  {
    "name": "三谷",
    "name_en": "Mitani",
    "lat": 34.6164299,
    "lng": 133.6195968,
    "category": "station",
    "prefecture": "okayama",
    "osm_id": 339080643,
    "spot_type": "data_spot",
    "data_source": "osm"
  },
  {
    "name": "小田",
    "name_en": "Oda",
    "lat": 34.6059942,
    "lng": 133.5424399,
    "category": "station",
    "prefecture": "okayama",
    "osm_id": 339081011,
    "spot_type": "data_spot",
    "data_source": "osm"
  },
  {
    "name": "矢掛",
    "name_en": "Yakage",
    "lat": 34.6293417,
    "lng": 133.5900212,
    "category": "station",
    "prefecture": "okayama",
    "osm_id": 339081025,
    "spot_type": "data_spot",
    "data_source": "osm"
  },
  {
    "name": "いずえ",
    "name_en": "Izue",
    "lat": 34.5879894,
    "lng": 133.4508623,
    "category": "station",
    "prefecture": "okayama",
    "osm_id": 339081095,
    "spot_type": "data_spot",
    "data_source": "osm"
  },
  {
    "name": "湯野",
    "name_en": "Yuno",
    "lat": 34.552927,
    "lng": 133.3869653,
    "category": "station",
    "prefecture": "okayama",
    "osm_id": 339081096,
    "spot_type": "data_spot",
    "data_source": "osm"
  },
  {
    "name": "備中呉妹",
    "name_en": "Bitchu-Kurese",
    "lat": 34.6216102,
    "lng": 133.6619174,
    "category": "station",
    "prefecture": "okayama",
    "osm_id": 339081098,
    "spot_type": "data_spot",
    "data_source": "osm"
  },
  {
    "name": "川辺宿",
    "name_en": "Kawabejuku",
    "lat": 34.6324037,
    "lng": 133.7148104,
    "category": "station",
    "prefecture": "okayama",
    "osm_id": 339081189,
    "spot_type": "data_spot",
    "data_source": "osm"
  },
  {
    "name": "御領",
    "name_en": "Goryo",
    "lat": 34.5647926,
    "lng": 133.4023921,
    "category": "station",
    "prefecture": "okayama",
    "osm_id": 339081216,
    "spot_type": "data_spot",
    "data_source": "osm"
  },
  {
    "name": "西粟倉",
    "name_en": "Nishi-Awakura",
    "lat": 35.160799,
    "lng": 134.3359427,
    "category": "station",
    "prefecture": "okayama",
    "osm_id": 355837610,
    "spot_type": "data_spot",
    "data_source": "osm"
  },
  {
    "name": "あわくら温泉",
    "name_en": "Awakura Onsen",
    "lat": 35.1886564,
    "lng": 134.3368749,
    "category": "station",
    "prefecture": "okayama",
    "osm_id": 355837825,
    "spot_type": "data_spot",
    "data_source": "osm"
  },
  {
    "name": "宮本武蔵",
    "name_en": "",
    "lat": 35.1016551,
    "lng": 134.3303865,
    "category": "station",
    "prefecture": "okayama",
    "osm_id": 355837872,
    "spot_type": "data_spot",
    "data_source": "osm"
  },
  {
    "name": "久崎",
    "name_en": "Kuzaki",
    "lat": 34.9609827,
    "lng": 134.3442701,
    "category": "station",
    "prefecture": "okayama",
    "osm_id": 355838072,
    "spot_type": "data_spot",
    "data_source": "osm"
  },
  {
    "name": "石井",
    "name_en": "",
    "lat": 35.0815816,
    "lng": 134.3578751,
    "category": "station",
    "prefecture": "okayama",
    "osm_id": 355838112,
    "spot_type": "data_spot",
    "data_source": "osm"
  },
  {
    "name": "河野原円心",
    "name_en": "Kōnohara-Enshin",
    "lat": 34.9188868,
    "lng": 134.3526652,
    "category": "station",
    "prefecture": "okayama",
    "osm_id": 355838114,
    "spot_type": "data_spot",
    "data_source": "osm"
  },
  {
    "name": "苔縄",
    "name_en": "Kokenawa",
    "lat": 34.8963536,
    "lng": 134.3538098,
    "category": "station",
    "prefecture": "okayama",
    "osm_id": 355838356,
    "spot_type": "data_spot",
    "data_source": "osm"
  },
  {
    "name": "平福",
    "name_en": "",
    "lat": 35.0437169,
    "lng": 134.3718449,
    "category": "station",
    "prefecture": "okayama",
    "osm_id": 355838570,
    "spot_type": "data_spot",
    "data_source": "osm"
  },
  {
    "name": "築港八幡宮",
    "name_en": "",
    "lat": 34.4951133,
    "lng": 133.9514319,
    "category": "shrine",
    "prefecture": "okayama",
    "osm_id": 601374768,
    "spot_type": "data_spot",
    "data_source": "osm"
  },
  {
    "name": "名称不明",
    "name_en": "",
    "lat": 34.3611119,
    "lng": 134.0552136,
    "category": "lighthouse",
    "prefecture": "okayama",
    "osm_id": 742454518,
    "spot_type": "data_spot",
    "data_source": "osm"
  },
  {
    "name": "直島銭湯 (Naoshima Bath)",
    "name_en": "Naoshima Bath",
    "lat": 34.4579858,
    "lng": 133.9751323,
    "category": "onsen",
    "prefecture": "okayama",
    "osm_id": 892741840,
    "spot_type": "data_spot",
    "data_source": "osm"
  },
  {
    "name": "名称不明",
    "name_en": "",
    "lat": 34.3667129,
    "lng": 134.0610976,
    "category": "lighthouse",
    "prefecture": "okayama",
    "osm_id": 1034841734,
    "spot_type": "data_spot",
    "data_source": "osm"
  },
  {
    "name": "名称不明",
    "name_en": "",
    "lat": 34.3604278,
    "lng": 134.0588573,
    "category": "lighthouse",
    "prefecture": "okayama",
    "osm_id": 1034841844,
    "spot_type": "data_spot",
    "data_source": "osm"
  },
  {
    "name": "大多府島灯台",
    "name_en": "",
    "lat": 34.6805968,
    "lng": 134.2951267,
    "category": "lighthouse",
    "prefecture": "okayama",
    "osm_id": 1223938752,
    "spot_type": "data_spot",
    "data_source": "osm"
  },
  {
    "name": "名称不明",
    "name_en": "",
    "lat": 34.4567905,
    "lng": 133.9704925,
    "category": "lighthouse",
    "prefecture": "okayama",
    "osm_id": 1223939065,
    "spot_type": "data_spot",
    "data_source": "osm"
  },
  {
    "name": "Ogre's Light House",
    "name_en": "",
    "lat": 34.3882363,
    "lng": 134.0530371,
    "category": "lighthouse",
    "prefecture": "okayama",
    "osm_id": 1223939082,
    "spot_type": "data_spot",
    "data_source": "osm"
  },
  {
    "name": "Red Light House",
    "name_en": "",
    "lat": 34.3884336,
    "lng": 134.0512257,
    "category": "lighthouse",
    "prefecture": "okayama",
    "osm_id": 1223939083,
    "spot_type": "data_spot",
    "data_source": "osm"
  },
  {
    "name": "名称不明",
    "name_en": "",
    "lat": 34.3800116,
    "lng": 134.0380401,
    "category": "lighthouse",
    "prefecture": "okayama",
    "osm_id": 1223939084,
    "spot_type": "data_spot",
    "data_source": "osm"
  },
  {
    "name": "名称不明",
    "name_en": "",
    "lat": 34.8158858,
    "lng": 133.6295339,
    "category": "rest_area",
    "prefecture": "okayama",
    "osm_id": 1307512614,
    "spot_type": "data_spot",
    "data_source": "osm"
  },
  {
    "name": "上郡町郷土資料館",
    "name_en": "",
    "lat": 34.8760263,
    "lng": 134.3624719,
    "category": "museum",
    "prefecture": "okayama",
    "osm_id": 1423049170,
    "spot_type": "data_spot",
    "data_source": "osm"
  },
  {
    "name": "佐用町立平福郷土館",
    "name_en": "",
    "lat": 35.0479755,
    "lng": 134.3702994,
    "category": "museum",
    "prefecture": "okayama",
    "osm_id": 1423052909,
    "spot_type": "data_spot",
    "data_source": "osm"
  },
  {
    "name": "兵庫県立大学西はりま天文台",
    "name_en": "",
    "lat": 35.0253917,
    "lng": 134.3355186,
    "category": "museum",
    "prefecture": "okayama",
    "osm_id": 1423054295,
    "spot_type": "data_spot",
    "data_source": "osm"
  },
  {
    "name": "義士宝物殿",
    "name_en": "Gishi Treasury",
    "lat": 34.7493976,
    "lng": 134.3883394,
    "category": "museum",
    "prefecture": "okayama",
    "osm_id": 1423057732,
    "spot_type": "data_spot",
    "data_source": "osm"
  },
  {
    "name": "日南町美術館",
    "name_en": "",
    "lat": 35.1636058,
    "lng": 133.3062919,
    "category": "museum",
    "prefecture": "okayama",
    "osm_id": 1423068164,
    "spot_type": "data_spot",
    "data_source": "osm"
  },
  {
    "name": "有年考古館",
    "name_en": "",
    "lat": 34.835254,
    "lng": 134.382581,
    "category": "museum",
    "prefecture": "okayama",
    "osm_id": 1423068883,
    "spot_type": "data_spot",
    "data_source": "osm"
  },
  {
    "name": "祐生出会いの館",
    "name_en": "",
    "lat": 35.3040837,
    "lng": 133.3250722,
    "category": "museum",
    "prefecture": "okayama",
    "osm_id": 1423079074,
    "spot_type": "data_spot",
    "data_source": "osm"
  },
  {
    "name": "宝物館",
    "name_en": "",
    "lat": 34.752902,
    "lng": 134.3902415,
    "category": "museum",
    "prefecture": "okayama",
    "osm_id": 1423090251,
    "spot_type": "data_spot",
    "data_source": "osm"
  },
  {
    "name": "若桜町歴史民俗資料館",
    "name_en": "",
    "lat": 35.345954,
    "lng": 134.403074,
    "category": "museum",
    "prefecture": "okayama",
    "osm_id": 1423090382,
    "spot_type": "data_spot",
    "data_source": "osm"
  },
  {
    "name": "赤穂市立歴史博物館",
    "name_en": "Akō City Museum of History",
    "lat": 34.747287,
    "lng": 134.390462,
    "category": "museum",
    "prefecture": "okayama",
    "osm_id": 1423091818,
    "spot_type": "data_spot",
    "data_source": "osm"
  },
  {
    "name": "赤穂市立民俗資料館",
    "name_en": "",
    "lat": 34.7498194,
    "lng": 134.3822829,
    "category": "museum",
    "prefecture": "okayama",
    "osm_id": 1423091819,
    "spot_type": "data_spot",
    "data_source": "osm"
  },
  {
    "name": "赤穂市立海洋科学館",
    "name_en": "",
    "lat": 34.733958,
    "lng": 134.398217,
    "category": "museum",
    "prefecture": "okayama",
    "osm_id": 1423091828,
    "spot_type": "data_spot",
    "data_source": "osm"
  },
  {
    "name": "赤穂市立美術工芸館田淵記念館",
    "name_en": "",
    "lat": 34.73075,
    "lng": 134.406878,
    "category": "museum",
    "prefecture": "okayama",
    "osm_id": 1423091830,
    "spot_type": "data_spot",
    "data_source": "osm"
  },
  {
    "name": "つやま自然のふしぎ館（津山科学教育博物館）",
    "name_en": "",
    "lat": 35.061108,
    "lng": 134.005265,
    "category": "museum",
    "prefecture": "okayama",
    "osm_id": 1423608045,
    "spot_type": "data_spot",
    "data_source": "osm"
  },
  {
    "name": "ビオトープ",
    "name_en": "biotope",
    "lat": 35.1005605,
    "lng": 134.1882974,
    "category": "museum",
    "prefecture": "okayama",
    "osm_id": 1423608050,
    "spot_type": "data_spot",
    "data_source": "osm"
  },
  {
    "name": "やかげ郷土美術館",
    "name_en": "",
    "lat": 34.624927,
    "lng": 133.587343,
    "category": "museum",
    "prefecture": "okayama",
    "osm_id": 1423608131,
    "spot_type": "data_spot",
    "data_source": "osm"
  },
  {
    "name": "中世夢が原",
    "name_en": "",
    "lat": 34.674057,
    "lng": 133.540098,
    "category": "museum",
    "prefecture": "okayama",
    "osm_id": 1423608375,
    "spot_type": "data_spot",
    "data_source": "osm"
  },
  {
    "name": "五流博物館",
    "name_en": "",
    "lat": 34.537296,
    "lng": 133.818832,
    "category": "museum",
    "prefecture": "okayama",
    "osm_id": 1423608561,
    "spot_type": "data_spot",
    "data_source": "osm"
  },
  {
    "name": "井原市芳井歴史民俗資料館",
    "name_en": "",
    "lat": 34.629108,
    "lng": 133.433275,
    "category": "museum",
    "prefecture": "okayama",
    "osm_id": 1423608586,
    "spot_type": "data_spot",
    "data_source": "osm"
  },
  {
    "name": "人形峠展示館",
    "name_en": "",
    "lat": 35.315766,
    "lng": 133.93708,
    "category": "museum",
    "prefecture": "okayama",
    "osm_id": 1423608617,
    "spot_type": "data_spot",
    "data_source": "osm"
  },
  {
    "name": "倉敷埋蔵文化財センター",
    "name_en": "",
    "lat": 34.536722,
    "lng": 133.7692211,
    "category": "museum",
    "prefecture": "okayama",
    "osm_id": 1423608822,
    "spot_type": "data_spot",
    "data_source": "osm"
  },
  {
    "name": "倉敷昆虫館",
    "name_en": "",
    "lat": 34.603559,
    "lng": 133.773171,
    "category": "museum",
    "prefecture": "okayama",
    "osm_id": 1423608944,
    "spot_type": "data_spot",
    "data_source": "osm"
  },
  {
    "name": "倉敷考古館",
    "name_en": "Kurashiki Archaeological Museum",
    "lat": 34.596038,
    "lng": 133.771863,
    "category": "museum",
    "prefecture": "okayama",
    "osm_id": 1423608962,
    "spot_type": "data_spot",
    "data_source": "osm"
  },
  {
    "name": "備前市吉永美術館",
    "name_en": "",
    "lat": 34.8154119,
    "lng": 134.2078634,
    "category": "museum",
    "prefecture": "okayama",
    "osm_id": 1423609014,
    "spot_type": "data_spot",
    "data_source": "osm"
  },
  {
    "name": "備前市歴史民俗資料館",
    "name_en": "",
    "lat": 34.746938,
    "lng": 134.193765,
    "category": "museum",
    "prefecture": "okayama",
    "osm_id": 1423609017,
    "spot_type": "data_spot",
    "data_source": "osm"
  },
  {
    "name": "備前長船刀剣博物館",
    "name_en": "Bizen Osafune Japanese Sword Museum",
    "lat": 34.721634,
    "lng": 134.106905,
    "category": "museum",
    "prefecture": "okayama",
    "osm_id": 1423609042,
    "spot_type": "data_spot",
    "data_source": "osm"
  },
  {
    "name": "加子浦歴史文化館",
    "name_en": "Kakonoura Historical Museum",
    "lat": 34.727859,
    "lng": 134.2723273,
    "category": "museum",
    "prefecture": "okayama",
    "osm_id": 1423609219,
    "spot_type": "data_spot",
    "data_source": "osm"
  },
  {
    "name": "加計美術館",
    "name_en": "Tribune Museum",
    "lat": 34.595721,
    "lng": 133.7714865,
    "category": "museum",
    "prefecture": "okayama",
    "osm_id": 1423609234,
    "spot_type": "data_spot",
    "data_source": "osm"
  },
  {
    "name": "勝央美術文学館",
    "name_en": "",
    "lat": 35.0421825,
    "lng": 134.1162448,
    "category": "museum",
    "prefecture": "okayama",
    "osm_id": 1423609256,
    "spot_type": "data_spot",
    "data_source": "osm"
  },
  {
    "name": "勝山郷土資料館",
    "name_en": "",
    "lat": 35.0840277,
    "lng": 133.6906575,
    "category": "museum",
    "prefecture": "okayama",
    "osm_id": 1423609259,
    "spot_type": "data_spot",
    "data_source": "osm"
  },
  {
    "name": "吉備考古館",
    "name_en": "",
    "lat": 34.659538,
    "lng": 133.768379,
    "category": "museum",
    "prefecture": "okayama",
    "osm_id": 1423609376,
    "spot_type": "data_spot",
    "data_source": "osm"
  },
  {
    "name": "吉備路文学館",
    "name_en": "",
    "lat": 34.6752024,
    "lng": 133.9238796,
    "category": "museum",
    "prefecture": "okayama",
    "osm_id": 1423609380,
    "spot_type": "data_spot",
    "data_source": "osm"
  },
  {
    "name": "和気町歴史民俗資料館",
    "name_en": "",
    "lat": 34.819575,
    "lng": 134.175599,
    "category": "museum",
    "prefecture": "okayama",
    "osm_id": 1423609431,
    "spot_type": "data_spot",
    "data_source": "osm"
  },
  {
    "name": "竹久夢二生家",
    "name_en": "",
    "lat": 34.6591766,
    "lng": 134.1205122,
    "category": "museum",
    "prefecture": "okayama",
    "osm_id": 1423609562,
    "spot_type": "data_spot",
    "data_source": "osm"
  },
  {
    "name": "夢二郷土美術館本館",
    "name_en": "Yumejikyodo Museum",
    "lat": 34.6707119,
    "lng": 133.9346426,
    "category": "museum",
    "prefecture": "okayama",
    "osm_id": 1423609563,
    "spot_type": "data_spot",
    "data_source": "osm"
  },
  {
    "name": "大原美術館 工芸・東洋館",
    "name_en": "Ohara Art Museum Crafts - Toyokan",
    "lat": 34.5962761,
    "lng": 133.77034,
    "category": "museum",
    "prefecture": "okayama",
    "osm_id": 1423609579,
    "spot_type": "data_spot",
    "data_source": "osm"
  },
  {
    "name": "岡山シティミュージアム",
    "name_en": "",
    "lat": 34.66631,
    "lng": 133.9158203,
    "category": "museum",
    "prefecture": "okayama",
    "osm_id": 1423610324,
    "spot_type": "data_spot",
    "data_source": "osm"
  },
  {
    "name": "岡山市水道記念館",
    "name_en": "",
    "lat": 34.686874,
    "lng": 133.935422,
    "category": "museum",
    "prefecture": "okayama",
    "osm_id": 1423610424,
    "spot_type": "data_spot",
    "data_source": "osm"
  },
  {
    "name": "岡山市立オリエント美術館",
    "name_en": "Okayama Orient Museum",
    "lat": 34.6663706,
    "lng": 133.9301513,
    "category": "museum",
    "prefecture": "okayama",
    "osm_id": 1423610534,
    "spot_type": "data_spot",
    "data_source": "osm"
  },
  {
    "name": "備前焼ミュージアム",
    "name_en": "Bizen Pottery Museum",
    "lat": 34.7390268,
    "lng": 134.1612141,
    "category": "museum",
    "prefecture": "okayama",
    "osm_id": 1423610946,
    "spot_type": "data_spot",
    "data_source": "osm"
  },
  {
    "name": "岡山県立吉備路郷土館",
    "name_en": "Soja Kibiji Bunka-kan Art Gallery",
    "lat": 34.668927,
    "lng": 133.787199,
    "category": "museum",
    "prefecture": "okayama",
    "osm_id": 1423611036,
    "spot_type": "data_spot",
    "data_source": "osm"
  },
  {
    "name": "岡山県立美術館",
    "name_en": "Okayama Prefectural Museum of Art",
    "lat": 34.6676691,
    "lng": 133.9298108,
    "category": "museum",
    "prefecture": "okayama",
    "osm_id": 1423611098,
    "spot_type": "data_spot",
    "data_source": "osm"
  },
  {
    "name": "岡山県自然保護センター",
    "name_en": "",
    "lat": 34.852671,
    "lng": 134.049909,
    "category": "zoo",
    "prefecture": "okayama",
    "osm_id": 1423611127,
    "spot_type": "data_spot",
    "data_source": "osm"
  },
  {
    "name": "岡崎嘉平太記念館",
    "name_en": "",
    "lat": 34.8348149,
    "lng": 133.7607637,
    "category": "museum",
    "prefecture": "okayama",
    "osm_id": 1423611380,
    "spot_type": "data_spot",
    "data_source": "osm"
  },
  {
    "name": "旧吹屋小学校",
    "name_en": "",
    "lat": 34.8629595,
    "lng": 133.4705455,
    "category": "museum",
    "prefecture": "okayama",
    "osm_id": 1423613069,
    "spot_type": "data_spot",
    "data_source": "osm"
  },
  {
    "name": "市立玉野海洋博物館",
    "name_en": "",
    "lat": 34.454952,
    "lng": 133.905395,
    "category": "zoo",
    "prefecture": "okayama",
    "osm_id": 1423614642,
    "spot_type": "data_spot",
    "data_source": "osm"
  },
  {
    "name": "御津町郷土歴史資料館",
    "name_en": "",
    "lat": 34.7983116,
    "lng": 133.9297642,
    "category": "museum",
    "prefecture": "okayama",
    "osm_id": 1423615571,
    "spot_type": "data_spot",
    "data_source": "osm"
  },
  {
    "name": "成羽歴史史料館",
    "name_en": "",
    "lat": 34.782708,
    "lng": 133.5391,
    "category": "museum",
    "prefecture": "okayama",
    "osm_id": 1423615616,
    "spot_type": "data_spot",
    "data_source": "osm"
  },
  {
    "name": "成羽町美術館",
    "name_en": "",
    "lat": 34.780714,
    "lng": 133.536896,
    "category": "museum",
    "prefecture": "okayama",
    "osm_id": 1423615619,
    "spot_type": "data_spot",
    "data_source": "osm"
  },
  {
    "name": "招き猫美術館",
    "name_en": "Manekineko Museum of Art",
    "lat": 34.739897,
    "lng": 133.944939,
    "category": "museum",
    "prefecture": "okayama",
    "osm_id": 1423615626,
    "spot_type": "data_spot",
    "data_source": "osm"
  },
  {
    "name": "政田民俗資料館",
    "name_en": "",
    "lat": 34.633483,
    "lng": 134.002244,
    "category": "museum",
    "prefecture": "okayama",
    "osm_id": 1423615648,
    "spot_type": "data_spot",
    "data_source": "osm"
  },
  {
    "name": "新庄村歴史民俗資料館",
    "name_en": "",
    "lat": 35.18038,
    "lng": 133.567049,
    "category": "museum",
    "prefecture": "okayama",
    "osm_id": 1423615674,
    "spot_type": "data_spot",
    "data_source": "osm"
  },
  {
    "name": "新見美術館",
    "name_en": "",
    "lat": 34.9853098,
    "lng": 133.4572467,
    "category": "museum",
    "prefecture": "okayama",
    "osm_id": 1423615699,
    "spot_type": "data_spot",
    "data_source": "osm"
  },
  {
    "name": "日本化石資料館",
    "name_en": "",
    "lat": 34.641946,
    "lng": 134.026882,
    "category": "museum",
    "prefecture": "okayama",
    "osm_id": 1423615739,
    "spot_type": "data_spot",
    "data_source": "osm"
  },
  {
    "name": "坂野記念館",
    "name_en": "",
    "lat": 34.718941,
    "lng": 133.9076313,
    "category": "museum",
    "prefecture": "okayama",
    "osm_id": 1423615752,
    "spot_type": "data_spot",
    "data_source": "osm"
  },
  {
    "name": "早島町立歴史民俗資料館",
    "name_en": "",
    "lat": 34.5993578,
    "lng": 133.8266716,
    "category": "museum",
    "prefecture": "okayama",
    "osm_id": 1423615778,
    "spot_type": "data_spot",
    "data_source": "osm"
  },
  {
    "name": "江坂コレクション展示室",
    "name_en": "",
    "lat": 34.869588,
    "lng": 133.9027548,
    "category": "museum",
    "prefecture": "okayama",
    "osm_id": 1423616580,
    "spot_type": "data_spot",
    "data_source": "osm"
  },
  {
    "name": "池田動物園",
    "name_en": "",
    "lat": 34.6748239,
    "lng": 133.9062361,
    "category": "zoo",
    "prefecture": "okayama",
    "osm_id": 1423616626,
    "spot_type": "data_spot",
    "data_source": "osm"
  },
  {
    "name": "津山市久米歴史民俗資料館",
    "name_en": "",
    "lat": 35.0600741,
    "lng": 133.8998212,
    "category": "museum",
    "prefecture": "okayama",
    "osm_id": 1423616741,
    "spot_type": "data_spot",
    "data_source": "osm"
  },
  {
    "name": "津山弥生の里文化財センター",
    "name_en": "",
    "lat": 35.082918,
    "lng": 134.013658,
    "category": "museum",
    "prefecture": "okayama",
    "osm_id": 1423616755,
    "spot_type": "data_spot",
    "data_source": "osm"
  },
  {
    "name": "津山洋学資料館",
    "name_en": "",
    "lat": 35.0637185,
    "lng": 134.0162193,
    "category": "museum",
    "prefecture": "okayama",
    "osm_id": 1423616759,
    "spot_type": "data_spot",
    "data_source": "osm"
  },
  {
    "name": "津山郷土博物館",
    "name_en": "",
    "lat": 35.060886,
    "lng": 134.005737,
    "category": "museum",
    "prefecture": "okayama",
    "osm_id": 1423616794,
    "spot_type": "data_spot",
    "data_source": "osm"
  },
  {
    "name": "海遊文化館",
    "name_en": "",
    "lat": 34.615808,
    "lng": 134.164017,
    "category": "museum",
    "prefecture": "okayama",
    "osm_id": 1423616890,
    "spot_type": "data_spot",
    "data_source": "osm"
  },
  {
    "name": "渓雨資料館",
    "name_en": "",
    "lat": 34.659553,
    "lng": 134.036882,
    "category": "museum",
    "prefecture": "okayama",
    "osm_id": 1423616909,
    "spot_type": "data_spot",
    "data_source": "osm"
  },
  {
    "name": "瀬戸内市立邑久郷土資料館",
    "name_en": "",
    "lat": 34.662983,
    "lng": 134.093866,
    "category": "museum",
    "prefecture": "okayama",
    "osm_id": 1423616950,
    "spot_type": "data_spot",
    "data_source": "osm"
  },
  {
    "name": "犬養木堂記念館",
    "name_en": "",
    "lat": 34.652112,
    "lng": 133.842783,
    "category": "museum",
    "prefecture": "okayama",
    "osm_id": 1423617006,
    "spot_type": "data_spot",
    "data_source": "osm"
  },
  {
    "name": "笠岡市立郷土館",
    "name_en": "",
    "lat": 34.5047305,
    "lng": 133.4969041,
    "category": "museum",
    "prefecture": "okayama",
    "osm_id": 1423618849,
    "spot_type": "data_spot",
    "data_source": "osm"
  },
  {
    "name": "総社市まちかど郷土館",
    "name_en": "",
    "lat": 34.675535,
    "lng": 133.754453,
    "category": "museum",
    "prefecture": "okayama",
    "osm_id": 1423618934,
    "spot_type": "data_spot",
    "data_source": "osm"
  },
  {
    "name": "荻野美術館",
    "name_en": "",
    "lat": 34.437989,
    "lng": 133.802366,
    "category": "museum",
    "prefecture": "okayama",
    "osm_id": 1423619154,
    "spot_type": "data_spot",
    "data_source": "osm"
  },
  {
    "name": "蒜山郷土博物館",
    "name_en": "",
    "lat": 35.294883,
    "lng": 133.712338,
    "category": "museum",
    "prefecture": "okayama",
    "osm_id": 1423619182,
    "spot_type": "data_spot",
    "data_source": "osm"
  },
  {
    "name": "蒜山郷土館",
    "name_en": "",
    "lat": 35.2802282,
    "lng": 133.6768932,
    "category": "museum",
    "prefecture": "okayama",
    "osm_id": 1423619183,
    "spot_type": "data_spot",
    "data_source": "osm"
  },
  {
    "name": "FAN美術館(藤原啓記念館)",
    "name_en": "",
    "lat": 34.7333055,
    "lng": 134.2018719,
    "category": "museum",
    "prefecture": "okayama",
    "osm_id": 1423619193,
    "spot_type": "data_spot",
    "data_source": "osm"
  },
  {
    "name": "誕生寺宝物館",
    "name_en": "",
    "lat": 34.9549591,
    "lng": 133.9534492,
    "category": "museum",
    "prefecture": "okayama",
    "osm_id": 1423619318,
    "spot_type": "data_spot",
    "data_source": "osm"
  },
  {
    "name": "遊び心の美術館古意庵",
    "name_en": "",
    "lat": 34.624438,
    "lng": 133.590466,
    "category": "museum",
    "prefecture": "okayama",
    "osm_id": 1423619474,
    "spot_type": "data_spot",
    "data_source": "osm"
  },
  {
    "name": "野崎家塩業歴史館",
    "name_en": "",
    "lat": 34.4721998,
    "lng": 133.8028143,
    "category": "museum",
    "prefecture": "okayama",
    "osm_id": 1423619614,
    "spot_type": "data_spot",
    "data_source": "osm"
  },
  {
    "name": "鏡野郷土博物館",
    "name_en": "",
    "lat": 35.090622,
    "lng": 133.932675,
    "category": "museum",
    "prefecture": "okayama",
    "osm_id": 1423619652,
    "spot_type": "data_spot",
    "data_source": "osm"
  },
  {
    "name": "高梁市吉備川上ふれあい漫画美術館",
    "name_en": "",
    "lat": 34.736577,
    "lng": 133.483494,
    "category": "museum",
    "prefecture": "okayama",
    "osm_id": 1423619840,
    "spot_type": "data_spot",
    "data_source": "osm"
  },
  {
    "name": "高梁市郷土資料館",
    "name_en": "",
    "lat": 34.795453,
    "lng": 133.618034,
    "category": "museum",
    "prefecture": "okayama",
    "osm_id": 1423619850,
    "spot_type": "data_spot",
    "data_source": "osm"
  },
  {
    "name": "鴨方郷土資料館",
    "name_en": "",
    "lat": 34.5322442,
    "lng": 133.5821265,
    "category": "museum",
    "prefecture": "okayama",
    "osm_id": 1423619914,
    "spot_type": "data_spot",
    "data_source": "osm"
  },
  {
    "name": "黒住教宝物館「まることセンター」",
    "name_en": "",
    "lat": 34.663339,
    "lng": 133.859736,
    "category": "museum",
    "prefecture": "okayama",
    "osm_id": 1423619934,
    "spot_type": "data_spot",
    "data_source": "osm"
  },
  {
    "name": "ふくやま書道美術館",
    "name_en": "",
    "lat": 34.487915,
    "lng": 133.358082,
    "category": "museum",
    "prefecture": "okayama",
    "osm_id": 1423627115,
    "spot_type": "data_spot",
    "data_source": "osm"
  },
  {
    "name": "中川美術館",
    "name_en": "",
    "lat": 34.398052,
    "lng": 133.368763,
    "category": "museum",
    "prefecture": "okayama",
    "osm_id": 1423628369,
    "spot_type": "data_spot",
    "data_source": "osm"
  },
  {
    "name": "国際聚蔵館（歌舞藍）",
    "name_en": "",
    "lat": 34.487213,
    "lng": 133.364242,
    "category": "museum",
    "prefecture": "okayama",
    "osm_id": 1423630353,
    "spot_type": "data_spot",
    "data_source": "osm"
  },
  {
    "name": "府中家具木工資料館",
    "name_en": "",
    "lat": 34.563497,
    "lng": 133.263213,
    "category": "museum",
    "prefecture": "okayama",
    "osm_id": 1423637914,
    "spot_type": "data_spot",
    "data_source": "osm"
  },
  {
    "name": "弥勒之里美術館",
    "name_en": "",
    "lat": 34.423319,
    "lng": 133.310003,
    "category": "museum",
    "prefecture": "okayama",
    "osm_id": 1423637997,
    "spot_type": "data_spot",
    "data_source": "osm"
  },
  {
    "name": "福山市神辺歴史民俗資料館",
    "name_en": "",
    "lat": 34.537236,
    "lng": 133.387039,
    "category": "museum",
    "prefecture": "okayama",
    "osm_id": 1423639351,
    "spot_type": "data_spot",
    "data_source": "osm"
  },
  {
    "name": "福山自動車時計博物館",
    "name_en": "Fukuyama Auto & Clock Museum",
    "lat": 34.497828,
    "lng": 133.363143,
    "category": "museum",
    "prefecture": "okayama",
    "osm_id": 1423639410,
    "spot_type": "data_spot",
    "data_source": "osm"
  },
  {
    "name": "菅茶山記念館",
    "name_en": "",
    "lat": 34.55735,
    "lng": 133.389945,
    "category": "museum",
    "prefecture": "okayama",
    "osm_id": 1423647181,
    "spot_type": "data_spot",
    "data_source": "osm"
  },
  {
    "name": "正覚院（山寺）宝物館",
    "name_en": "",
    "lat": 34.388384,
    "lng": 133.772372,
    "category": "museum",
    "prefecture": "okayama",
    "osm_id": 1423739987,
    "spot_type": "data_spot",
    "data_source": "osm"
  },
  {
    "name": "瀬戸内海歴史民俗資料館",
    "name_en": "",
    "lat": 34.378347,
    "lng": 133.931263,
    "category": "museum",
    "prefecture": "okayama",
    "osm_id": 1423740501,
    "spot_type": "data_spot",
    "data_source": "osm"
  },
  {
    "name": "香川県自然科学館",
    "name_en": "",
    "lat": 34.3777673,
    "lng": 133.9280333,
    "category": "museum",
    "prefecture": "okayama",
    "osm_id": 1423745274,
    "spot_type": "data_spot",
    "data_source": "osm"
  },
  {
    "name": "高松市鬼ヶ島おにの館",
    "name_en": "Onigashima Oninoyakata Museum",
    "lat": 34.3893786,
    "lng": 134.0521595,
    "category": "museum",
    "prefecture": "okayama",
    "osm_id": 1527616378,
    "spot_type": "data_spot",
    "data_source": "osm"
  },
  {
    "name": "青野神社",
    "name_en": "",
    "lat": 35.1553347,
    "lng": 134.3621321,
    "category": "shrine",
    "prefecture": "okayama",
    "osm_id": 1777909512,
    "spot_type": "data_spot",
    "data_source": "osm"
  },
  {
    "name": "白石城址",
    "name_en": "",
    "lat": 34.8531471,
    "lng": 133.9129793,
    "category": "castle",
    "prefecture": "okayama",
    "osm_id": 1907294241,
    "spot_type": "data_spot",
    "data_source": "osm"
  },
  {
    "name": "菅原神社",
    "name_en": "Sugawara Shrine",
    "lat": 34.8855992,
    "lng": 133.8961153,
    "category": "shrine",
    "prefecture": "okayama",
    "osm_id": 1907339553,
    "spot_type": "data_spot",
    "data_source": "osm"
  },
  {
    "name": "志呂神社 (Shiro Shrine)",
    "name_en": "",
    "lat": 34.8936692,
    "lng": 133.9170794,
    "category": "shrine",
    "prefecture": "okayama",
    "osm_id": 1907339715,
    "spot_type": "data_spot",
    "data_source": "osm"
  },
  {
    "name": "高井神社(Takai Shrine)",
    "name_en": "",
    "lat": 34.8912139,
    "lng": 133.9044837,
    "category": "shrine",
    "prefecture": "okayama",
    "osm_id": 1907340579,
    "spot_type": "data_spot",
    "data_source": "osm"
  },
  {
    "name": "豊楽寺",
    "name_en": "Buraku-ji Temple",
    "lat": 34.8806794,
    "lng": 133.9139895,
    "category": "temple",
    "prefecture": "okayama",
    "osm_id": 1907341800,
    "spot_type": "data_spot",
    "data_source": "osm"
  },
  {
    "name": "妙福寺",
    "name_en": "Myofuku-ji Temple",
    "lat": 34.8702239,
    "lng": 133.9061817,
    "category": "temple",
    "prefecture": "okayama",
    "osm_id": 1907343343,
    "spot_type": "data_spot",
    "data_source": "osm"
  },
  {
    "name": "八幡神社",
    "name_en": "Yahata Shrine",
    "lat": 34.8665652,
    "lng": 133.9072646,
    "category": "shrine",
    "prefecture": "okayama",
    "osm_id": 1907344056,
    "spot_type": "data_spot",
    "data_source": "osm"
  },
  {
    "name": "七社八幡宮",
    "name_en": "Shichisha Hachiman-gu Shrine",
    "lat": 34.864286,
    "lng": 133.9024526,
    "category": "shrine",
    "prefecture": "okayama",
    "osm_id": 1907346036,
    "spot_type": "data_spot",
    "data_source": "osm"
  },
  {
    "name": "妙泉寺 (Myosen-ji Temple)",
    "name_en": "",
    "lat": 34.8871405,
    "lng": 133.8942871,
    "category": "temple",
    "prefecture": "okayama",
    "osm_id": 1907870407,
    "spot_type": "data_spot",
    "data_source": "osm"
  },
  {
    "name": "日高神社　Hidaka Shrine",
    "name_en": "",
    "lat": 34.9403716,
    "lng": 133.8537384,
    "category": "shrine",
    "prefecture": "okayama",
    "osm_id": 1909394086,
    "spot_type": "data_spot",
    "data_source": "osm"
  },
  {
    "name": "和田神社　Wada Shrine",
    "name_en": "",
    "lat": 34.9351472,
    "lng": 133.8825936,
    "category": "shrine",
    "prefecture": "okayama",
    "osm_id": 1909399747,
    "spot_type": "data_spot",
    "data_source": "osm"
  },
  {
    "name": "成就寺　Johju-ji Temple",
    "name_en": "",
    "lat": 34.8540506,
    "lng": 133.889056,
    "category": "temple",
    "prefecture": "okayama",
    "osm_id": 1909412157,
    "spot_type": "data_spot",
    "data_source": "osm"
  },
  {
    "name": "熊野神社",
    "name_en": "Kumano Shrine",
    "lat": 34.8369246,
    "lng": 133.908722,
    "category": "shrine",
    "prefecture": "okayama",
    "osm_id": 1909416319,
    "spot_type": "data_spot",
    "data_source": "osm"
  },
  {
    "name": "阿弥陀堂",
    "name_en": "Amida-do",
    "lat": 34.8660938,
    "lng": 133.9006754,
    "category": "shrine",
    "prefecture": "okayama",
    "osm_id": 1909425741,
    "spot_type": "data_spot",
    "data_source": "osm"
  },
  {
    "name": "津山城跡",
    "name_en": "Tsuyama Castle Ruins",
    "lat": 35.0627653,
    "lng": 134.0048125,
    "category": "castle",
    "prefecture": "okayama",
    "osm_id": 1909471047,
    "spot_type": "data_spot",
    "data_source": "osm"
  },
  {
    "name": "岩屋城跡　Former Iwaya Castle",
    "name_en": "",
    "lat": 35.076084,
    "lng": 133.8352196,
    "category": "castle",
    "prefecture": "okayama",
    "osm_id": 1909480287,
    "spot_type": "data_spot",
    "data_source": "osm"
  },
  {
    "name": "江美城跡",
    "name_en": "",
    "lat": 35.2823144,
    "lng": 133.4870668,
    "category": "castle",
    "prefecture": "okayama",
    "osm_id": 1954278684,
    "spot_type": "data_spot",
    "data_source": "osm"
  },
  {
    "name": "生山神社",
    "name_en": "",
    "lat": 35.1690559,
    "lng": 133.3213546,
    "category": "shrine",
    "prefecture": "okayama",
    "osm_id": 1971234989,
    "spot_type": "data_spot",
    "data_source": "osm"
  },
  {
    "name": "栄福寺",
    "name_en": "",
    "lat": 35.1478308,
    "lng": 133.3306032,
    "category": "temple",
    "prefecture": "okayama",
    "osm_id": 1982445933,
    "spot_type": "data_spot",
    "data_source": "osm"
  },
  {
    "name": "素戔嗚神社 (Susano jinjya)",
    "name_en": "",
    "lat": 34.6947023,
    "lng": 134.0052613,
    "category": "shrine",
    "prefecture": "okayama",
    "osm_id": 2043579795,
    "spot_type": "data_spot",
    "data_source": "osm"
  },
  {
    "name": "總社八幡宮 (Soujya Hatimangu)",
    "name_en": "",
    "lat": 34.6957046,
    "lng": 134.0069359,
    "category": "shrine",
    "prefecture": "okayama",
    "osm_id": 2043579798,
    "spot_type": "data_spot",
    "data_source": "osm"
  },
  {
    "name": "北向神社",
    "name_en": "",
    "lat": 34.6754645,
    "lng": 133.8891578,
    "category": "shrine",
    "prefecture": "okayama",
    "osm_id": 2084768671,
    "spot_type": "data_spot",
    "data_source": "osm"
  },
  {
    "name": "間宮神社",
    "name_en": "",
    "lat": 34.6578734,
    "lng": 133.8274266,
    "category": "shrine",
    "prefecture": "okayama",
    "osm_id": 2169891826,
    "spot_type": "data_spot",
    "data_source": "osm"
  },
  {
    "name": "納骨堂",
    "name_en": "",
    "lat": 34.4095072,
    "lng": 134.1061069,
    "category": "temple",
    "prefecture": "okayama",
    "osm_id": 2274052604,
    "spot_type": "data_spot",
    "data_source": "osm"
  },
  {
    "name": "豊島横尾館",
    "name_en": "Yokoo House",
    "lat": 34.4869088,
    "lng": 134.0596607,
    "category": "museum",
    "prefecture": "okayama",
    "osm_id": 2401280882,
    "spot_type": "data_spot",
    "data_source": "osm"
  },
  {
    "name": "ANDO MUSEUM",
    "name_en": "Ando Museum",
    "lat": 34.4594028,
    "lng": 133.997021,
    "category": "museum",
    "prefecture": "okayama",
    "osm_id": 2401898964,
    "spot_type": "data_spot",
    "data_source": "osm"
  },
  {
    "name": "護王神社 (Goō-jinja)",
    "name_en": "Goō-jinja",
    "lat": 34.4597583,
    "lng": 133.9984404,
    "category": "shrine",
    "prefecture": "okayama",
    "osm_id": 2401900371,
    "spot_type": "data_spot",
    "data_source": "osm"
  },
  {
    "name": "鬼ノ城",
    "name_en": "Ki castle",
    "lat": 34.7275739,
    "lng": 133.7678973,
    "category": "castle",
    "prefecture": "okayama",
    "osm_id": 2460039705,
    "spot_type": "data_spot",
    "data_source": "osm"
  },
  {
    "name": "名称不明",
    "name_en": "",
    "lat": 34.4695304,
    "lng": 134.0685538,
    "category": "shrine",
    "prefecture": "okayama",
    "osm_id": 2560228582,
    "spot_type": "data_spot",
    "data_source": "osm"
  },
  {
    "name": "箆取神社",
    "name_en": "",
    "lat": 34.5519591,
    "lng": 133.7182987,
    "category": "shrine",
    "prefecture": "okayama",
    "osm_id": 2781512707,
    "spot_type": "data_spot",
    "data_source": "osm"
  },
  {
    "name": "プラネタリウム＆科学館 Planetarium",
    "name_en": "",
    "lat": 34.5356906,
    "lng": 133.7690389,
    "category": "museum",
    "prefecture": "okayama",
    "osm_id": 2808919360,
    "spot_type": "data_spot",
    "data_source": "osm"
  },
  {
    "name": "足高神社",
    "name_en": "",
    "lat": 34.5773287,
    "lng": 133.7644529,
    "category": "temple",
    "prefecture": "okayama",
    "osm_id": 2839238929,
    "spot_type": "data_spot",
    "data_source": "osm"
  },
  {
    "name": "心臓音のアーカイブ (Les Archives du Cœur)",
    "name_en": "Les Archives du Cœur",
    "lat": 34.4878754,
    "lng": 134.1031091,
    "category": "museum",
    "prefecture": "okayama",
    "osm_id": 2916091602,
    "spot_type": "data_spot",
    "data_source": "osm"
  },
  {
    "name": "一ノ谷庵 17",
    "name_en": "",
    "lat": 34.489269,
    "lng": 134.31044,
    "category": "temple",
    "prefecture": "okayama",
    "osm_id": 2921851255,
    "spot_type": "data_spot",
    "data_source": "osm"
  },
  {
    "name": "佛ヶ滝 20",
    "name_en": "",
    "lat": 34.503529,
    "lng": 134.30365,
    "category": "temple",
    "prefecture": "okayama",
    "osm_id": 2921851256,
    "spot_type": "data_spot",
    "data_source": "osm"
  },
  {
    "name": "佛谷山 41",
    "name_en": "",
    "lat": 34.491421,
    "lng": 134.218872,
    "category": "temple",
    "prefecture": "okayama",
    "osm_id": 2921851257,
    "spot_type": "data_spot",
    "data_source": "osm"
  },
  {
    "name": "保安寺 40",
    "name_en": "",
    "lat": 34.484886,
    "lng": 134.214798,
    "category": "temple",
    "prefecture": "okayama",
    "osm_id": 2921851258,
    "spot_type": "data_spot",
    "data_source": "osm"
  },
  {
    "name": "保寿寺庵(浜ノ庵) 34",
    "name_en": "",
    "lat": 34.469925,
    "lng": 134.238724,
    "category": "temple",
    "prefecture": "okayama",
    "osm_id": 2921851259,
    "spot_type": "data_spot",
    "data_source": "osm"
  },
  {
    "name": "光明寺 38",
    "name_en": "",
    "lat": 34.485214,
    "lng": 134.236496,
    "category": "temple",
    "prefecture": "okayama",
    "osm_id": 2921851260,
    "spot_type": "data_spot",
    "data_source": "osm"
  },
  {
    "name": "光明庵 65",
    "name_en": "",
    "lat": 34.49155,
    "lng": 134.178772,
    "category": "temple",
    "prefecture": "okayama",
    "osm_id": 2921851261,
    "spot_type": "data_spot",
    "data_source": "osm"
  },
  {
    "name": "円満寺 74",
    "name_en": "",
    "lat": 34.502991,
    "lng": 134.215164,
    "category": "temple",
    "prefecture": "okayama",
    "osm_id": 2921851262,
    "spot_type": "data_spot",
    "data_source": "osm"
  },
  {
    "name": "古江庵 4",
    "name_en": "",
    "lat": 34.459965,
    "lng": 134.314407,
    "category": "temple",
    "prefecture": "okayama",
    "osm_id": 2921851263,
    "spot_type": "data_spot",
    "data_source": "osm"
  },
  {
    "name": "吉田庵 82",
    "name_en": "",
    "lat": 34.555847,
    "lng": 134.339951,
    "category": "temple",
    "prefecture": "okayama",
    "osm_id": 2921851264,
    "spot_type": "data_spot",
    "data_source": "osm"
  },
  {
    "name": "向庵 7",
    "name_en": "",
    "lat": 34.467152,
    "lng": 134.324341,
    "category": "temple",
    "prefecture": "okayama",
    "osm_id": 2921851265,
    "spot_type": "data_spot",
    "data_source": "osm"
  },
  {
    "name": "地蔵寺堂 45",
    "name_en": "",
    "lat": 34.502819,
    "lng": 134.243591,
    "category": "temple",
    "prefecture": "okayama",
    "osm_id": 2921851266,
    "spot_type": "data_spot",
    "data_source": "osm"
  },
  {
    "name": "堀越庵 5",
    "name_en": "",
    "lat": 34.458054,
    "lng": 134.301682,
    "category": "temple",
    "prefecture": "okayama",
    "osm_id": 2921851267,
    "spot_type": "data_spot",
    "data_source": "osm"
  },
  {
    "name": "多聞寺 46",
    "name_en": "",
    "lat": 34.506733,
    "lng": 134.228531,
    "category": "temple",
    "prefecture": "okayama",
    "osm_id": 2921851268,
    "spot_type": "data_spot",
    "data_source": "osm"
  },
  {
    "name": "大乗殿 62",
    "name_en": "",
    "lat": 34.484398,
    "lng": 134.172028,
    "category": "temple",
    "prefecture": "okayama",
    "osm_id": 2921851269,
    "spot_type": "data_spot",
    "data_source": "osm"
  },
  {
    "name": "大師堂 15",
    "name_en": "",
    "lat": 34.486511,
    "lng": 134.314331,
    "category": "temple",
    "prefecture": "okayama",
    "osm_id": 2921851270,
    "spot_type": "data_spot",
    "data_source": "osm"
  },
  {
    "name": "大聖寺 75",
    "name_en": "",
    "lat": 34.515804,
    "lng": 134.216614,
    "category": "temple",
    "prefecture": "okayama",
    "osm_id": 2921851271,
    "spot_type": "data_spot",
    "data_source": "osm"
  },
  {
    "name": "奥之院 隼山",
    "name_en": "",
    "lat": 34.460613,
    "lng": 134.339783,
    "category": "temple",
    "prefecture": "okayama",
    "osm_id": 2921851272,
    "spot_type": "data_spot",
    "data_source": "osm"
  },
  {
    "name": "安養寺 24",
    "name_en": "",
    "lat": 34.47604,
    "lng": 134.287354,
    "category": "temple",
    "prefecture": "okayama",
    "osm_id": 2921851273,
    "spot_type": "data_spot",
    "data_source": "osm"
  },
  {
    "name": "宝憧坊 51",
    "name_en": "",
    "lat": 34.4933421,
    "lng": 134.1965206,
    "category": "temple",
    "prefecture": "okayama",
    "osm_id": 2921851274,
    "spot_type": "data_spot",
    "data_source": "osm"
  },
  {
    "name": "小豆島霊場会総本院",
    "name_en": "",
    "lat": 34.485126,
    "lng": 134.180176,
    "category": "temple",
    "prefecture": "okayama",
    "osm_id": 2921851275,
    "spot_type": "data_spot",
    "data_source": "osm"
  },
  {
    "name": "岡ノ坊 12",
    "name_en": "",
    "lat": 34.483936,
    "lng": 134.322784,
    "category": "temple",
    "prefecture": "okayama",
    "osm_id": 2921851276,
    "spot_type": "data_spot",
    "data_source": "osm"
  },
  {
    "name": "峯之山庵 22",
    "name_en": "",
    "lat": 34.4811113,
    "lng": 134.3020003,
    "category": "temple",
    "prefecture": "okayama",
    "osm_id": 2921851277,
    "spot_type": "data_spot",
    "data_source": "osm"
  },
  {
    "name": "常光寺 8",
    "name_en": "",
    "lat": 34.468636,
    "lng": 134.323807,
    "category": "temple",
    "prefecture": "okayama",
    "osm_id": 2921851278,
    "spot_type": "data_spot",
    "data_source": "osm"
  },
  {
    "name": "庚申堂 9",
    "name_en": "",
    "lat": 34.46981,
    "lng": 134.321625,
    "category": "temple",
    "prefecture": "okayama",
    "osm_id": 2921851279,
    "spot_type": "data_spot",
    "data_source": "osm"
  },
  {
    "name": "当浜庵 86",
    "name_en": "",
    "lat": 34.522926,
    "lng": 134.353424,
    "category": "temple",
    "prefecture": "okayama",
    "osm_id": 2921851280,
    "spot_type": "data_spot",
    "data_source": "osm"
  },
  {
    "name": "恵門ノ滝 81",
    "name_en": "",
    "lat": 34.534004,
    "lng": 134.300293,
    "category": "temple",
    "prefecture": "okayama",
    "osm_id": 2921851281,
    "spot_type": "data_spot",
    "data_source": "osm"
  },
  {
    "name": "恵門ノ滝",
    "name_en": "",
    "lat": 34.544346,
    "lng": 134.33725,
    "category": "temple",
    "prefecture": "okayama",
    "osm_id": 2921851282,
    "spot_type": "data_spot",
    "data_source": "osm"
  },
  {
    "name": "愛染寺 32",
    "name_en": "",
    "lat": 34.4724919,
    "lng": 134.2359734,
    "category": "temple",
    "prefecture": "okayama",
    "osm_id": 2921851283,
    "spot_type": "data_spot",
    "data_source": "osm"
  },
  {
    "name": "救世堂 73",
    "name_en": "",
    "lat": 34.506584,
    "lng": 134.21376,
    "category": "temple",
    "prefecture": "okayama",
    "osm_id": 2921851284,
    "spot_type": "data_spot",
    "data_source": "osm"
  },
  {
    "name": "旧八幡宮 52",
    "name_en": "",
    "lat": 34.4935128,
    "lng": 134.1975221,
    "category": "temple",
    "prefecture": "okayama",
    "osm_id": 2921851285,
    "spot_type": "data_spot",
    "data_source": "osm"
  },
  {
    "name": "明王寺",
    "name_en": "",
    "lat": 34.484089,
    "lng": 134.241898,
    "category": "temple",
    "prefecture": "okayama",
    "osm_id": 2921851286,
    "spot_type": "data_spot",
    "data_source": "osm"
  },
  {
    "name": "木ノ下庵 19",
    "name_en": "",
    "lat": 34.487305,
    "lng": 134.300827,
    "category": "temple",
    "prefecture": "okayama",
    "osm_id": 2921851287,
    "spot_type": "data_spot",
    "data_source": "osm"
  },
  {
    "name": "本地堂",
    "name_en": "",
    "lat": 34.542145,
    "lng": 134.339401,
    "category": "temple",
    "prefecture": "okayama",
    "osm_id": 2921851288,
    "spot_type": "data_spot",
    "data_source": "osm"
  },
  {
    "name": "本堂 23",
    "name_en": "",
    "lat": 34.481159,
    "lng": 134.300385,
    "category": "temple",
    "prefecture": "okayama",
    "osm_id": 2921851289,
    "spot_type": "data_spot",
    "data_source": "osm"
  },
  {
    "name": "本覚寺 53",
    "name_en": "",
    "lat": 34.491333,
    "lng": 134.178574,
    "category": "temple",
    "prefecture": "okayama",
    "osm_id": 2921851290,
    "spot_type": "data_spot",
    "data_source": "osm"
  },
  {
    "name": "東林庵 49",
    "name_en": "",
    "lat": 34.496269,
    "lng": 134.205933,
    "category": "temple",
    "prefecture": "okayama",
    "osm_id": 2921851291,
    "spot_type": "data_spot",
    "data_source": "osm"
  },
  {
    "name": "松林寺 68",
    "name_en": "",
    "lat": 34.511127,
    "lng": 134.169998,
    "category": "temple",
    "prefecture": "okayama",
    "osm_id": 2921851292,
    "spot_type": "data_spot",
    "data_source": "osm"
  },
  {
    "name": "松風庵 64",
    "name_en": "",
    "lat": 34.484772,
    "lng": 134.18187,
    "category": "temple",
    "prefecture": "okayama",
    "osm_id": 2921851293,
    "spot_type": "data_spot",
    "data_source": "osm"
  },
  {
    "name": "松風庵 39",
    "name_en": "",
    "lat": 34.487225,
    "lng": 134.2363742,
    "category": "temple",
    "prefecture": "okayama",
    "osm_id": 2921851294,
    "spot_type": "data_spot",
    "data_source": "osm"
  },
  {
    "name": "林庵 35",
    "name_en": "",
    "lat": 34.486141,
    "lng": 134.230621,
    "category": "temple",
    "prefecture": "okayama",
    "osm_id": 2921851295,
    "spot_type": "data_spot",
    "data_source": "osm"
  },
  {
    "name": "栂尾山 47",
    "name_en": "",
    "lat": 34.507812,
    "lng": 134.233841,
    "category": "temple",
    "prefecture": "okayama",
    "osm_id": 2921851296,
    "spot_type": "data_spot",
    "data_source": "osm"
  },
  {
    "name": "栄光寺 13",
    "name_en": "",
    "lat": 34.485352,
    "lng": 134.320221,
    "category": "temple",
    "prefecture": "okayama",
    "osm_id": 2921851297,
    "spot_type": "data_spot",
    "data_source": "osm"
  },
  {
    "name": "桜庵",
    "name_en": "",
    "lat": 34.472744,
    "lng": 134.276993,
    "category": "temple",
    "prefecture": "okayama",
    "osm_id": 2921851298,
    "spot_type": "data_spot",
    "data_source": "osm"
  },
  {
    "name": "楠霊庵 88",
    "name_en": "",
    "lat": 34.491531,
    "lng": 134.343552,
    "category": "temple",
    "prefecture": "okayama",
    "osm_id": 2921851299,
    "spot_type": "data_spot",
    "data_source": "osm"
  },
  {
    "name": "極楽寺 16",
    "name_en": "",
    "lat": 34.48531,
    "lng": 134.310547,
    "category": "temple",
    "prefecture": "okayama",
    "osm_id": 2921851300,
    "spot_type": "data_spot",
    "data_source": "osm"
  },
  {
    "name": "歓喜寺 77",
    "name_en": "",
    "lat": 34.51965,
    "lng": 134.226242,
    "category": "temple",
    "prefecture": "okayama",
    "osm_id": 2921855501,
    "spot_type": "data_spot",
    "data_source": "osm"
  },
  {
    "name": "正法寺 30",
    "name_en": "",
    "lat": 34.45208,
    "lng": 134.242966,
    "category": "temple",
    "prefecture": "okayama",
    "osm_id": 2921855502,
    "spot_type": "data_spot",
    "data_source": "osm"
  },
  {
    "name": "毘沙門堂 48",
    "name_en": "",
    "lat": 34.5075176,
    "lng": 134.2320319,
    "category": "temple",
    "prefecture": "okayama",
    "osm_id": 2921855503,
    "spot_type": "data_spot",
    "data_source": "osm"
  },
  {
    "name": "江洞窟 60",
    "name_en": "",
    "lat": 34.462612,
    "lng": 134.157562,
    "category": "temple",
    "prefecture": "okayama",
    "osm_id": 2921855504,
    "spot_type": "data_spot",
    "data_source": "osm"
  },
  {
    "name": "洞雲山 1",
    "name_en": "",
    "lat": 34.461597,
    "lng": 134.336746,
    "category": "temple",
    "prefecture": "okayama",
    "osm_id": 2921855505,
    "spot_type": "data_spot",
    "data_source": "osm"
  },
  {
    "name": "浄土寺 43",
    "name_en": "",
    "lat": 34.5027973,
    "lng": 134.2439019,
    "category": "temple",
    "prefecture": "okayama",
    "osm_id": 2921855506,
    "spot_type": "data_spot",
    "data_source": "osm"
  },
  {
    "name": "浄源坊 57",
    "name_en": "",
    "lat": 34.489105,
    "lng": 134.183167,
    "category": "temple",
    "prefecture": "okayama",
    "osm_id": 2921855508,
    "spot_type": "data_spot",
    "data_source": "osm"
  },
  {
    "name": "海底庵 87",
    "name_en": "",
    "lat": 34.501369,
    "lng": 134.347092,
    "category": "temple",
    "prefecture": "okayama",
    "osm_id": 2921855509,
    "spot_type": "data_spot",
    "data_source": "osm"
  },
  {
    "name": "清滝山 14",
    "name_en": "",
    "lat": 34.505833,
    "lng": 134.317612,
    "category": "temple",
    "prefecture": "okayama",
    "osm_id": 2921855510,
    "spot_type": "data_spot",
    "data_source": "osm"
  },
  {
    "name": "清見寺 21",
    "name_en": "",
    "lat": 34.484451,
    "lng": 134.303619,
    "category": "temple",
    "prefecture": "okayama",
    "osm_id": 2921855511,
    "spot_type": "data_spot",
    "data_source": "osm"
  },
  {
    "name": "湯舟山 44",
    "name_en": "",
    "lat": 34.505733,
    "lng": 134.242569,
    "category": "temple",
    "prefecture": "okayama",
    "osm_id": 2921855512,
    "spot_type": "data_spot",
    "data_source": "osm"
  },
  {
    "name": "滝ノ宮堂 71",
    "name_en": "",
    "lat": 34.505688,
    "lng": 134.199707,
    "category": "temple",
    "prefecture": "okayama",
    "osm_id": 2921855513,
    "spot_type": "data_spot",
    "data_source": "osm"
  },
  {
    "name": "滝湖寺 73",
    "name_en": "",
    "lat": 34.504871,
    "lng": 134.209442,
    "category": "temple",
    "prefecture": "okayama",
    "osm_id": 2921855514,
    "spot_type": "data_spot",
    "data_source": "osm"
  },
  {
    "name": "滝湖寺奥之院 笠ヶ滝 72",
    "name_en": "",
    "lat": 34.507305,
    "lng": 134.208176,
    "category": "temple",
    "prefecture": "okayama",
    "osm_id": 2921855515,
    "spot_type": "data_spot",
    "data_source": "osm"
  },
  {
    "name": "瑞雲堂 67",
    "name_en": "",
    "lat": 34.513245,
    "lng": 134.169388,
    "category": "temple",
    "prefecture": "okayama",
    "osm_id": 2921855516,
    "spot_type": "data_spot",
    "data_source": "osm"
  },
  {
    "name": "瑠璃堂 69",
    "name_en": "",
    "lat": 34.518253,
    "lng": 134.167664,
    "category": "temple",
    "prefecture": "okayama",
    "osm_id": 2921855517,
    "spot_type": "data_spot",
    "data_source": "osm"
  },
  {
    "name": "甘露庵 59",
    "name_en": "",
    "lat": 34.475864,
    "lng": 134.169418,
    "category": "temple",
    "prefecture": "okayama",
    "osm_id": 2921855518,
    "spot_type": "data_spot",
    "data_source": "osm"
  },
  {
    "name": "田ノ浦庵 6",
    "name_en": "",
    "lat": 34.452206,
    "lng": 134.286774,
    "category": "temple",
    "prefecture": "okayama",
    "osm_id": 2921855519,
    "spot_type": "data_spot",
    "data_source": "osm"
  },
  {
    "name": "石門洞 18",
    "name_en": "",
    "lat": 34.509686,
    "lng": 134.303925,
    "category": "temple",
    "prefecture": "okayama",
    "osm_id": 2921855520,
    "spot_type": "data_spot",
    "data_source": "osm"
  },
  {
    "name": "福田庵 83",
    "name_en": "",
    "lat": 34.5443,
    "lng": 134.337234,
    "category": "temple",
    "prefecture": "okayama",
    "osm_id": 2921855522,
    "spot_type": "data_spot",
    "data_source": "osm"
  },
  {
    "name": "等空庵 66",
    "name_en": "",
    "lat": 34.507256,
    "lng": 134.166641,
    "category": "temple",
    "prefecture": "okayama",
    "osm_id": 2921855523,
    "spot_type": "data_spot",
    "data_source": "osm"
  },
  {
    "name": "蓮華庵 63",
    "name_en": "",
    "lat": 34.484474,
    "lng": 134.171936,
    "category": "temple",
    "prefecture": "okayama",
    "osm_id": 2921855524,
    "spot_type": "data_spot",
    "data_source": "osm"
  },
  {
    "name": "薬師堂 28",
    "name_en": "",
    "lat": 34.4426929,
    "lng": 134.2529396,
    "category": "temple",
    "prefecture": "okayama",
    "osm_id": 2921855525,
    "spot_type": "data_spot",
    "data_source": "osm"
  },
  {
    "name": "薬師庵 79",
    "name_en": "",
    "lat": 34.547344,
    "lng": 134.270386,
    "category": "temple",
    "prefecture": "okayama",
    "osm_id": 2921855526,
    "spot_type": "data_spot",
    "data_source": "osm"
  },
  {
    "name": "藤原寺 76",
    "name_en": "",
    "lat": 34.525276,
    "lng": 134.229141,
    "category": "temple",
    "prefecture": "okayama",
    "osm_id": 2921855527,
    "spot_type": "data_spot",
    "data_source": "osm"
  },
  {
    "name": "行者堂 56",
    "name_en": "",
    "lat": 34.492104,
    "lng": 134.190063,
    "category": "temple",
    "prefecture": "okayama",
    "osm_id": 2921855528,
    "spot_type": "data_spot",
    "data_source": "osm"
  },
  {
    "name": "西の滝 42",
    "name_en": "",
    "lat": 34.489307,
    "lng": 134.223877,
    "category": "temple",
    "prefecture": "okayama",
    "osm_id": 2921855529,
    "spot_type": "data_spot",
    "data_source": "osm"
  },
  {
    "name": "西光寺 58",
    "name_en": "",
    "lat": 34.4830691,
    "lng": 134.1872718,
    "category": "temple",
    "prefecture": "okayama",
    "osm_id": 2921855530,
    "spot_type": "data_spot",
    "data_source": "osm"
  },
  {
    "name": "西照庵 10",
    "name_en": "",
    "lat": 34.463646,
    "lng": 134.3184709,
    "category": "temple",
    "prefecture": "okayama",
    "osm_id": 2921855532,
    "spot_type": "data_spot",
    "data_source": "osm"
  },
  {
    "name": "観音堂 11",
    "name_en": "",
    "lat": 34.477257,
    "lng": 134.320877,
    "category": "temple",
    "prefecture": "okayama",
    "osm_id": 2921855533,
    "spot_type": "data_spot",
    "data_source": "osm"
  },
  {
    "name": "観音堂 55",
    "name_en": "",
    "lat": 34.491756,
    "lng": 134.192886,
    "category": "temple",
    "prefecture": "okayama",
    "osm_id": 2921855534,
    "spot_type": "data_spot",
    "data_source": "osm"
  },
  {
    "name": "観音寺 3",
    "name_en": "",
    "lat": 34.458374,
    "lng": 134.323456,
    "category": "temple",
    "prefecture": "okayama",
    "osm_id": 2921855535,
    "spot_type": "data_spot",
    "data_source": "osm"
  },
  {
    "name": "観音寺 80",
    "name_en": "",
    "lat": 34.5451947,
    "lng": 134.2797021,
    "category": "temple",
    "prefecture": "okayama",
    "osm_id": 2921855536,
    "spot_type": "data_spot",
    "data_source": "osm"
  },
  {
    "name": "誓願寺 31",
    "name_en": "",
    "lat": 34.461746,
    "lng": 134.243317,
    "category": "temple",
    "prefecture": "okayama",
    "osm_id": 2921855537,
    "spot_type": "data_spot",
    "data_source": "osm"
  },
  {
    "name": "誓願寺庵 25",
    "name_en": "",
    "lat": 34.478432,
    "lng": 134.281418,
    "category": "temple",
    "prefecture": "okayama",
    "osm_id": 2921855538,
    "spot_type": "data_spot",
    "data_source": "osm"
  },
  {
    "name": "遊苦庵 50",
    "name_en": "",
    "lat": 34.494179,
    "lng": 134.203308,
    "category": "temple",
    "prefecture": "okayama",
    "osm_id": 2921855539,
    "spot_type": "data_spot",
    "data_source": "osm"
  },
  {
    "name": "釈迦堂 36",
    "name_en": "",
    "lat": 34.483982,
    "lng": 134.241898,
    "category": "temple",
    "prefecture": "okayama",
    "osm_id": 2921855540,
    "spot_type": "data_spot",
    "data_source": "osm"
  },
  {
    "name": "金剛寺",
    "name_en": "",
    "lat": 34.5262428,
    "lng": 134.2232253,
    "category": "temple",
    "prefecture": "okayama",
    "osm_id": 2921855541,
    "spot_type": "data_spot",
    "data_source": "osm"
  },
  {
    "name": "金剛寺奥之院 三暁庵 76",
    "name_en": "",
    "lat": 34.52087,
    "lng": 134.21907,
    "category": "temple",
    "prefecture": "okayama",
    "osm_id": 2921855542,
    "spot_type": "data_spot",
    "data_source": "osm"
  },
  {
    "name": "長勝寺 33",
    "name_en": "",
    "lat": 34.476959,
    "lng": 134.235458,
    "category": "temple",
    "prefecture": "okayama",
    "osm_id": 2921855543,
    "spot_type": "data_spot",
    "data_source": "osm"
  },
  {
    "name": "長勝寺 70",
    "name_en": "",
    "lat": 34.513432,
    "lng": 134.178665,
    "category": "temple",
    "prefecture": "okayama",
    "osm_id": 2921855544,
    "spot_type": "data_spot",
    "data_source": "osm"
  },
  {
    "name": "阿弥陀寺 26",
    "name_en": "",
    "lat": 34.47213,
    "lng": 134.278122,
    "category": "temple",
    "prefecture": "okayama",
    "osm_id": 2921855545,
    "spot_type": "data_spot",
    "data_source": "osm"
  },
  {
    "name": "雲海寺 84",
    "name_en": "",
    "lat": 34.541893,
    "lng": 134.339417,
    "category": "temple",
    "prefecture": "okayama",
    "osm_id": 2921855546,
    "spot_type": "data_spot",
    "data_source": "osm"
  },
  {
    "name": "雲胡庵 78",
    "name_en": "",
    "lat": 34.532139,
    "lng": 134.247879,
    "category": "temple",
    "prefecture": "okayama",
    "osm_id": 2921855547,
    "spot_type": "data_spot",
    "data_source": "osm"
  },
  {
    "name": "疫神社",
    "name_en": "",
    "lat": 34.6197086,
    "lng": 134.1450454,
    "category": "shrine",
    "prefecture": "okayama",
    "osm_id": 2951840752,
    "spot_type": "data_spot",
    "data_source": "osm"
  },
  {
    "name": "牛窓神社",
    "name_en": "",
    "lat": 34.622819,
    "lng": 134.1725264,
    "category": "shrine",
    "prefecture": "okayama",
    "osm_id": 2951840754,
    "spot_type": "data_spot",
    "data_source": "osm"
  },
  {
    "name": "御霊社",
    "name_en": "",
    "lat": 34.6182928,
    "lng": 134.1574599,
    "category": "shrine",
    "prefecture": "okayama",
    "osm_id": 2951840755,
    "spot_type": "data_spot",
    "data_source": "osm"
  },
  {
    "name": "名称不明",
    "name_en": "",
    "lat": 34.5441935,
    "lng": 134.3483937,
    "category": "lighthouse",
    "prefecture": "okayama",
    "osm_id": 3043588068,
    "spot_type": "data_spot",
    "data_source": "osm"
  },
  {
    "name": "名称不明",
    "name_en": "",
    "lat": 34.3738332,
    "lng": 133.8518228,
    "category": "lighthouse",
    "prefecture": "okayama",
    "osm_id": 3051342603,
    "spot_type": "data_spot",
    "data_source": "osm"
  },
  {
    "name": "名称不明",
    "name_en": "",
    "lat": 34.382384,
    "lng": 133.823685,
    "category": "lighthouse",
    "prefecture": "okayama",
    "osm_id": 3051342604,
    "spot_type": "data_spot",
    "data_source": "osm"
  },
  {
    "name": "名称不明",
    "name_en": "",
    "lat": 34.3834618,
    "lng": 133.8242293,
    "category": "lighthouse",
    "prefecture": "okayama",
    "osm_id": 3051342606,
    "spot_type": "data_spot",
    "data_source": "osm"
  },
  {
    "name": "名称不明",
    "name_en": "",
    "lat": 34.4154598,
    "lng": 134.2358527,
    "category": "lighthouse",
    "prefecture": "okayama",
    "osm_id": 3051342607,
    "spot_type": "data_spot",
    "data_source": "osm"
  },
  {
    "name": "名称不明",
    "name_en": "",
    "lat": 34.4797315,
    "lng": 134.0213673,
    "category": "lighthouse",
    "prefecture": "okayama",
    "osm_id": 3051342609,
    "spot_type": "data_spot",
    "data_source": "osm"
  },
  {
    "name": "名称不明",
    "name_en": "",
    "lat": 34.4897694,
    "lng": 134.0596246,
    "category": "lighthouse",
    "prefecture": "okayama",
    "osm_id": 3051342611,
    "spot_type": "data_spot",
    "data_source": "osm"
  },
  {
    "name": "名称不明",
    "name_en": "",
    "lat": 34.4908926,
    "lng": 134.0971836,
    "category": "lighthouse",
    "prefecture": "okayama",
    "osm_id": 3051342612,
    "spot_type": "data_spot",
    "data_source": "osm"
  },
  {
    "name": "名称不明",
    "name_en": "",
    "lat": 34.5478712,
    "lng": 134.2830752,
    "category": "lighthouse",
    "prefecture": "okayama",
    "osm_id": 3051342613,
    "spot_type": "data_spot",
    "data_source": "osm"
  },
  {
    "name": "名称不明",
    "name_en": "",
    "lat": 34.7038339,
    "lng": 134.3421314,
    "category": "lighthouse",
    "prefecture": "okayama",
    "osm_id": 3051342614,
    "spot_type": "data_spot",
    "data_source": "osm"
  },
  {
    "name": "名称不明",
    "name_en": "",
    "lat": 34.7299575,
    "lng": 134.4090676,
    "category": "lighthouse",
    "prefecture": "okayama",
    "osm_id": 3051342615,
    "spot_type": "data_spot",
    "data_source": "osm"
  },
  {
    "name": "須賀神社",
    "name_en": "",
    "lat": 34.8798817,
    "lng": 134.3613186,
    "category": "shrine",
    "prefecture": "okayama",
    "osm_id": 3064181233,
    "spot_type": "data_spot",
    "data_source": "osm"
  },
  {
    "name": "名称不明",
    "name_en": "",
    "lat": 34.7227036,
    "lng": 134.4069729,
    "category": "lighthouse",
    "prefecture": "okayama",
    "osm_id": 3069717851,
    "spot_type": "data_spot",
    "data_source": "osm"
  },
  {
    "name": "妙霑寺",
    "name_en": "",
    "lat": 34.6924012,
    "lng": 133.900444,
    "category": "temple",
    "prefecture": "okayama",
    "osm_id": 3074326736,
    "spot_type": "data_spot",
    "data_source": "osm"
  },
  {
    "name": "大多府港一文字防波堤西灯台",
    "name_en": "",
    "lat": 34.686384,
    "lng": 134.2976222,
    "category": "lighthouse",
    "prefecture": "okayama",
    "osm_id": 3079530994,
    "spot_type": "data_spot",
    "data_source": "osm"
  },
  {
    "name": "髙山千義神社",
    "name_en": "",
    "lat": 34.5728637,
    "lng": 133.4916126,
    "category": "shrine",
    "prefecture": "okayama",
    "osm_id": 3148225821,
    "spot_type": "data_spot",
    "data_source": "osm"
  },
  {
    "name": "西川原",
    "name_en": "Nishigawara",
    "lat": 34.678907,
    "lng": 133.9375777,
    "category": "station",
    "prefecture": "okayama",
    "osm_id": 3197058890,
    "spot_type": "data_spot",
    "data_source": "osm"
  },
  {
    "name": "恵比寿神社",
    "name_en": "",
    "lat": 34.387247,
    "lng": 133.52643,
    "category": "shrine",
    "prefecture": "okayama",
    "osm_id": 3281555662,
    "spot_type": "data_spot",
    "data_source": "osm"
  },
  {
    "name": "荒神社",
    "name_en": "",
    "lat": 34.3886092,
    "lng": 133.5242534,
    "category": "shrine",
    "prefecture": "okayama",
    "osm_id": 3283314958,
    "spot_type": "data_spot",
    "data_source": "osm"
  },
  {
    "name": "大松山城跡",
    "name_en": "Ōmatsuyama castle",
    "lat": 34.8138894,
    "lng": 133.6234443,
    "category": "castle",
    "prefecture": "okayama",
    "osm_id": 3302242537,
    "spot_type": "data_spot",
    "data_source": "osm"
  },
  {
    "name": "住吉大神宮",
    "name_en": "",
    "lat": 34.392476,
    "lng": 134.051145,
    "category": "shrine",
    "prefecture": "okayama",
    "osm_id": 3316137562,
    "spot_type": "data_spot",
    "data_source": "osm"
  },
  {
    "name": "加茂神社",
    "name_en": "Kamo Shrine",
    "lat": 34.4179904,
    "lng": 134.0554155,
    "category": "shrine",
    "prefecture": "okayama",
    "osm_id": 3374200711,
    "spot_type": "data_spot",
    "data_source": "osm"
  },
  {
    "name": "妙見神社",
    "name_en": "",
    "lat": 34.7827744,
    "lng": 133.6166082,
    "category": "shrine",
    "prefecture": "okayama",
    "osm_id": 3662446938,
    "spot_type": "data_spot",
    "data_source": "osm"
  },
  {
    "name": "威徳寺",
    "name_en": "",
    "lat": 34.7867763,
    "lng": 133.6209561,
    "category": "temple",
    "prefecture": "okayama",
    "osm_id": 3662446939,
    "spot_type": "data_spot",
    "data_source": "osm"
  },
  {
    "name": "山神社",
    "name_en": "",
    "lat": 34.7908264,
    "lng": 133.6130603,
    "category": "shrine",
    "prefecture": "okayama",
    "osm_id": 3662446962,
    "spot_type": "data_spot",
    "data_source": "osm"
  },
  {
    "name": "美保神社",
    "name_en": "",
    "lat": 34.7944912,
    "lng": 133.6146163,
    "category": "shrine",
    "prefecture": "okayama",
    "osm_id": 3662446969,
    "spot_type": "data_spot",
    "data_source": "osm"
  },
  {
    "name": "出雲大社備中分院",
    "name_en": "",
    "lat": 34.7952352,
    "lng": 133.6151673,
    "category": "shrine",
    "prefecture": "okayama",
    "osm_id": 3662446970,
    "spot_type": "data_spot",
    "data_source": "osm"
  },
  {
    "name": "高梁市商家資料館",
    "name_en": "",
    "lat": 34.7991771,
    "lng": 133.6165877,
    "category": "museum",
    "prefecture": "okayama",
    "osm_id": 3662447035,
    "spot_type": "data_spot",
    "data_source": "osm"
  },
  {
    "name": "八重籬神社",
    "name_en": "",
    "lat": 34.8044478,
    "lng": 133.6167632,
    "category": "shrine",
    "prefecture": "okayama",
    "osm_id": 3662447036,
    "spot_type": "data_spot",
    "data_source": "osm"
  },
  {
    "name": "御前神社",
    "name_en": "",
    "lat": 34.7992248,
    "lng": 133.6197181,
    "category": "shrine",
    "prefecture": "okayama",
    "osm_id": 3662447041,
    "spot_type": "data_spot",
    "data_source": "osm"
  },
  {
    "name": "御鋒神社",
    "name_en": "",
    "lat": 34.8014619,
    "lng": 133.6202507,
    "category": "shrine",
    "prefecture": "okayama",
    "osm_id": 3662447050,
    "spot_type": "data_spot",
    "data_source": "osm"
  },
  {
    "name": "荒神社",
    "name_en": "",
    "lat": 34.7804365,
    "lng": 133.5327565,
    "category": "shrine",
    "prefecture": "okayama",
    "osm_id": 3662464742,
    "spot_type": "data_spot",
    "data_source": "osm"
  },
  {
    "name": "荒神社",
    "name_en": "",
    "lat": 34.7846397,
    "lng": 133.5364187,
    "category": "shrine",
    "prefecture": "okayama",
    "osm_id": 3662464743,
    "spot_type": "data_spot",
    "data_source": "osm"
  },
  {
    "name": "森神社",
    "name_en": "",
    "lat": 34.7940896,
    "lng": 133.5277994,
    "category": "shrine",
    "prefecture": "okayama",
    "osm_id": 3662465133,
    "spot_type": "data_spot",
    "data_source": "osm"
  },
  {
    "name": "御前神社",
    "name_en": "",
    "lat": 34.7918478,
    "lng": 133.5313441,
    "category": "shrine",
    "prefecture": "okayama",
    "osm_id": 3662465134,
    "spot_type": "data_spot",
    "data_source": "osm"
  },
  {
    "name": "金比羅神社",
    "name_en": "",
    "lat": 34.7918971,
    "lng": 133.5332282,
    "category": "shrine",
    "prefecture": "okayama",
    "osm_id": 3662465135,
    "spot_type": "data_spot",
    "data_source": "osm"
  },
  {
    "name": "清岩神社",
    "name_en": "",
    "lat": 34.7833019,
    "lng": 133.5001747,
    "category": "shrine",
    "prefecture": "okayama",
    "osm_id": 3662465136,
    "spot_type": "data_spot",
    "data_source": "osm"
  },
  {
    "name": "荒神社",
    "name_en": "",
    "lat": 34.7821129,
    "lng": 133.5017158,
    "category": "shrine",
    "prefecture": "okayama",
    "osm_id": 3662465137,
    "spot_type": "data_spot",
    "data_source": "osm"
  },
  {
    "name": "教蓮寺",
    "name_en": "",
    "lat": 34.7941888,
    "lng": 133.4793843,
    "category": "shrine",
    "prefecture": "okayama",
    "osm_id": 3662465138,
    "spot_type": "data_spot",
    "data_source": "osm"
  },
  {
    "name": "浄福寺",
    "name_en": "",
    "lat": 34.7968045,
    "lng": 133.4374407,
    "category": "shrine",
    "prefecture": "okayama",
    "osm_id": 3662465139,
    "spot_type": "data_spot",
    "data_source": "osm"
  },
  {
    "name": "光伝寺",
    "name_en": "",
    "lat": 34.7938441,
    "lng": 133.4435132,
    "category": "shrine",
    "prefecture": "okayama",
    "osm_id": 3662465140,
    "spot_type": "data_spot",
    "data_source": "osm"
  },
  {
    "name": "國司神社",
    "name_en": "",
    "lat": 34.7936906,
    "lng": 133.4526381,
    "category": "shrine",
    "prefecture": "okayama",
    "osm_id": 3662465141,
    "spot_type": "data_spot",
    "data_source": "osm"
  },
  {
    "name": "国司神社",
    "name_en": "",
    "lat": 34.7887374,
    "lng": 133.4621935,
    "category": "shrine",
    "prefecture": "okayama",
    "osm_id": 3662465143,
    "spot_type": "data_spot",
    "data_source": "osm"
  },
  {
    "name": "荒神社",
    "name_en": "",
    "lat": 34.787871,
    "lng": 133.4505797,
    "category": "shrine",
    "prefecture": "okayama",
    "osm_id": 3662465144,
    "spot_type": "data_spot",
    "data_source": "osm"
  },
  {
    "name": "川中神社",
    "name_en": "",
    "lat": 34.7844121,
    "lng": 133.4731013,
    "category": "shrine",
    "prefecture": "okayama",
    "osm_id": 3662465145,
    "spot_type": "data_spot",
    "data_source": "osm"
  },
  {
    "name": "惣田神社",
    "name_en": "",
    "lat": 34.8101362,
    "lng": 133.4311493,
    "category": "shrine",
    "prefecture": "okayama",
    "osm_id": 3662465147,
    "spot_type": "data_spot",
    "data_source": "osm"
  },
  {
    "name": "田原神社",
    "name_en": "",
    "lat": 34.812992,
    "lng": 133.431359,
    "category": "shrine",
    "prefecture": "okayama",
    "osm_id": 3662465148,
    "spot_type": "data_spot",
    "data_source": "osm"
  },
  {
    "name": "堅山八幡神社",
    "name_en": "",
    "lat": 34.8186599,
    "lng": 133.4361788,
    "category": "shrine",
    "prefecture": "okayama",
    "osm_id": 3662465149,
    "spot_type": "data_spot",
    "data_source": "osm"
  },
  {
    "name": "桃太郎神社",
    "name_en": "",
    "lat": 34.8285672,
    "lng": 133.4358955,
    "category": "shrine",
    "prefecture": "okayama",
    "osm_id": 3662465151,
    "spot_type": "data_spot",
    "data_source": "osm"
  },
  {
    "name": "桃太郎資料館",
    "name_en": "",
    "lat": 34.8281868,
    "lng": 133.4358549,
    "category": "museum",
    "prefecture": "okayama",
    "osm_id": 3662465152,
    "spot_type": "data_spot",
    "data_source": "osm"
  },
  {
    "name": "重林寺",
    "name_en": "",
    "lat": 34.8295428,
    "lng": 133.4216595,
    "category": "shrine",
    "prefecture": "okayama",
    "osm_id": 3662465153,
    "spot_type": "data_spot",
    "data_source": "osm"
  },
  {
    "name": "大光院",
    "name_en": "",
    "lat": 34.8273678,
    "lng": 133.4171981,
    "category": "shrine",
    "prefecture": "okayama",
    "osm_id": 3662465154,
    "spot_type": "data_spot",
    "data_source": "osm"
  },
  {
    "name": "万福寺",
    "name_en": "",
    "lat": 34.8201045,
    "lng": 133.436046,
    "category": "shrine",
    "prefecture": "okayama",
    "osm_id": 3662465155,
    "spot_type": "data_spot",
    "data_source": "osm"
  },
  {
    "name": "湯屋八幡宮",
    "name_en": "",
    "lat": 34.8349147,
    "lng": 133.4468235,
    "category": "shrine",
    "prefecture": "okayama",
    "osm_id": 3662465156,
    "spot_type": "data_spot",
    "data_source": "osm"
  },
  {
    "name": "延命寺",
    "name_en": "",
    "lat": 34.8560011,
    "lng": 133.4832693,
    "category": "shrine",
    "prefecture": "okayama",
    "osm_id": 3662465158,
    "spot_type": "data_spot",
    "data_source": "osm"
  },
  {
    "name": "本教寺",
    "name_en": "",
    "lat": 34.8605114,
    "lng": 133.474992,
    "category": "shrine",
    "prefecture": "okayama",
    "osm_id": 3662465159,
    "spot_type": "data_spot",
    "data_source": "osm"
  },
  {
    "name": "岡山",
    "name_en": "Okayama",
    "lat": 34.6667504,
    "lng": 133.9182664,
    "category": "station",
    "prefecture": "okayama",
    "osm_id": 3667643459,
    "spot_type": "data_spot",
    "data_source": "osm"
  },
  {
    "name": "金刀比羅宮逢拝所",
    "name_en": "",
    "lat": 34.5973909,
    "lng": 133.7732966,
    "category": "shrine",
    "prefecture": "okayama",
    "osm_id": 3711539558,
    "spot_type": "data_spot",
    "data_source": "osm"
  },
  {
    "name": "アイビー学館",
    "name_en": "Ivy College",
    "lat": 34.5950965,
    "lng": 133.7732537,
    "category": "museum",
    "prefecture": "okayama",
    "osm_id": 3719435728,
    "spot_type": "data_spot",
    "data_source": "osm"
  },
  {
    "name": "吹屋ふるさと村郷土館",
    "name_en": "",
    "lat": 34.8618552,
    "lng": 133.4693549,
    "category": "museum",
    "prefecture": "okayama",
    "osm_id": 3719549888,
    "spot_type": "data_spot",
    "data_source": "osm"
  },
  {
    "name": "旧片山家住宅",
    "name_en": "",
    "lat": 34.8617827,
    "lng": 133.4688304,
    "category": "museum",
    "prefecture": "okayama",
    "osm_id": 3719549889,
    "spot_type": "data_spot",
    "data_source": "osm"
  },
  {
    "name": "弥高山神社",
    "name_en": "",
    "lat": 34.7356567,
    "lng": 133.4070917,
    "category": "shrine",
    "prefecture": "okayama",
    "osm_id": 3730184192,
    "spot_type": "data_spot",
    "data_source": "osm"
  },
  {
    "name": "曹洞宗 夢中山 幻住寺",
    "name_en": "",
    "lat": 35.0404107,
    "lng": 133.8703239,
    "category": "temple",
    "prefecture": "okayama",
    "osm_id": 3742593378,
    "spot_type": "data_spot",
    "data_source": "osm"
  },
  {
    "name": "真言宗 笠場山 普門寺",
    "name_en": "",
    "lat": 34.9804459,
    "lng": 133.7474761,
    "category": "temple",
    "prefecture": "okayama",
    "osm_id": 3742664981,
    "spot_type": "data_spot",
    "data_source": "osm"
  },
  {
    "name": "上郡",
    "name_en": "Kamigōri",
    "lat": 34.8660634,
    "lng": 134.353484,
    "category": "station",
    "prefecture": "okayama",
    "osm_id": 3791136194,
    "spot_type": "data_spot",
    "data_source": "osm"
  },
  {
    "name": "智頭",
    "name_en": "Chizu",
    "lat": 35.2650948,
    "lng": 134.2255826,
    "category": "station",
    "prefecture": "okayama",
    "osm_id": 3791318501,
    "spot_type": "data_spot",
    "data_source": "osm"
  },
  {
    "name": "恋山形",
    "name_en": "Koi-Yamagata",
    "lat": 35.2560005,
    "lng": 134.2789796,
    "category": "station",
    "prefecture": "okayama",
    "osm_id": 3792537971,
    "spot_type": "data_spot",
    "data_source": "osm"
  },
  {
    "name": "山郷",
    "name_en": "Yamasato",
    "lat": 35.2323406,
    "lng": 134.2891718,
    "category": "station",
    "prefecture": "okayama",
    "osm_id": 3801798988,
    "spot_type": "data_spot",
    "data_source": "osm"
  },
  {
    "name": "瑞泉院",
    "name_en": "",
    "lat": 34.5657239,
    "lng": 134.0122309,
    "category": "shrine",
    "prefecture": "okayama",
    "osm_id": 3819795136,
    "spot_type": "data_spot",
    "data_source": "osm"
  },
  {
    "name": "中蔵院",
    "name_en": "",
    "lat": 34.5639789,
    "lng": 134.0190804,
    "category": "shrine",
    "prefecture": "okayama",
    "osm_id": 3819801095,
    "spot_type": "data_spot",
    "data_source": "osm"
  },
  {
    "name": "谷井山 持雲寺",
    "name_en": "",
    "lat": 35.2457796,
    "lng": 134.231801,
    "category": "temple",
    "prefecture": "okayama",
    "osm_id": 3907481383,
    "spot_type": "data_spot",
    "data_source": "osm"
  },
  {
    "name": "誕生寺",
    "name_en": "",
    "lat": 34.9556004,
    "lng": 133.9529541,
    "category": "temple",
    "prefecture": "okayama",
    "osm_id": 3914552826,
    "spot_type": "data_spot",
    "data_source": "osm"
  },
  {
    "name": "鳥居",
    "name_en": "",
    "lat": 35.2134303,
    "lng": 134.1943544,
    "category": "shrine",
    "prefecture": "okayama",
    "osm_id": 3915863519,
    "spot_type": "data_spot",
    "data_source": "osm"
  },
  {
    "name": "八河谷神社",
    "name_en": "",
    "lat": 35.2991243,
    "lng": 134.3131026,
    "category": "shrine",
    "prefecture": "okayama",
    "osm_id": 3919370586,
    "spot_type": "data_spot",
    "data_source": "osm"
  },
  {
    "name": "篠坂神社",
    "name_en": "",
    "lat": 35.2595448,
    "lng": 134.2580031,
    "category": "shrine",
    "prefecture": "okayama",
    "osm_id": 3919531057,
    "spot_type": "data_spot",
    "data_source": "osm"
  },
  {
    "name": "惣地神社",
    "name_en": "",
    "lat": 35.2633291,
    "lng": 134.2041269,
    "category": "shrine",
    "prefecture": "okayama",
    "osm_id": 3928921376,
    "spot_type": "data_spot",
    "data_source": "osm"
  },
  {
    "name": "岩神城跡",
    "name_en": "",
    "lat": 35.2723061,
    "lng": 134.2191211,
    "category": "castle",
    "prefecture": "okayama",
    "osm_id": 3935654892,
    "spot_type": "data_spot",
    "data_source": "osm"
  },
  {
    "name": "清水観音堂",
    "name_en": "",
    "lat": 34.8897165,
    "lng": 133.8948746,
    "category": "shrine",
    "prefecture": "okayama",
    "osm_id": 3937425001,
    "spot_type": "data_spot",
    "data_source": "osm"
  },