[
  {
    "name": "ひめゆり平和祈念資料館",
    "name_en": "Himeyuri Peace Museum",
    "lat": 26.0964986,
    "lng": 127.6903396,
    "category": "museum",
    "prefecture": "okinawa",
    "osm_id": 602895164,
    "spot_type": "data_spot",
    "data_source": "osm"
  },
  {
    "name": "沖縄県平和祈念資料館",
    "name_en": "Okinawa Prefectural Peace Memorial Museum",
    "lat": 26.0965181,
    "lng": 127.7252361,
    "category": "museum",
    "prefecture": "okinawa",
    "osm_id": 602900690,
    "spot_type": "data_spot",
    "data_source": "osm"
  },
  {
    "name": "名称不明",
    "name_en": "",
    "lat": 24.3255422,
    "lng": 124.0838738,
    "category": "shrine",
    "prefecture": "okinawa",
    "osm_id": 605495717,
    "spot_type": "data_spot",
    "data_source": "osm"
  },
  {
    "name": "Saaji Ori",
    "name_en": "",
    "lat": 24.3281734,
    "lng": 124.0857915,
    "category": "shrine",
    "prefecture": "okinawa",
    "osm_id": 605495731,
    "spot_type": "data_spot",
    "data_source": "osm"
  },
  {
    "name": "名称不明",
    "name_en": "",
    "lat": 24.3313654,
    "lng": 124.0810407,
    "category": "shrine",
    "prefecture": "okinawa",
    "osm_id": 605495761,
    "spot_type": "data_spot",
    "data_source": "osm"
  },
  {
    "name": "西塘御嶽",
    "name_en": "",
    "lat": 24.3300896,
    "lng": 124.0864621,
    "category": "shrine",
    "prefecture": "okinawa",
    "osm_id": 605495780,
    "spot_type": "data_spot",
    "data_source": "osm"
  },
  {
    "name": "Folkcraft Museum",
    "name_en": "",
    "lat": 24.3314127,
    "lng": 124.0857267,
    "category": "museum",
    "prefecture": "okinawa",
    "osm_id": 605495788,
    "spot_type": "data_spot",
    "data_source": "osm"
  },
  {
    "name": "名称不明",
    "name_en": "",
    "lat": 24.3325051,
    "lng": 124.132332,
    "category": "lighthouse",
    "prefecture": "okinawa",
    "osm_id": 605495810,
    "spot_type": "data_spot",
    "data_source": "osm"
  },
  {
    "name": "名称不明",
    "name_en": "",
    "lat": 24.3350894,
    "lng": 124.136372,
    "category": "lighthouse",
    "prefecture": "okinawa",
    "osm_id": 605495813,
    "spot_type": "data_spot",
    "data_source": "osm"
  },
  {
    "name": "名称不明",
    "name_en": "",
    "lat": 24.3355907,
    "lng": 124.1403162,
    "category": "lighthouse",
    "prefecture": "okinawa",
    "osm_id": 605495816,
    "spot_type": "data_spot",
    "data_source": "osm"
  },
  {
    "name": "名称不明",
    "name_en": "",
    "lat": 24.4184466,
    "lng": 123.8064814,
    "category": "lighthouse",
    "prefecture": "okinawa",
    "osm_id": 605513373,
    "spot_type": "data_spot",
    "data_source": "osm"
  },
  {
    "name": "名称不明",
    "name_en": "",
    "lat": 26.1409792,
    "lng": 127.3422483,
    "category": "lighthouse",
    "prefecture": "okinawa",
    "osm_id": 676779373,
    "spot_type": "data_spot",
    "data_source": "osm"
  },
  {
    "name": "名称不明",
    "name_en": "",
    "lat": 26.2242558,
    "lng": 127.6515881,
    "category": "lighthouse",
    "prefecture": "okinawa",
    "osm_id": 695848163,
    "spot_type": "data_spot",
    "data_source": "osm"
  },
  {
    "name": "名称不明",
    "name_en": "",
    "lat": 26.2532894,
    "lng": 127.6577536,
    "category": "lighthouse",
    "prefecture": "okinawa",
    "osm_id": 695848176,
    "spot_type": "data_spot",
    "data_source": "osm"
  },
  {
    "name": "南大東村立ふるさと文化センター",
    "name_en": "",
    "lat": 25.8290322,
    "lng": 131.2296077,
    "category": "museum",
    "prefecture": "okinawa",
    "osm_id": 1068012991,
    "spot_type": "data_spot",
    "data_source": "osm"
  },
  {
    "name": "おきなわワールド玉泉洞",
    "name_en": "Okinawa World",
    "lat": 26.1398284,
    "lng": 127.7490139,
    "category": "museum",
    "prefecture": "okinawa",
    "osm_id": 1068014185,
    "spot_type": "data_spot",
    "data_source": "osm"
  },
  {
    "name": "宜野湾市立博物館",
    "name_en": "Ginowan City Museum",
    "lat": 26.2697671,
    "lng": 127.7406824,
    "category": "museum",
    "prefecture": "okinawa",
    "osm_id": 1068015481,
    "spot_type": "data_spot",
    "data_source": "osm"
  },
  {
    "name": "埋蔵文化財センター",
    "name_en": "",
    "lat": 26.243348,
    "lng": 127.759853,
    "category": "museum",
    "prefecture": "okinawa",
    "osm_id": 1068016179,
    "spot_type": "data_spot",
    "data_source": "osm"
  },
  {
    "name": "うるま市立石川歴史民俗資料館",
    "name_en": "Uruma City Ishikawa museum",
    "lat": 26.421856,
    "lng": 127.825245,
    "category": "museum",
    "prefecture": "okinawa",
    "osm_id": 1068017752,
    "spot_type": "data_spot",
    "data_source": "osm"
  },
  {
    "name": "歴史民俗資料展示室",
    "name_en": "",
    "lat": 26.173732,
    "lng": 127.674345,
    "category": "museum",
    "prefecture": "okinawa",
    "osm_id": 1068022281,
    "spot_type": "data_spot",
    "data_source": "osm"
  },
  {
    "name": "喜宝院蒐集館",
    "name_en": "",
    "lat": 24.3317382,
    "lng": 124.0840538,
    "category": "museum",
    "prefecture": "okinawa",
    "osm_id": 1068022942,
    "spot_type": "data_spot",
    "data_source": "osm"
  },
  {
    "name": "具志頭歴史民俗資料館",
    "name_en": "Gushichan History and Fork Museum",
    "lat": 26.1224789,
    "lng": 127.7435298,
    "category": "museum",
    "prefecture": "okinawa",
    "osm_id": 1068027240,
    "spot_type": "data_spot",
    "data_source": "osm"
  },
  {
    "name": "国営沖縄記念公園熱帯・亜熱帯都市緑化植物園",
    "name_en": "Tropical & Subtropical Arboretum",
    "lat": 26.680298,
    "lng": 127.882832,
    "category": "zoo",
    "prefecture": "okinawa",
    "osm_id": 1068028521,
    "spot_type": "data_spot",
    "data_source": "osm"
  },
  {
    "name": "国営沖縄記念公園海洋文化館",
    "name_en": "Oceanic Culture Museum",
    "lat": 26.6903361,
    "lng": 127.8779987,
    "category": "museum",
    "prefecture": "okinawa",
    "osm_id": 1068028895,
    "spot_type": "data_spot",
    "data_source": "osm"
  },
  {
    "name": "伊平屋村歴史民俗資料館",
    "name_en": "",
    "lat": 27.037203,
    "lng": 127.968827,
    "category": "museum",
    "prefecture": "okinawa",
    "osm_id": 1068031054,
    "spot_type": "data_spot",
    "data_source": "osm"
  },
  {
    "name": "浦添市美術館",
    "name_en": "Urasoe city museum",
    "lat": 26.250251,
    "lng": 127.719498,
    "category": "museum",
    "prefecture": "okinawa",
    "osm_id": 1068031771,
    "spot_type": "data_spot",
    "data_source": "osm"
  },
  {
    "name": "東村立山と水の生活博物館",
    "name_en": "",
    "lat": 26.6410753,
    "lng": 128.1672775,
    "category": "museum",
    "prefecture": "okinawa",
    "osm_id": 1068032145,
    "spot_type": "data_spot",
    "data_source": "osm"
  },
  {
    "name": "宮古島市総合博物館",
    "name_en": "",
    "lat": 24.796933,
    "lng": 125.317688,
    "category": "museum",
    "prefecture": "okinawa",
    "osm_id": 1068035371,
    "spot_type": "data_spot",
    "data_source": "osm"
  },
  {
    "name": "うるま市立海の文化資料館",
    "name_en": "",
    "lat": 26.3325587,
    "lng": 127.9290696,
    "category": "museum",
    "prefecture": "okinawa",
    "osm_id": 1068038865,
    "spot_type": "data_spot",
    "data_source": "osm"
  },
  {
    "name": "アヤミハビル館",
    "name_en": "",
    "lat": 24.4564542,
    "lng": 123.0106764,
    "category": "museum",
    "prefecture": "okinawa",
    "osm_id": 1068039374,
    "spot_type": "data_spot",
    "data_source": "osm"
  },
  {
    "name": "諸見民芸館",
    "name_en": "Moromi Folk Crafts Museum",
    "lat": 26.3274125,
    "lng": 127.7919502,
    "category": "museum",
    "prefecture": "okinawa",
    "osm_id": 1068041707,
    "spot_type": "data_spot",
    "data_source": "osm"
  },
  {
    "name": "東風平歴史民俗資料館",
    "name_en": "",
    "lat": 26.150696,
    "lng": 127.715097,
    "category": "museum",
    "prefecture": "okinawa",
    "osm_id": 1068042376,
    "spot_type": "data_spot",
    "data_source": "osm"
  },
  {
    "name": "首里城公園",
    "name_en": "Shuri castle park",
    "lat": 26.2179809,
    "lng": 127.7161664,
    "category": "museum",
    "prefecture": "okinawa",
    "osm_id": 1068043305,
    "spot_type": "data_spot",
    "data_source": "osm"
  },
  {
    "name": "御物城",
    "name_en": "Omono Gusuku ruins",
    "lat": 26.2084691,
    "lng": 127.6713272,
    "category": "castle",
    "prefecture": "okinawa",
    "osm_id": 1193995659,
    "spot_type": "data_spot",
    "data_source": "osm"
  },
  {
    "name": "名称不明",
    "name_en": "",
    "lat": 26.7121772,
    "lng": 127.8767707,
    "category": "lighthouse",
    "prefecture": "okinawa",
    "osm_id": 1271038235,
    "spot_type": "data_spot",
    "data_source": "osm"
  },
  {
    "name": "名称不明",
    "name_en": "",
    "lat": 26.6458854,
    "lng": 127.8206007,
    "category": "lighthouse",
    "prefecture": "okinawa",
    "osm_id": 1271038286,
    "spot_type": "data_spot",
    "data_source": "osm"
  },
  {
    "name": "平久保灯台",
    "name_en": "Hirakubosaki Lighthouse",
    "lat": 24.6103233,
    "lng": 124.3159707,
    "category": "lighthouse",
    "prefecture": "okinawa",
    "osm_id": 1271038682,
    "spot_type": "data_spot",
    "data_source": "osm"
  },
  {
    "name": "御神崎灯台",
    "name_en": "Ogansaki Lighthouse",
    "lat": 24.452599,
    "lng": 124.078657,
    "category": "lighthouse",
    "prefecture": "okinawa",
    "osm_id": 1297064343,
    "spot_type": "data_spot",
    "data_source": "osm"
  },
  {
    "name": "与論民俗館",
    "name_en": "",
    "lat": 27.025105,
    "lng": 128.452852,
    "category": "museum",
    "prefecture": "okinawa",
    "osm_id": 1423906310,
    "spot_type": "data_spot",
    "data_source": "osm"
  },
  {
    "name": "沖縄菩提樹苑",
    "name_en": "Okinawa Maha Bodhi Garden",
    "lat": 26.0864279,
    "lng": 127.6922244,
    "category": "temple",
    "prefecture": "okinawa",
    "osm_id": 1578516683,
    "spot_type": "data_spot",
    "data_source": "osm"
  },
  {
    "name": "高台山源空寺",
    "name_en": "",
    "lat": 26.2571894,
    "lng": 127.7374011,
    "category": "temple",
    "prefecture": "okinawa",
    "osm_id": 1583570457,
    "spot_type": "data_spot",
    "data_source": "osm"
  },
  {
    "name": "久米島ウミガメ館",
    "name_en": "Sea Turtle Museum",
    "lat": 26.3364149,
    "lng": 126.8262172,
    "category": "zoo",
    "prefecture": "okinawa",
    "osm_id": 1992264763,
    "spot_type": "data_spot",
    "data_source": "osm"
  },
  {
    "name": "名称不明",
    "name_en": "",
    "lat": 26.3337796,
    "lng": 126.7897218,
    "category": "rest_area",
    "prefecture": "okinawa",
    "osm_id": 1992271924,
    "spot_type": "data_spot",
    "data_source": "osm"
  },
  {
    "name": "Terme VILLA ちゅらーゆ",
    "name_en": "ChuLa U",
    "lat": 26.3130599,
    "lng": 127.7559098,
    "category": "onsen",
    "prefecture": "okinawa",
    "osm_id": 2002477815,
    "spot_type": "data_spot",
    "data_source": "osm"
  },
  {
    "name": "トグールの湯",
    "name_en": "Toguuru no yu",
    "lat": 26.4063791,
    "lng": 127.718025,
    "category": "onsen",
    "prefecture": "okinawa",
    "osm_id": 2004299630,
    "spot_type": "data_spot",
    "data_source": "osm"
  },
  {
    "name": "ヘリオス酒造",
    "name_en": "Helios Distillery",
    "lat": 26.5371728,
    "lng": 127.9622415,
    "category": "museum",
    "prefecture": "okinawa",
    "osm_id": 2004299632,
    "spot_type": "data_spot",
    "data_source": "osm"
  },
  {
    "name": "熱帯ドリームセンター",
    "name_en": "Tropical Dream Center",
    "lat": 26.6857451,
    "lng": 127.8765439,
    "category": "museum",
    "prefecture": "okinawa",
    "osm_id": 2004524733,
    "spot_type": "data_spot",
    "data_source": "osm"
  },
  {
    "name": "備瀬神殿",
    "name_en": "",
    "lat": 26.7030987,
    "lng": 127.8810362,
    "category": "shrine",
    "prefecture": "okinawa",
    "osm_id": 2042067082,
    "spot_type": "data_spot",
    "data_source": "osm"
  },
  {
    "name": "名称不明",
    "name_en": "",
    "lat": 26.6941243,
    "lng": 128.0182898,
    "category": "lighthouse",
    "prefecture": "okinawa",
    "osm_id": 2042190092,
    "spot_type": "data_spot",
    "data_source": "osm"
  },
  {
    "name": "沖縄こどもの国",
    "name_en": "Okinawa Children's Zoo & Museum",
    "lat": 26.3276961,
    "lng": 127.8035022,
    "category": "zoo",
    "prefecture": "okinawa",
    "osm_id": 2484725838,
    "spot_type": "data_spot",
    "data_source": "osm"
  },
  {
    "name": "名称不明",
    "name_en": "",
    "lat": 24.2694178,
    "lng": 123.8846899,
    "category": "lighthouse",
    "prefecture": "okinawa",
    "osm_id": 2607605434,
    "spot_type": "data_spot",
    "data_source": "osm"
  },
  {
    "name": "西崎灯台",
    "name_en": "Irizaki Ligthhouse",
    "lat": 24.4499743,
    "lng": 122.9343513,
    "category": "lighthouse",
    "prefecture": "okinawa",
    "osm_id": 2771804003,
    "spot_type": "data_spot",
    "data_source": "osm"
  },
  {
    "name": "東崎灯台",
    "name_en": "Agarizaki Lighthouse",
    "lat": 24.46226,
    "lng": 123.0430321,
    "category": "lighthouse",
    "prefecture": "okinawa",
    "osm_id": 2771804858,
    "spot_type": "data_spot",
    "data_source": "osm"
  },
  {
    "name": "沖縄市立郷土博物館",
    "name_en": "",
    "lat": 26.3316781,
    "lng": 127.7951888,
    "category": "museum",
    "prefecture": "okinawa",
    "osm_id": 2771807107,
    "spot_type": "data_spot",
    "data_source": "osm"
  },
  {
    "name": "池間島灯台",
    "name_en": "Ikema-Lighthouse",
    "lat": 24.9364738,
    "lng": 125.2355577,
    "category": "lighthouse",
    "prefecture": "okinawa",
    "osm_id": 2902760115,
    "spot_type": "data_spot",
    "data_source": "osm"
  },
  {
    "name": "高千穂神社",
    "name_en": "",
    "lat": 27.0345098,
    "lng": 128.4318334,
    "category": "shrine",
    "prefecture": "okinawa",
    "osm_id": 3416881376,
    "spot_type": "data_spot",
    "data_source": "osm"
  },
  {
    "name": "喜屋武埼灯台",
    "name_en": "",
    "lat": 26.0792314,
    "lng": 127.6698767,
    "category": "lighthouse",
    "prefecture": "okinawa",
    "osm_id": 3719371492,
    "spot_type": "data_spot",
    "data_source": "osm"
  },
  {
    "name": "かりゆしカンナタラソラグーナ",
    "name_en": "Kariyushi Kanna Thalasso Laguna Spa",
    "lat": 26.4744343,
    "lng": 127.960522,
    "category": "onsen",
    "prefecture": "okinawa",
    "osm_id": 3949218444,
    "spot_type": "data_spot",
    "data_source": "osm"
  },
  {
    "name": "具志堅用高記念館",
    "name_en": "Yoko Gushiken Memorial hall",
    "lat": 24.3497907,
    "lng": 124.1461726,
    "category": "museum",
    "prefecture": "okinawa",
    "osm_id": 3978001072,
    "spot_type": "data_spot",
    "data_source": "osm"
  },
  {
    "name": "観音崎灯台",
    "name_en": "",
    "lat": 24.3657311,
    "lng": 124.1115838,
    "category": "lighthouse",
    "prefecture": "okinawa",
    "osm_id": 3979407857,
    "spot_type": "data_spot",
    "data_source": "osm"
  },
  {
    "name": "桃林寺",
    "name_en": "Tourinji Temple",
    "lat": 24.3437512,
    "lng": 124.1555183,
    "category": "temple",
    "prefecture": "okinawa",
    "osm_id": 3979414763,
    "spot_type": "data_spot",
    "data_source": "osm"
  },
  {
    "name": "大東宮",
    "name_en": "",
    "lat": 25.9442258,
    "lng": 131.3025931,
    "category": "shrine",
    "prefecture": "okinawa",
    "osm_id": 4268164880,
    "spot_type": "data_spot",
    "data_source": "osm"
  },
  {
    "name": "名称不明",
    "name_en": "",
    "lat": 25.9497337,
    "lng": 131.2937847,
    "category": "lighthouse",
    "prefecture": "okinawa",
    "osm_id": 4268164927,
    "spot_type": "data_spot",
    "data_source": "osm"
  },
  {
    "name": "名称不明",
    "name_en": "",
    "lat": 25.9530718,
    "lng": 131.2874054,
    "category": "shrine",
    "prefecture": "okinawa",
    "osm_id": 4268164947,
    "spot_type": "data_spot",
    "data_source": "osm"
  },
  {
    "name": "大東神社",
    "name_en": "",
    "lat": 25.8424169,
    "lng": 131.2265755,
    "category": "shrine",
    "prefecture": "okinawa",
    "osm_id": 4269647026,
    "spot_type": "data_spot",
    "data_source": "osm"
  },
  {
    "name": "名称不明",
    "name_en": "",
    "lat": 25.8419127,
    "lng": 131.2190938,
    "category": "shrine",
    "prefecture": "okinawa",
    "osm_id": 4269648154,
    "spot_type": "data_spot",
    "data_source": "osm"
  },
  {
    "name": "秋葉神社",
    "name_en": "",
    "lat": 25.8453591,
    "lng": 131.2559177,
    "category": "shrine",
    "prefecture": "okinawa",
    "osm_id": 4269648155,
    "spot_type": "data_spot",
    "data_source": "osm"
  },
  {
    "name": "金武観音寺",
    "name_en": "Kin Kannonji temple",
    "lat": 26.4553141,
    "lng": 127.9213911,
    "category": "temple",
    "prefecture": "okinawa",
    "osm_id": 4358176394,
    "spot_type": "data_spot",
    "data_source": "osm"
  },
  {
    "name": "名称不明",
    "name_en": "",
    "lat": 24.0574703,
    "lng": 123.785476,
    "category": "lighthouse",
    "prefecture": "okinawa",
    "osm_id": 4472671308,
    "spot_type": "data_spot",
    "data_source": "osm"
  },
  {
    "name": "名称不明",
    "name_en": "",
    "lat": 24.0612737,
    "lng": 123.7778668,
    "category": "shrine",
    "prefecture": "okinawa",
    "osm_id": 4472671313,
    "spot_type": "data_spot",
    "data_source": "osm"
  },
  {
    "name": "名称不明",
    "name_en": "",
    "lat": 24.4683284,
    "lng": 123.8215568,
    "category": "shrine",
    "prefecture": "okinawa",
    "osm_id": 4472684320,
    "spot_type": "data_spot",
    "data_source": "osm"
  },
  {
    "name": "名称不明",
    "name_en": "",
    "lat": 24.4706752,
    "lng": 123.8199902,
    "category": "lighthouse",
    "prefecture": "okinawa",
    "osm_id": 4472684331,
    "spot_type": "data_spot",
    "data_source": "osm"
  },
  {
    "name": "名称不明",
    "name_en": "",
    "lat": 24.4704391,
    "lng": 123.8186089,
    "category": "shrine",
    "prefecture": "okinawa",
    "osm_id": 4472684332,
    "spot_type": "data_spot",
    "data_source": "osm"
  },
  {
    "name": "名称不明",
    "name_en": "",
    "lat": 24.4707891,
    "lng": 123.8213647,
    "category": "shrine",
    "prefecture": "okinawa",
    "osm_id": 4472684333,
    "spot_type": "data_spot",
    "data_source": "osm"
  },
  {
    "name": "名称不明",
    "name_en": "",
    "lat": 24.2362732,
    "lng": 123.9414037,
    "category": "shrine",
    "prefecture": "okinawa",
    "osm_id": 4472714716,
    "spot_type": "data_spot",
    "data_source": "osm"
  },
  {
    "name": "名称不明",
    "name_en": "",
    "lat": 24.3330038,
    "lng": 123.9544172,
    "category": "lighthouse",
    "prefecture": "okinawa",
    "osm_id": 4474445909,
    "spot_type": "data_spot",
    "data_source": "osm"
  },
  {
    "name": "名称不明",
    "name_en": "",
    "lat": 24.3417675,
    "lng": 123.981537,
    "category": "shrine",
    "prefecture": "okinawa",
    "osm_id": 4474445948,
    "spot_type": "data_spot",
    "data_source": "osm"
  },
  {
    "name": "名称不明",
    "name_en": "",
    "lat": 24.747908,
    "lng": 124.7037774,
    "category": "lighthouse",
    "prefecture": "okinawa",
    "osm_id": 4474456109,
    "spot_type": "data_spot",
    "data_source": "osm"
  },
  {
    "name": "名称不明",
    "name_en": "",
    "lat": 24.7520854,
    "lng": 124.7037345,
    "category": "shrine",
    "prefecture": "okinawa",
    "osm_id": 4474456116,
    "spot_type": "data_spot",
    "data_source": "osm"
  },
  {
    "name": "名称不明",
    "name_en": "",
    "lat": 24.6487165,
    "lng": 124.7225909,
    "category": "shrine",
    "prefecture": "okinawa",
    "osm_id": 4474725513,
    "spot_type": "data_spot",
    "data_source": "osm"
  },
  {
    "name": "名称不明",
    "name_en": "",
    "lat": 24.6649037,
    "lng": 124.7138397,
    "category": "shrine",
    "prefecture": "okinawa",
    "osm_id": 4474725524,
    "spot_type": "data_spot",
    "data_source": "osm"
  },
  {
    "name": "名称不明",
    "name_en": "",
    "lat": 24.6722538,
    "lng": 124.7043036,
    "category": "shrine",
    "prefecture": "okinawa",
    "osm_id": 4474725553,
    "spot_type": "data_spot",
    "data_source": "osm"
  },
  {
    "name": "名称不明",
    "name_en": "",
    "lat": 24.6726925,
    "lng": 124.7017823,
    "category": "shrine",
    "prefecture": "okinawa",
    "osm_id": 4474725555,
    "spot_type": "data_spot",
    "data_source": "osm"
  },
  {
    "name": "名称不明",
    "name_en": "",
    "lat": 24.6743402,
    "lng": 124.7040139,
    "category": "shrine",
    "prefecture": "okinawa",
    "osm_id": 4474725558,
    "spot_type": "data_spot",
    "data_source": "osm"
  },
  {
    "name": "名称不明",
    "name_en": "",
    "lat": 24.6707921,
    "lng": 124.699944,
    "category": "shrine",
    "prefecture": "okinawa",
    "osm_id": 4474738673,
    "spot_type": "data_spot",
    "data_source": "osm"
  },
  {
    "name": "名称不明",
    "name_en": "",
    "lat": 24.8107943,
    "lng": 125.2694051,
    "category": "lighthouse",
    "prefecture": "okinawa",
    "osm_id": 4474747893,
    "spot_type": "data_spot",
    "data_source": "osm"
  },
  {
    "name": "名称不明",
    "name_en": "",
    "lat": 24.813274,
    "lng": 125.2653831,
    "category": "lighthouse",
    "prefecture": "okinawa",
    "osm_id": 4474747896,
    "spot_type": "data_spot",
    "data_source": "osm"
  },
  {
    "name": "名称不明",
    "name_en": "",
    "lat": 24.8134736,
    "lng": 125.2701716,
    "category": "lighthouse",
    "prefecture": "okinawa",
    "osm_id": 4474747898,
    "spot_type": "data_spot",
    "data_source": "osm"
  },
  {
    "name": "名称不明",
    "name_en": "",
    "lat": 26.5772215,
    "lng": 127.212213,
    "category": "lighthouse",
    "prefecture": "okinawa",
    "osm_id": 4513643730,
    "spot_type": "data_spot",
    "data_source": "osm"
  },
  {
    "name": "観音堂",
    "name_en": "",
    "lat": 26.5796227,
    "lng": 127.2361797,
    "category": "shrine",
    "prefecture": "okinawa",
    "osm_id": 4513643814,
    "spot_type": "data_spot",
    "data_source": "osm"
  },
  {
    "name": "ハブ博物公園",
    "name_en": "",
    "lat": 26.1401548,
    "lng": 127.7487403,
    "category": "zoo",
    "prefecture": "okinawa",
    "osm_id": 4557638875,
    "spot_type": "data_spot",
    "data_source": "osm"
  },
  {
    "name": "前川神社",
    "name_en": "",
    "lat": 26.1476689,
    "lng": 127.7475345,
    "category": "shrine",
    "prefecture": "okinawa",
    "osm_id": 4557677501,
    "spot_type": "data_spot",
    "data_source": "osm"
  },
  {
    "name": "名称不明",
    "name_en": "",
    "lat": 26.1773588,
    "lng": 127.2908145,
    "category": "shrine",
    "prefecture": "okinawa",
    "osm_id": 4558275549,
    "spot_type": "data_spot",
    "data_source": "osm"
  },
  {
    "name": "名称不明",
    "name_en": "",
    "lat": 26.1789186,
    "lng": 127.2925445,
    "category": "shrine",
    "prefecture": "okinawa",
    "osm_id": 4558275550,
    "spot_type": "data_spot",
    "data_source": "osm"
  },
  {
    "name": "名称不明",
    "name_en": "",
    "lat": 24.7235965,
    "lng": 125.2543087,
    "category": "shrine",
    "prefecture": "okinawa",
    "osm_id": 4609356414,
    "spot_type": "data_spot",
    "data_source": "osm"
  },
  {
    "name": "名称不明",
    "name_en": "",
    "lat": 26.5521155,
    "lng": 127.969851,
    "category": "rest_area",
    "prefecture": "okinawa",
    "osm_id": 4655048889,
    "spot_type": "data_spot",
    "data_source": "osm"
  },
  {
    "name": "名称不明",
    "name_en": "",
    "lat": 26.350172,
    "lng": 126.7469515,
    "category": "rest_area",
    "prefecture": "okinawa",
    "osm_id": 4688531497,
    "spot_type": "data_spot",
    "data_source": "osm"
  },
  {
    "name": "名称不明",
    "name_en": "",
    "lat": 26.1554547,
    "lng": 127.8845843,
    "category": "lighthouse",
    "prefecture": "okinawa",
    "osm_id": 4701202705,
    "spot_type": "data_spot",
    "data_source": "osm"
  },
  {
    "name": "名称不明",
    "name_en": "",
    "lat": 26.2009912,
    "lng": 127.6546851,
    "category": "rest_area",
    "prefecture": "okinawa",
    "osm_id": 4731808222,
    "spot_type": "data_spot",
    "data_source": "osm"
  },
  {
    "name": "名護神社",
    "name_en": "",
    "lat": 26.5886594,
    "lng": 127.9925795,
    "category": "shrine",
    "prefecture": "okinawa",
    "osm_id": 4745508895,
    "spot_type": "data_spot",
    "data_source": "osm"
  },
  {
    "name": "シヌグ毛",
    "name_en": "",
    "lat": 27.035155,
    "lng": 127.960479,
    "category": "shrine",
    "prefecture": "okinawa",
    "osm_id": 4756099436,
    "spot_type": "data_spot",
    "data_source": "osm"
  },
  {
    "name": "カタクマ神社",
    "name_en": "",
    "lat": 27.040567,
    "lng": 127.958497,
    "category": "shrine",
    "prefecture": "okinawa",
    "osm_id": 4756142022,
    "spot_type": "data_spot",
    "data_source": "osm"
  },
  {
    "name": "山入端神社",
    "name_en": "Yamanoha Shrine",
    "lat": 26.6063347,
    "lng": 127.9338299,
    "category": "shrine",
    "prefecture": "okinawa",
    "osm_id": 4770693168,
    "spot_type": "data_spot",
    "data_source": "osm"
  },
  {
    "name": "凌雲院",
    "name_en": "",
    "lat": 26.6056472,
    "lng": 127.9521725,
    "category": "temple",
    "prefecture": "okinawa",
    "osm_id": 4770717025,
    "spot_type": "data_spot",
    "data_source": "osm"
  },
  {
    "name": "名称不明",
    "name_en": "",
    "lat": 24.7355185,
    "lng": 125.2626116,
    "category": "rest_area",
    "prefecture": "okinawa",
    "osm_id": 4780967121,
    "spot_type": "data_spot",
    "data_source": "osm"
  },
  {
    "name": "川平観音堂",
    "name_en": "",
    "lat": 24.4611444,
    "lng": 124.1428387,
    "category": "temple",
    "prefecture": "okinawa",
    "osm_id": 4786539644,
    "spot_type": "data_spot",
    "data_source": "osm"
  },
  {
    "name": "赤イロ目宮鳥御嶽",
    "name_en": "",
    "lat": 24.4630232,
    "lng": 124.1376505,
    "category": "shrine",
    "prefecture": "okinawa",
    "osm_id": 4786539677,
    "spot_type": "data_spot",
    "data_source": "osm"
  },
  {
    "name": "日蓮正宗唱行寺",
    "name_en": "",
    "lat": 24.35978,
    "lng": 124.1576912,
    "category": "temple",
    "prefecture": "okinawa",
    "osm_id": 4786710480,
    "spot_type": "data_spot",
    "data_source": "osm"
  },
  {
    "name": "首里城",
    "name_en": "Shuri Castle",
    "lat": 26.2170014,
    "lng": 127.7193727,
    "category": "castle",
    "prefecture": "okinawa",
    "osm_id": 4828423125,
    "spot_type": "data_spot",
    "data_source": "osm"
  },
  {
    "name": "名称不明",
    "name_en": "",
    "lat": 26.1342093,
    "lng": 127.7896482,
    "category": "rest_area",
    "prefecture": "okinawa",
    "osm_id": 4834215921,
    "spot_type": "data_spot",
    "data_source": "osm"
  },
  {
    "name": "国際海洋情報センター",
    "name_en": "Global Oceangraphic DAta Center (GODAC)",
    "lat": 26.5216892,
    "lng": 128.0187234,
    "category": "museum",
    "prefecture": "okinawa",
    "osm_id": 5076211521,
    "spot_type": "data_spot",
    "data_source": "osm"
  },
  {
    "name": "真壁宮",
    "name_en": "",
    "lat": 26.1098602,
    "lng": 127.6929329,
    "category": "shrine",
    "prefecture": "okinawa",
    "osm_id": 5078597593,
    "spot_type": "data_spot",
    "data_source": "osm"
  },
  {
    "name": "部間権現",
    "name_en": "",
    "lat": 26.6083319,
    "lng": 127.9010094,
    "category": "shrine",
    "prefecture": "okinawa",
    "osm_id": 5083830165,
    "spot_type": "data_spot",
    "data_source": "osm"
  },
  {
    "name": "乗瀨御嶽",
    "name_en": "",
    "lat": 24.8132423,
    "lng": 125.1769034,
    "category": "shrine",
    "prefecture": "okinawa",
    "osm_id": 5084182268,
    "spot_type": "data_spot",
    "data_source": "osm"
  },
  {
    "name": "伊祖城跡",
    "name_en": "Iso Castle Site",
    "lat": 26.2582629,
    "lng": 127.7226158,
    "category": "castle",
    "prefecture": "okinawa",
    "osm_id": 5112489203,
    "spot_type": "data_spot",
    "data_source": "osm"
  },
  {
    "name": "沖縄観音寺",
    "name_en": "",
    "lat": 26.3407361,
    "lng": 127.9565536,
    "category": "temple",
    "prefecture": "okinawa",
    "osm_id": 5115979330,
    "spot_type": "data_spot",
    "data_source": "osm"
  },
  {
    "name": "伊計島灯台",
    "name_en": "",
    "lat": 26.3989604,
    "lng": 127.996264,
    "category": "lighthouse",
    "prefecture": "okinawa",
    "osm_id": 5116084891,
    "spot_type": "data_spot",
    "data_source": "osm"
  },
  {
    "name": "伊計神社",
    "name_en": "",
    "lat": 26.3856648,
    "lng": 127.9938896,
    "category": "shrine",
    "prefecture": "okinawa",
    "osm_id": 5116149173,
    "spot_type": "data_spot",
    "data_source": "osm"
  },
  {
    "name": "伊計権現堂",
    "name_en": "",
    "lat": 26.3855791,
    "lng": 127.9938219,
    "category": "temple",
    "prefecture": "okinawa",
    "osm_id": 5116149174,
    "spot_type": "data_spot",
    "data_source": "osm"
  },
  {
    "name": "千眼寺",
    "name_en": "",
    "lat": 26.5912086,
    "lng": 127.9782324,
    "category": "temple",
    "prefecture": "okinawa",
    "osm_id": 5158606309,
    "spot_type": "data_spot",
    "data_source": "osm"
  },
  {
    "name": "弘泉寺",
    "name_en": "",
    "lat": 26.5980592,
    "lng": 127.9818589,
    "category": "temple",
    "prefecture": "okinawa",
    "osm_id": 5158606368,
    "spot_type": "data_spot",
    "data_source": "osm"
  },
  {
    "name": "琉球新報 新聞博物館",
    "name_en": "Ryukyu simpo newspaper museum",
    "lat": 26.2341976,
    "lng": 127.6855621,
    "category": "museum",
    "prefecture": "okinawa",
    "osm_id": 5214886031,
    "spot_type": "data_spot",
    "data_source": "osm"
  },
  {
    "name": "三重城跡",
    "name_en": "Mie Gusuku",
    "lat": 26.2138593,
    "lng": 127.6650392,
    "category": "castle",
    "prefecture": "okinawa",
    "osm_id": 5241429129,
    "spot_type": "data_spot",
    "data_source": "osm"
  },
  {
    "name": "登武那覇城跡",
    "name_en": "",
    "lat": 26.3486895,
    "lng": 126.8007355,
    "category": "castle",
    "prefecture": "okinawa",
    "osm_id": 5262593521,
    "spot_type": "data_spot",
    "data_source": "osm"
  },
  {
    "name": "具志川灯台",
    "name_en": "",
    "lat": 26.3430178,
    "lng": 126.7480187,
    "category": "lighthouse",
    "prefecture": "okinawa",
    "osm_id": 5267412818,
    "spot_type": "data_spot",
    "data_source": "osm"
  },
  {
    "name": "久米島灯台",
    "name_en": "",
    "lat": 26.3714208,
    "lng": 126.7295524,
    "category": "lighthouse",
    "prefecture": "okinawa",
    "osm_id": 5277576781,
    "spot_type": "data_spot",
    "data_source": "osm"
  },
  {
    "name": "護国神社",
    "name_en": "",
    "lat": 26.2032488,
    "lng": 127.6759957,
    "category": "shrine",
    "prefecture": "okinawa",
    "osm_id": 5306584641,
    "spot_type": "data_spot",
    "data_source": "osm"
  },
  {
    "name": "展示広場",
    "name_en": "",
    "lat": 26.2242654,
    "lng": 127.6945298,
    "category": "museum",
    "prefecture": "okinawa",
    "osm_id": 5310917321,
    "spot_type": "data_spot",
    "data_source": "osm"
  },
  {
    "name": "沖縄市戦後文化資料展示室 ヒストリート",
    "name_en": "Okinawa City Museum of Postwar Culture and History HISTREET",
    "lat": 26.3371363,
    "lng": 127.7971641,
    "category": "museum",
    "prefecture": "okinawa",
    "osm_id": 5325219237,
    "spot_type": "data_spot",
    "data_source": "osm"
  },
  {
    "name": "天久宮",
    "name_en": "",
    "lat": 26.2282565,
    "lng": 127.6825308,
    "category": "shrine",
    "prefecture": "okinawa",
    "osm_id": 5344518822,
    "spot_type": "data_spot",
    "data_source": "osm"
  },
  {
    "name": "久志観音堂",
    "name_en": "Kushi Kan'nondo Temple",
    "lat": 26.5151473,
    "lng": 128.012005,
    "category": "temple",
    "prefecture": "okinawa",
    "osm_id": 5348088438,
    "spot_type": "data_spot",
    "data_source": "osm"
  },
  {
    "name": "護佐喜宮",
    "name_en": "",
    "lat": 26.5915262,
    "lng": 127.9852942,
    "category": "shrine",
    "prefecture": "okinawa",
    "osm_id": 5385298207,
    "spot_type": "data_spot",
    "data_source": "osm"
  },
  {
    "name": "出雲大社 沖縄分社",
    "name_en": "",
    "lat": 26.2300931,
    "lng": 127.7035543,
    "category": "shrine",
    "prefecture": "okinawa",
    "osm_id": 5435676730,
    "spot_type": "data_spot",
    "data_source": "osm"
  },
  {
    "name": "足湯",
    "name_en": "Foot Bath",
    "lat": 26.3132358,
    "lng": 127.7560412,
    "category": "onsen",
    "prefecture": "okinawa",
    "osm_id": 5467744381,
    "spot_type": "data_spot",
    "data_source": "osm"
  },
  {
    "name": "世持御嶽",
    "name_en": "",
    "lat": 24.3317844,
    "lng": 124.0856623,
    "category": "shrine",
    "prefecture": "okinawa",
    "osm_id": 5476314648,
    "spot_type": "data_spot",
    "data_source": "osm"
  },
  {
    "name": "浄光寺",
    "name_en": "",
    "lat": 26.2019871,
    "lng": 127.7609118,
    "category": "temple",
    "prefecture": "okinawa",
    "osm_id": 5533279102,
    "spot_type": "data_spot",
    "data_source": "osm"
  },
  {
    "name": "北大東村人材交流センター・民族資料館",
    "name_en": "",
    "lat": 25.9495482,
    "lng": 131.295828,
    "category": "museum",
    "prefecture": "okinawa",
    "osm_id": 5537028721,
    "spot_type": "data_spot",
    "data_source": "osm"
  },
  {
    "name": "上城城跡",
    "name_en": "Uegusuku Castle Site",
    "lat": 26.1121063,
    "lng": 127.7325805,
    "category": "castle",
    "prefecture": "okinawa",
    "osm_id": 5589842901,
    "spot_type": "data_spot",
    "data_source": "osm"
  },
  {
    "name": "臨海寺",
    "name_en": "Rinkaiji",
    "lat": 26.2385624,
    "lng": 127.6822771,
    "category": "temple",
    "prefecture": "okinawa",
    "osm_id": 5593697123,
    "spot_type": "data_spot",
    "data_source": "osm"
  },
  {
    "name": "赤灯台",
    "name_en": "",
    "lat": 26.3520479,
    "lng": 126.8261116,
    "category": "lighthouse",
    "prefecture": "okinawa",
    "osm_id": 5680703128,
    "spot_type": "data_spot",
    "data_source": "osm"
  },
  {
    "name": "琉国院南龍寺",
    "name_en": "",
    "lat": 26.1239655,
    "lng": 127.7477396,
    "category": "temple",
    "prefecture": "okinawa",
    "osm_id": 5690906501,
    "spot_type": "data_spot",
    "data_source": "osm"
  },
  {
    "name": "名称不明",
    "name_en": "",
    "lat": 26.5834413,
    "lng": 127.9808267,
    "category": "lighthouse",
    "prefecture": "okinawa",
    "osm_id": 5711173770,
    "spot_type": "data_spot",
    "data_source": "osm"
  },
  {
    "name": "church",
    "name_en": "",
    "lat": 26.3403086,
    "lng": 127.8043645,
    "category": "castle",
    "prefecture": "okinawa",
    "osm_id": 5809814353,
    "spot_type": "data_spot",
    "data_source": "osm"
  },
  {
    "name": "アサギ",
    "name_en": "Asagi",
    "lat": 26.6971852,
    "lng": 128.0154992,
    "category": "shrine",
    "prefecture": "okinawa",
    "osm_id": 5885017122,
    "spot_type": "data_spot",
    "data_source": "osm"
  },
  {
    "name": "瀬嵩埼灯台",
    "name_en": "Sedakasaki Lighthouse",
    "lat": 26.7494176,
    "lng": 128.3240722,
    "category": "lighthouse",
    "prefecture": "okinawa",
    "osm_id": 5885062640,
    "spot_type": "data_spot",
    "data_source": "osm"
  },
  {
    "name": "福地ダム資料館",
    "name_en": "",
    "lat": 26.646693,
    "lng": 128.1761349,
    "category": "museum",
    "prefecture": "okinawa",
    "osm_id": 6374522668,
    "spot_type": "data_spot",
    "data_source": "osm"
  },
  {
    "name": "東村文化・スポーツ記念館",
    "name_en": "",
    "lat": 26.636385,
    "lng": 128.1565989,
    "category": "museum",
    "prefecture": "okinawa",
    "osm_id": 6374523024,
    "spot_type": "data_spot",
    "data_source": "osm"
  },
  {
    "name": "壺川",
    "name_en": "Tsubogawa",
    "lat": 26.2057971,
    "lng": 127.678392,
    "category": "station",
    "prefecture": "okinawa",
    "osm_id": 6540547644,
    "spot_type": "data_spot",
    "data_source": "osm"
  },
  {
    "name": "旭橋",
    "name_en": "Asahibashi",
    "lat": 26.2118503,
    "lng": 127.675463,
    "category": "station",
    "prefecture": "okinawa",
    "osm_id": 6540547645,
    "spot_type": "data_spot",
    "data_source": "osm"
  },
  {
    "name": "県庁前",
    "name_en": "Prefectural Office",
    "lat": 26.2143841,
    "lng": 127.6793341,
    "category": "station",
    "prefecture": "okinawa",
    "osm_id": 6540547646,
    "spot_type": "data_spot",
    "data_source": "osm"
  },
  {
    "name": "美栄橋",
    "name_en": "Miebashi",
    "lat": 26.219218,
    "lng": 127.6843885,
    "category": "station",
    "prefecture": "okinawa",
    "osm_id": 6540547649,
    "spot_type": "data_spot",
    "data_source": "osm"
  },
  {
    "name": "牧志",
    "name_en": "Makishi",
    "lat": 26.2171925,
    "lng": 127.6925906,
    "category": "station",
    "prefecture": "okinawa",
    "osm_id": 6540547650,
    "spot_type": "data_spot",
    "data_source": "osm"
  },
  {
    "name": "安里",
    "name_en": "Asato",
    "lat": 26.2168041,
    "lng": 127.6957599,
    "category": "station",
    "prefecture": "okinawa",
    "osm_id": 6540583667,
    "spot_type": "data_spot",
    "data_source": "osm"
  },
  {
    "name": "おもろまち",
    "name_en": "Omoromachi",
    "lat": 26.2227746,
    "lng": 127.6984101,
    "category": "station",
    "prefecture": "okinawa",
    "osm_id": 6540583670,
    "spot_type": "data_spot",
    "data_source": "osm"
  },
  {
    "name": "古島",
    "name_en": "Furujima",
    "lat": 26.2308633,
    "lng": 127.7030539,
    "category": "station",
    "prefecture": "okinawa",
    "osm_id": 6540583673,
    "spot_type": "data_spot",
    "data_source": "osm"
  },
  {
    "name": "儀保",
    "name_en": "Gibo",
    "lat": 26.2245946,
    "lng": 127.7190848,
    "category": "station",
    "prefecture": "okinawa",
    "osm_id": 6540583675,
    "spot_type": "data_spot",
    "data_source": "osm"
  },
  {
    "name": "首里",
    "name_en": "Shuri",
    "lat": 26.2191726,
    "lng": 127.7255525,
    "category": "station",
    "prefecture": "okinawa",
    "osm_id": 6540583676,
    "spot_type": "data_spot",
    "data_source": "osm"
  },
  {
    "name": "小禄",
    "name_en": "Oroku",
    "lat": 26.1965305,
    "lng": 127.6670333,
    "category": "station",
    "prefecture": "okinawa",
    "osm_id": 6540630176,
    "spot_type": "data_spot",
    "data_source": "osm"
  },
  {
    "name": "赤嶺",
    "name_en": "Akamine",
    "lat": 26.1932392,
    "lng": 127.6604863,
    "category": "station",
    "prefecture": "okinawa",
    "osm_id": 6540630177,
    "spot_type": "data_spot",
    "data_source": "osm"
  },
  {
    "name": "那覇空港",
    "name_en": "Naha Airport",
    "lat": 26.2064858,
    "lng": 127.6522133,
    "category": "station",
    "prefecture": "okinawa",
    "osm_id": 6540630178,
    "spot_type": "data_spot",
    "data_source": "osm"
  },
  {
    "name": "岬大明神",
    "name_en": "",
    "lat": 27.4336594,
    "lng": 128.7100863,
    "category": "shrine",
    "prefecture": "okinawa",
    "osm_id": 6796319975,
    "spot_type": "data_spot",
    "data_source": "osm"
  },
  {
    "name": "石嶺",
    "name_en": "Ishimine",
    "lat": 26.2270073,
    "lng": 127.7290119,
    "category": "station",
    "prefecture": "okinawa",
    "osm_id": 6842842194,
    "spot_type": "data_spot",
    "data_source": "osm"
  },
  {
    "name": "経塚",
    "name_en": "Kyozuka",
    "lat": 26.2367191,
    "lng": 127.7285226,
    "category": "station",
    "prefecture": "okinawa",
    "osm_id": 6844601159,
    "spot_type": "data_spot",
    "data_source": "osm"
  },
  {
    "name": "浦添前田",
    "name_en": "Urasoe-Maeda",
    "lat": 26.2438455,
    "lng": 127.7322674,
    "category": "station",
    "prefecture": "okinawa",
    "osm_id": 6844601160,
    "spot_type": "data_spot",
    "data_source": "osm"
  },
  {
    "name": "世持神社",
    "name_en": "",
    "lat": 26.2037451,
    "lng": 127.6742026,
    "category": "shrine",
    "prefecture": "okinawa",
    "osm_id": 6881542801,
    "spot_type": "data_spot",
    "data_source": "osm"
  },
  {
    "name": "てだこ浦西",
    "name_en": "Tedako-Uranishi",
    "lat": 26.2417482,
    "lng": 127.7419169,
    "category": "station",
    "prefecture": "okinawa",
    "osm_id": 6901207713,
    "spot_type": "data_spot",
    "data_source": "osm"
  },
  {
    "name": "昭和博物館~私はレトロ~",
    "name_en": "",
    "lat": 26.2012003,
    "lng": 127.7553311,
    "category": "museum",
    "prefecture": "okinawa",
    "osm_id": 6906607235,
    "spot_type": "data_spot",
    "data_source": "osm"
  },
  {
    "name": "佐敷上グスク",
    "name_en": "Sashiki Wi Gusuku Castle",
    "lat": 26.1660331,
    "lng": 127.7872159,
    "category": "castle",
    "prefecture": "okinawa",
    "osm_id": 6911559171,
    "spot_type": "data_spot",
    "data_source": "osm"
  },
  {
    "name": "名称不明",
    "name_en": "",
    "lat": 26.240277,
    "lng": 127.4578683,
    "category": "lighthouse",
    "prefecture": "okinawa",
    "osm_id": 6918082399,
    "spot_type": "data_spot",
    "data_source": "osm"
  },
  {
    "name": "高千穂神社",
    "name_en": "",
    "lat": 27.4017275,
    "lng": 128.6471244,
    "category": "shrine",
    "prefecture": "okinawa",
    "osm_id": 6949208338,
    "spot_type": "data_spot",
    "data_source": "osm"
  },
  {
    "name": "名称不明",
    "name_en": "",
    "lat": 27.0656771,
    "lng": 128.439828,
    "category": "rest_area",
    "prefecture": "okinawa",
    "osm_id": 7085622685,
    "spot_type": "data_spot",
    "data_source": "osm"
  },
  {
    "name": "西表野生生物保護センター",
    "name_en": "Iriomote Wildlife Conservation Center",
    "lat": 24.3310297,
    "lng": 123.908886,
    "category": "museum",
    "prefecture": "okinawa",
    "osm_id": 7088079010,
    "spot_type": "data_spot",
    "data_source": "osm"
  },
  {
    "name": "エイサー会館",
    "name_en": "",
    "lat": 26.3351306,
    "lng": 127.7993454,
    "category": "museum",
    "prefecture": "okinawa",
    "osm_id": 7114048103,
    "spot_type": "data_spot",
    "data_source": "osm"
  },
  {
    "name": "不屈館",
    "name_en": "Fukutsukan (Kamejiro Senaga and the People's History Museum)",
    "lat": 26.2224751,
    "lng": 127.67492,
    "category": "museum",
    "prefecture": "okinawa",
    "osm_id": 7683363814,
    "spot_type": "data_spot",
    "data_source": "osm"
  },
  {
    "name": "奥武山公園",
    "name_en": "Onoyama Park",
    "lat": 26.2007505,
    "lng": 127.6753296,
    "category": "station",
    "prefecture": "okinawa",
    "osm_id": 7746899672,
    "spot_type": "data_spot",
    "data_source": "osm"
  },
  {
    "name": "名称不明",
    "name_en": "",
    "lat": 26.348437,
    "lng": 126.8007246,
    "category": "castle",
    "prefecture": "okinawa",
    "osm_id": 7814293604,
    "spot_type": "data_spot",
    "data_source": "osm"
  },
  {
    "name": "末吉宮",
    "name_en": "Sueyoshi-gū",
    "lat": 26.229356,
    "lng": 127.7144617,
    "category": "shrine",
    "prefecture": "okinawa",
    "osm_id": 7861269661,
    "spot_type": "data_spot",
    "data_source": "osm"
  },
  {
    "name": "金城哲夫資料館",
    "name_en": "Kinjo Tetsuo Museum",
    "lat": 26.1915622,
    "lng": 127.7119165,
    "category": "museum",
    "prefecture": "okinawa",
    "osm_id": 7914430529,
    "spot_type": "data_spot",
    "data_source": "osm"
  },
  {
    "name": "沖縄市音楽資料館 おんがく村",
    "name_en": "Okinawa city Music Archives - Ongakumura",
    "lat": 26.3371057,
    "lng": 127.7972603,
    "category": "museum",
    "prefecture": "okinawa",
    "osm_id": 8226624094,
    "spot_type": "data_spot",
    "data_source": "osm"
  },
  {
    "name": "名称不明",
    "name_en": "",
    "lat": 26.2265102,
    "lng": 127.3347616,
    "category": "lighthouse",
    "prefecture": "okinawa",
    "osm_id": 8299864767,
    "spot_type": "data_spot",
    "data_source": "osm"
  },
  {
    "name": "名称不明",
    "name_en": "",
    "lat": 27.0915106,
    "lng": 128.0205689,
    "category": "lighthouse",
    "prefecture": "okinawa",
    "osm_id": 8300164119,
    "spot_type": "data_spot",
    "data_source": "osm"
  },
  {
    "name": "名称不明",
    "name_en": "",
    "lat": 26.9145603,
    "lng": 127.9519164,
    "category": "castle",
    "prefecture": "okinawa",
    "osm_id": 8301456816,
    "spot_type": "data_spot",
    "data_source": "osm"
  },
  {
    "name": "名称不明",
    "name_en": "",
    "lat": 26.5196657,
    "lng": 128.0613935,
    "category": "lighthouse",
    "prefecture": "okinawa",
    "osm_id": 8302234386,
    "spot_type": "data_spot",
    "data_source": "osm"
  },
  {
    "name": "高墓埼灯台",
    "name_en": "",
    "lat": 26.5370475,
    "lng": 128.0879205,
    "category": "lighthouse",
    "prefecture": "okinawa",
    "osm_id": 8302234431,
    "spot_type": "data_spot",
    "data_source": "osm"
  },
  {
    "name": "名称不明",
    "name_en": "",
    "lat": 26.1892021,
    "lng": 127.8212191,
    "category": "lighthouse",
    "prefecture": "okinawa",
    "osm_id": 8308034169,
    "spot_type": "data_spot",
    "data_source": "osm"
  },
  {
    "name": "名称不明",
    "name_en": "",
    "lat": 27.0244137,
    "lng": 128.4570571,
    "category": "lighthouse",
    "prefecture": "okinawa",
    "osm_id": 8313812385,
    "spot_type": "data_spot",
    "data_source": "osm"
  },
  {
    "name": "名称不明",
    "name_en": "",
    "lat": 27.0400034,
    "lng": 128.4014735,
    "category": "lighthouse",
    "prefecture": "okinawa",
    "osm_id": 8313812395,
    "spot_type": "data_spot",
    "data_source": "osm"
  },
  {
    "name": "名称不明",
    "name_en": "",
    "lat": 27.3307825,
    "lng": 128.5668035,
    "category": "lighthouse",
    "prefecture": "okinawa",
    "osm_id": 8313883717,
    "spot_type": "data_spot",
    "data_source": "osm"
  },
  {
    "name": "名称不明",
    "name_en": "",
    "lat": 27.4336631,
    "lng": 128.7115073,
    "category": "lighthouse",
    "prefecture": "okinawa",
    "osm_id": 8313883719,
    "spot_type": "data_spot",
    "data_source": "osm"
  },
  {
    "name": "名称不明",
    "name_en": "",
    "lat": 27.881845,
    "lng": 128.8912287,
    "category": "lighthouse",
    "prefecture": "okinawa",
    "osm_id": 8314029089,
    "spot_type": "data_spot",
    "data_source": "osm"
  },
  {
    "name": "玉城城跡",
    "name_en": "",
    "lat": 26.1442416,
    "lng": 127.7806249,
    "category": "castle",
    "prefecture": "okinawa",
    "osm_id": 8481868711,
    "spot_type": "data_spot",
    "data_source": "osm"
  },
  {
    "name": "住吉神社",
    "name_en": "Sumiyoshi Shrine",
    "lat": 26.2040167,
    "lng": 127.6672944,
    "category": "shrine",
    "prefecture": "okinawa",
    "osm_id": 8488926151,
    "spot_type": "data_spot",
    "data_source": "osm"
  },
  {
    "name": "名称不明",
    "name_en": "",
    "lat": 24.9205178,
    "lng": 125.2500308,
    "category": "lighthouse",
    "prefecture": "okinawa",
    "osm_id": 9008814965,
    "spot_type": "data_spot",
    "data_source": "osm"
  },
  {
    "name": "西来院",
    "name_en": "Sairai'in Temple",
    "lat": 26.21769,
    "lng": 127.7225462,
    "category": "temple",
    "prefecture": "okinawa",
    "osm_id": 9089918451,
    "spot_type": "data_spot",
    "data_source": "osm"
  },
  {
    "name": "豊見城グスク",
    "name_en": "Tomishiro Castle Site",
    "lat": 26.1895915,
    "lng": 127.6847104,
    "category": "castle",
    "prefecture": "okinawa",
    "osm_id": 9092914111,
    "spot_type": "data_spot",
    "data_source": "osm"
  },
  {
    "name": "タク川ノ御嶽",
    "name_en": "Takugawano-utaki Sacred Site",
    "lat": 26.1650076,
    "lng": 127.7717314,
    "category": "shrine",
    "prefecture": "okinawa",
    "osm_id": 9202583156,
    "spot_type": "data_spot",
    "data_source": "osm"
  },
  {
    "name": "ミントングスク",
    "name_en": "Minton Castle Ruins",
    "lat": 26.1452727,
    "lng": 127.7915698,
    "category": "castle",
    "prefecture": "okinawa",
    "osm_id": 9231911767,
    "spot_type": "data_spot",
    "data_source": "osm"
  },
  {
    "name": "水族館",
    "name_en": "",
    "lat": 26.3279072,
    "lng": 127.8026771,
    "category": "zoo",
    "prefecture": "okinawa",
    "osm_id": 9274376906,
    "spot_type": "data_spot",
    "data_source": "osm"
  },
  {
    "name": "池間温泉",
    "name_en": "",
    "lat": 24.9350412,
    "lng": 125.2426118,
    "category": "onsen",
    "prefecture": "okinawa",
    "osm_id": 9293215786,
    "spot_type": "data_spot",
    "data_source": "osm"
  },
  {
    "name": "名称不明",
    "name_en": "",
    "lat": 26.2184456,
    "lng": 127.7191417,
    "category": "temple",
    "prefecture": "okinawa",
    "osm_id": 9391726687,
    "spot_type": "data_spot",
    "data_source": "osm"
  },
  {
    "name": "天水龍大御神の御嶽",
    "name_en": "Utaki of Amasui-ryu-omikami God",
    "lat": 26.2179726,
    "lng": 127.7224316,
    "category": "shrine",
    "prefecture": "okinawa",
    "osm_id": 9415383048,
    "spot_type": "data_spot",
    "data_source": "osm"
  },
  {
    "name": "ウティンチヂ",
    "name_en": "Utinchiji",
    "lat": 26.1865411,
    "lng": 127.7598902,
    "category": "shrine",
    "prefecture": "okinawa",
    "osm_id": 9483604931,
    "spot_type": "data_spot",
    "data_source": "osm"
  },
  {
    "name": "天燈山御嶽",
    "name_en": "Tentozan utaki",
    "lat": 26.2029587,
    "lng": 127.6772507,
    "category": "shrine",
    "prefecture": "okinawa",
    "osm_id": 9516469427,
    "spot_type": "data_spot",
    "data_source": "osm"
  },
  {
    "name": "天主大御神",
    "name_en": "Shrine of Utin-uyaganashi",
    "lat": 26.2030379,
    "lng": 127.6763899,
    "category": "shrine",
    "prefecture": "okinawa",
    "osm_id": 9516469432,
    "spot_type": "data_spot",
    "data_source": "osm"
  },
  {
    "name": "名称不明",
    "name_en": "",
    "lat": 26.2305733,
    "lng": 127.3092001,
    "category": "rest_area",
    "prefecture": "okinawa",
    "osm_id": 9604551117,
    "spot_type": "data_spot",
    "data_source": "osm"
  },
  {
    "name": "名称不明",
    "name_en": "",
    "lat": 26.2345198,
    "lng": 127.2946147,
    "category": "rest_area",
    "prefecture": "okinawa",
    "osm_id": 9604655517,
    "spot_type": "data_spot",
    "data_source": "osm"
  },
  {
    "name": "西原劇場",
    "name_en": "",
    "lat": 26.2237186,
    "lng": 127.7572007,
    "category": "museum",
    "prefecture": "okinawa",
    "osm_id": 9672063954,
    "spot_type": "data_spot",
    "data_source": "osm"
  },
  {
    "name": "名称不明",
    "name_en": "",
    "lat": 26.2249338,
    "lng": 127.7194618,
    "category": "temple",
    "prefecture": "okinawa",
    "osm_id": 9792506828,
    "spot_type": "data_spot",
    "data_source": "osm"
  },
  {
    "name": "DiDi 与那国交流館",
    "name_en": "",
    "lat": 24.4694376,
    "lng": 123.0086759,
    "category": "museum",
    "prefecture": "okinawa",
    "osm_id": 10043799438,
    "spot_type": "data_spot",
    "data_source": "osm"
  },
  {
    "name": "名称不明",
    "name_en": "",
    "lat": 26.2193458,
    "lng": 127.2835743,
    "category": "lighthouse",
    "prefecture": "okinawa",
    "osm_id": 10212201873,
    "spot_type": "data_spot",
    "data_source": "osm"
  },
  {
    "name": "名称不明",
    "name_en": "",
    "lat": 26.1099366,
    "lng": 127.5330225,
    "category": "lighthouse",
    "prefecture": "okinawa",
    "osm_id": 10212299756,
    "spot_type": "data_spot",
    "data_source": "osm"
  },
  {
    "name": "名称不明",
    "name_en": "",
    "lat": 26.3291728,
    "lng": 127.9517468,
    "category": "lighthouse",
    "prefecture": "okinawa",
    "osm_id": 10215002516,
    "spot_type": "data_spot",
    "data_source": "osm"
  },
  {
    "name": "沖縄歴史民俗資料館",
    "name_en": "Okinawa Historical Folk Museum",
    "lat": 26.6370169,
    "lng": 127.960017,
    "category": "museum",
    "prefecture": "okinawa",
    "osm_id": 10294865017,
    "spot_type": "data_spot",
    "data_source": "osm"
  },
  {
    "name": "伊祖神社",
    "name_en": "Iso Shrine",
    "lat": 26.2584259,
    "lng": 127.7225559,
    "category": "shrine",
    "prefecture": "okinawa",
    "osm_id": 10302021152,
    "spot_type": "data_spot",
    "data_source": "osm"
  },
  {
    "name": "金毘羅宮",
    "name_en": "",
    "lat": 26.2710794,
    "lng": 127.714062,
    "category": "shrine",
    "prefecture": "okinawa",
    "osm_id": 10896497967,
    "spot_type": "data_spot",
    "data_source": "osm"
  },
  {
    "name": "市立病院前",
    "name_en": "Naha City Hospital",
    "lat": 26.2275267,
    "lng": 127.7100529,
    "category": "station",
    "prefecture": "okinawa",
    "osm_id": 10915647317,
    "spot_type": "data_spot",
    "data_source": "osm"
  },
  {
    "name": "名称不明",
    "name_en": "",
    "lat": 24.3251961,
    "lng": 124.0773495,
    "category": "rest_area",
    "prefecture": "okinawa",
    "osm_id": 11125184237,
    "spot_type": "data_spot",
    "data_source": "osm"
  },
  {
    "name": "泡瀬ビジュル",
    "name_en": "",
    "lat": 26.3207593,
    "lng": 127.8327772,
    "category": "shrine",
    "prefecture": "okinawa",
    "osm_id": 11237808965,
    "spot_type": "data_spot",
    "data_source": "osm"
  },
  {
    "name": "真栄寺",
    "name_en": "",
    "lat": 26.388173,
    "lng": 127.8311887,
    "category": "temple",
    "prefecture": "okinawa",
    "osm_id": 11237824008,
    "spot_type": "data_spot",
    "data_source": "osm"
  },
  {
    "name": "龍福寺",
    "name_en": "",
    "lat": 26.320115,
    "lng": 127.8336441,
    "category": "temple",
    "prefecture": "okinawa",
    "osm_id": 11237829302,
    "spot_type": "data_spot",
    "data_source": "osm"
  },
  {
    "name": "中乃湯",
    "name_en": "nakanoyu",
    "lat": 26.3374558,
    "lng": 127.810793,
    "category": "onsen",
    "prefecture": "okinawa",
    "osm_id": 11253444706,
    "spot_type": "data_spot",
    "data_source": "osm"
  },
  {
    "name": "沖縄健康サウナ",
    "name_en": "",
    "lat": 26.3090525,
    "lng": 127.8167707,
    "category": "onsen",
    "prefecture": "okinawa",
    "osm_id": 11253444707,
    "spot_type": "data_spot",
    "data_source": "osm"
  },
  {
    "name": "与那原大綱引資料館",
    "name_en": "",
    "lat": 26.1994642,
    "lng": 127.755401,
    "category": "museum",
    "prefecture": "okinawa",
    "osm_id": 11613117374,
    "spot_type": "data_spot",
    "data_source": "osm"
  },
  {
    "name": "照太寺",
    "name_en": "",
    "lat": 26.7132899,
    "lng": 127.7720808,
    "category": "temple",
    "prefecture": "okinawa",
    "osm_id": 11750433991,
    "spot_type": "data_spot",
    "data_source": "osm"
  },
  {
    "name": "清ら海ファーム",
    "name_en": "",
    "lat": 26.3210035,
    "lng": 127.9613337,
    "category": "zoo",
    "prefecture": "okinawa",
    "osm_id": 11936491418,
    "spot_type": "data_spot",
    "data_source": "osm"
  },
  {
    "name": "喜宝院 布教所",
    "name_en": "",
    "lat": 24.3316156,
    "lng": 124.084514,
    "category": "temple",
    "prefecture": "okinawa",
    "osm_id": 12163655610,
    "spot_type": "data_spot",
    "data_source": "osm"
  },
  {
    "name": "北谷町立博物館",
    "name_en": "Chatan Museum",
    "lat": 26.3238647,
    "lng": 127.7594552,
    "category": "museum",
    "prefecture": "okinawa",
    "osm_id": 12357446756,
    "spot_type": "data_spot",
    "data_source": "osm"
  },
  {
    "name": "山田グスク",
    "name_en": "",
    "lat": 26.4307104,
    "lng": 127.7824601,
    "category": "castle",
    "prefecture": "okinawa",
    "osm_id": 12472913287,
    "spot_type": "data_spot",
    "data_source": "osm"
  },
  {
    "name": "根謝銘グスク",
    "name_en": "",
    "lat": 26.7100921,
    "lng": 128.1605222,
    "category": "castle",
    "prefecture": "okinawa",
    "osm_id": 12625127376,
    "spot_type": "data_spot",
    "data_source": "osm"
  },
  {
    "name": "垣花グスク",
    "name_en": "",
    "lat": 26.1482144,
    "lng": 127.792461,
    "category": "castle",
    "prefecture": "okinawa",
    "osm_id": 12695674311,
    "spot_type": "data_spot",
    "data_source": "osm"
  },
  {
    "name": "仲栄真グスク",
    "name_en": "",
    "lat": 26.1441726,
    "lng": 127.7698129,
    "category": "castle",
    "prefecture": "okinawa",
    "osm_id": 12695866757,
    "spot_type": "data_spot",
    "data_source": "osm"
  },
  {
    "name": "安次富グスク",
    "name_en": "",
    "lat": 26.1422075,
    "lng": 127.7681217,
    "category": "castle",
    "prefecture": "okinawa",
    "osm_id": 12695876573,
    "spot_type": "data_spot",
    "data_source": "osm"
  },
  {
    "name": "大川グスク",
    "name_en": "",
    "lat": 26.1418826,
    "lng": 127.7678771,
    "category": "castle",
    "prefecture": "okinawa",
    "osm_id": 12695908701,
    "spot_type": "data_spot",
    "data_source": "osm"
  },
  {
    "name": "志喜屋グスク",
    "name_en": "",
    "lat": 26.1519561,
    "lng": 127.7991728,
    "category": "castle",
    "prefecture": "okinawa",
    "osm_id": 12726995500,
    "spot_type": "data_spot",
    "data_source": "osm"
  },
  {
    "name": "古間グスク（カンチャグスク）",
    "name_en": "",
    "lat": 26.1534491,
    "lng": 127.7978942,
    "category": "castle",
    "prefecture": "okinawa",
    "osm_id": 12727084701,
    "spot_type": "data_spot",
    "data_source": "osm"
  },
  {
    "name": "大城グスク（ウフグスクグスク）",
    "name_en": "",
    "lat": 26.1403328,
    "lng": 127.7915028,
    "category": "castle",
    "prefecture": "okinawa",
    "osm_id": 12727084702,
    "spot_type": "data_spot",
    "data_source": "osm"
  },
  {
    "name": "根石グスク",
    "name_en": "",
    "lat": 26.152734,
    "lng": 127.7645427,
    "category": "castle",
    "prefecture": "okinawa",
    "osm_id": 12727084703,
    "spot_type": "data_spot",
    "data_source": "osm"
  },
  {
    "name": "糸数グスク",
    "name_en": "",
    "lat": 26.1518172,
    "lng": 127.7626308,
    "category": "castle",
    "prefecture": "okinawa",
    "osm_id": 12727085084,
    "spot_type": "data_spot",
    "data_source": "osm"
  },
  {
    "name": "崎グスク（サチグスク）",
    "name_en": "",
    "lat": 26.1303832,
    "lng": 127.7729601,
    "category": "castle",
    "prefecture": "okinawa",
    "osm_id": 12727085085,
    "spot_type": "data_spot",
    "data_source": "osm"
  },
  {
    "name": "奥武グスク",
    "name_en": "",
    "lat": 26.1302559,
    "lng": 127.7728433,
    "category": "castle",
    "prefecture": "okinawa",
    "osm_id": 12727085086,
    "spot_type": "data_spot",
    "data_source": "osm"
  },
  {
    "name": "イーグスク（山グスク）",
    "name_en": "",
    "lat": 26.1738832,
    "lng": 127.7610802,
    "category": "castle",
    "prefecture": "okinawa",
    "osm_id": 12727085087,
    "spot_type": "data_spot",
    "data_source": "osm"
  },
  {
    "name": "ミーグスク",
    "name_en": "",
    "lat": 26.1856456,
    "lng": 127.7644157,
    "category": "castle",
    "prefecture": "okinawa",
    "osm_id": 12727085088,
    "spot_type": "data_spot",
    "data_source": "osm"
  },
  {
    "name": "船越グスク",
    "name_en": "",
    "lat": 26.1529162,
    "lng": 127.7575413,
    "category": "castle",
    "prefecture": "okinawa",
    "osm_id": 12728096939,
    "spot_type": "data_spot",
    "data_source": "osm"
  },
  {
    "name": "金刀比羅宮",
    "name_en": "",
    "lat": 25.9532151,
    "lng": 131.286897,
    "category": "shrine",
    "prefecture": "okinawa",
    "osm_id": 12825214251,
    "spot_type": "data_spot",
    "data_source": "osm"
  },
  {
    "name": "棚原グスク",
    "name_en": "",
    "lat": 26.2469724,
    "lng": 127.7541871,
    "category": "castle",
    "prefecture": "okinawa",
    "osm_id": 12852061025,
    "spot_type": "data_spot",
    "data_source": "osm"
  },
  {
    "name": "何我寺",
    "name_en": "",
    "lat": 26.4046764,
    "lng": 127.7317425,
    "category": "temple",
    "prefecture": "okinawa",
    "osm_id": 12885953813,
    "spot_type": "data_spot",
    "data_source": "osm"
  },
  {
    "name": "名称不明",
    "name_en": "",
    "lat": 26.1757015,
    "lng": 127.6409648,
    "category": "onsen",
    "prefecture": "okinawa",
    "osm_id": 12961051628,
    "spot_type": "data_spot",
    "data_source": "osm"
  },
  {
    "name": "SPA JUNGLIA (スパジャングリア)",
    "name_en": "",
    "lat": 26.6388009,
    "lng": 127.9670942,
    "category": "onsen",
    "prefecture": "okinawa",
    "osm_id": 13021850933,
    "spot_type": "data_spot",
    "data_source": "osm"
  },
  {
    "name": "王国歴史博物館",
    "name_en": "",
    "lat": 26.1386179,
    "lng": 127.7505728,
    "category": "museum",
    "prefecture": "okinawa",
    "osm_id": 13022301051,
    "spot_type": "data_spot",
    "data_source": "osm"
  },
  {
    "name": "新垣グスク",
    "name_en": "",
    "lat": 26.2734122,
    "lng": 127.7866267,
    "category": "castle",
    "prefecture": "okinawa",
    "osm_id": 13249297773,
    "spot_type": "data_spot",
    "data_source": "osm"
  },
  {
    "name": "イシグスク",
    "name_en": "",
    "lat": 26.2511599,
    "lng": 127.761086,
    "category": "castle",
    "prefecture": "okinawa",
    "osm_id": 13249336074,
    "spot_type": "data_spot",
    "data_source": "osm"
  },
  {
    "name": "我如古グスク",
    "name_en": "",
    "lat": 26.2541025,
    "lng": 127.7515935,
    "category": "castle",
    "prefecture": "okinawa",
    "osm_id": 13249364012,
    "spot_type": "data_spot",
    "data_source": "osm"
  },
  {
    "name": "塩屋龍宮神",
    "name_en": "Shioya Ryugujin",
    "lat": 26.4321888,
    "lng": 127.7569936,
    "category": "shrine",
    "prefecture": "okinawa",
    "osm_id": 13433499920,
    "spot_type": "data_spot",
    "data_source": "osm"
  },
  {
    "name": "塩屋龍神",
    "name_en": "Shioya Ryujin",
    "lat": 26.4317036,
    "lng": 127.7570781,
    "category": "shrine",
    "prefecture": "okinawa",
    "osm_id": 13433499921,
    "spot_type": "data_spot",
    "data_source": "osm"
  },
  {
    "name": "沖縄地区税関広報展示室",
    "name_en": "",
    "lat": 26.2281485,
    "lng": 127.6908305,
    "category": "museum",
    "prefecture": "okinawa",
    "osm_id": 13615396316,
    "spot_type": "data_spot",
    "data_source": "osm"
  },
  {
    "name": "名称不明",
    "name_en": "",
    "lat": 26.9241338,
    "lng": 127.9566666,
    "category": "lighthouse",
    "prefecture": "okinawa",
    "osm_id": 13638164227,
    "spot_type": "data_spot",
    "data_source": "osm"
  },
  {
    "name": "BLISSTIA",
    "name_en": "",
    "lat": 26.4543143,
    "lng": 127.8079263,
    "category": "museum",
    "prefecture": "okinawa",
    "osm_id": 13702863441,
    "spot_type": "data_spot",
    "data_source": "osm"
  },
  {
    "name": "沖縄県立博物館・美術館 (おきみゅー)",
    "name_en": "Okinawa Prefectural Art Museum (Okimyu)",
    "lat": 26.22719,
    "lng": 127.6937183,
    "category": "museum",
    "prefecture": "okinawa",
    "osm_id": 104013354,
    "spot_type": "data_spot",
    "data_source": "osm"
  },
  {
    "name": "那覇市伝統工芸館",
    "name_en": "Naha Traditional Craft Center",
    "lat": 26.2161334,
    "lng": 127.6893094,
    "category": "museum",
    "prefecture": "okinawa",
    "osm_id": 104977340,
    "spot_type": "data_spot",
    "data_source": "osm"
  },
  {
    "name": "護国寺",
    "name_en": "Gokoku Temple",
    "lat": 26.220085,
    "lng": 127.6715798,
    "category": "temple",
    "prefecture": "okinawa",
    "osm_id": 169954331,
    "spot_type": "data_spot",
    "data_source": "osm"
  },
  {
    "name": "対馬丸記念館",
    "name_en": "Tsushimamaru Memorial museum",
    "lat": 26.2200754,
    "lng": 127.6727896,
    "category": "museum",
    "prefecture": "okinawa",
    "osm_id": 169954343,
    "spot_type": "data_spot",
    "data_source": "osm"
  },
  {
    "name": "道の駅「喜名番所」",
    "name_en": "Roadside Station Kina-banjo",
    "lat": 26.398537,
    "lng": 127.7579528,
    "category": "rest_area",
    "prefecture": "okinawa",
    "osm_id": 189192553,
    "spot_type": "data_spot",
    "data_source": "osm"
  },
  {
    "name": "恩納村博物館",
    "name_en": "Onna Village museum",
    "lat": 26.4365499,
    "lng": 127.7933572,
    "category": "museum",
    "prefecture": "okinawa",
    "osm_id": 189820912,
    "spot_type": "data_spot",
    "data_source": "osm"
  },
  {
    "name": "石垣市立八重山博物館",
    "name_en": "Ishigaki City Yaeyama Museum",
    "lat": 24.3380671,
    "lng": 124.1595799,
    "category": "museum",
    "prefecture": "okinawa",
    "osm_id": 211554392,
    "spot_type": "data_spot",
    "data_source": "osm"
  },
  {
    "name": "今帰仁城",
    "name_en": "Nakijin Castle",
    "lat": 26.691034,
    "lng": 127.9296047,
    "category": "castle",
    "prefecture": "okinawa",
    "osm_id": 218648052,
    "spot_type": "data_spot",
    "data_source": "osm"
  },
  {
    "name": "座喜味城",
    "name_en": "Zakimi Castle",
    "lat": 26.4084583,
    "lng": 127.7417167,
    "category": "castle",
    "prefecture": "okinawa",
    "osm_id": 218648820,
    "spot_type": "data_spot",
    "data_source": "osm"
  },
  {
    "name": "風樹館",
    "name_en": "",
    "lat": 26.2502362,
    "lng": 127.7646573,
    "category": "museum",
    "prefecture": "okinawa",
    "osm_id": 272223989,
    "spot_type": "data_spot",
    "data_source": "osm"
  },
  {
    "name": "樹昌院",
    "name_en": "",
    "lat": 26.3096145,
    "lng": 127.7720231,
    "category": "temple",
    "prefecture": "okinawa",
    "osm_id": 317095133,
    "spot_type": "data_spot",
    "data_source": "osm"
  },
  {
    "name": "宜野座村立博物館",
    "name_en": "Ginoza Okinawa State Museum",
    "lat": 26.482888,
    "lng": 127.9728259,
    "category": "museum",
    "prefecture": "okinawa",
    "osm_id": 362200088,
    "spot_type": "data_spot",
    "data_source": "osm"
  },
  {
    "name": "沖縄美ら海水族館",
    "name_en": "Okinawa Churaumi Aquarium",
    "lat": 26.6943554,
    "lng": 127.8779307,
    "category": "zoo",
    "prefecture": "okinawa",
    "osm_id": 378128429,
    "spot_type": "data_spot",
    "data_source": "osm"
  },
  {
    "name": "万松院",
    "name_en": "Banshoin",
    "lat": 26.2181348,
    "lng": 127.7217166,
    "category": "temple",
    "prefecture": "okinawa",
    "osm_id": 396202353,
    "spot_type": "data_spot",
    "data_source": "osm"
  },
  {
    "name": "琉球村",
    "name_en": "Ryukyu-mura",
    "lat": 26.4296411,
    "lng": 127.7753141,
    "category": "museum",
    "prefecture": "okinawa",
    "osm_id": 396210563,
    "spot_type": "data_spot",
    "data_source": "osm"
  },
  {
    "name": "沖縄石の文化博物館",
    "name_en": "",
    "lat": 26.8613536,
    "lng": 128.2545497,
    "category": "museum",
    "prefecture": "okinawa",
    "osm_id": 401702463,
    "spot_type": "data_spot",
    "data_source": "osm"
  },
  {
    "name": "壺屋焼物博物館",
    "name_en": "Tsuboya Pottery Museum",
    "lat": 26.2138646,
    "lng": 127.6908469,
    "category": "museum",
    "prefecture": "okinawa",
    "osm_id": 405576602,
    "spot_type": "data_spot",
    "data_source": "osm"
  },
  {
    "name": "ネオパークオキナワ",
    "name_en": "",
    "lat": 26.6116717,
    "lng": 127.9913573,
    "category": "zoo",
    "prefecture": "okinawa",
    "osm_id": 415712228,
    "spot_type": "data_spot",
    "data_source": "osm"
  },
  {
    "name": "りっかりっか湯",
    "name_en": "Rikkarikka-yu",
    "lat": 26.217878,
    "lng": 127.688538,
    "category": "onsen",
    "prefecture": "okinawa",
    "osm_id": 419084275,
    "spot_type": "data_spot",
    "data_source": "osm"
  },
  {
    "name": "今帰仁村歴史文化センター",
    "name_en": "Nakijin Village History and Culture Center",
    "lat": 26.6917752,
    "lng": 127.9273103,
    "category": "museum",
    "prefecture": "okinawa",
    "osm_id": 439267530,
    "spot_type": "data_spot",
    "data_source": "osm"
  },
  {
    "name": "天然温泉アロマ",
    "name_en": "",
    "lat": 26.2883401,
    "lng": 127.7460565,
    "category": "onsen",
    "prefecture": "okinawa",
    "osm_id": 440036785,
    "spot_type": "data_spot",
    "data_source": "osm"
  },
  {
    "name": "道の駅かでな",
    "name_en": "Michi-no-eki Kadena",
    "lat": 26.3679377,
    "lng": 127.7741937,
    "category": "rest_area",
    "prefecture": "okinawa",
    "osm_id": 460200287,
    "spot_type": "data_spot",
    "data_source": "osm"
  },
  {
    "name": "道の駅 豊崎",
    "name_en": "Michi no eki Toyosaki",
    "lat": 26.15742,
    "lng": 127.6555518,
    "category": "rest_area",
    "prefecture": "okinawa",
    "osm_id": 460205398,
    "spot_type": "data_spot",
    "data_source": "osm"
  },
  {
    "name": "中村家住宅",
    "name_en": "Nakamurake Residence",
    "lat": 26.2896409,
    "lng": 127.8005011,
    "category": "museum",
    "prefecture": "okinawa",
    "osm_id": 461093135,
    "spot_type": "data_spot",
    "data_source": "osm"
  },
  {
    "name": "名称不明",
    "name_en": "",
    "lat": 24.2207788,
    "lng": 124.007903,
    "category": "lighthouse",
    "prefecture": "okinawa",
    "osm_id": 466073568,
    "spot_type": "data_spot",
    "data_source": "osm"
  },
  {
    "name": "山入端御嶽",
    "name_en": "Yamanoha Shrine",
    "lat": 26.6046192,
    "lng": 127.9360417,
    "category": "shrine",
    "prefecture": "okinawa",
    "osm_id": 484323989,
    "spot_type": "data_spot",
    "data_source": "osm"
  },
  {
    "name": "南山神社",
    "name_en": "Nanzan Shrine",
    "lat": 26.127368,
    "lng": 127.6900112,
    "category": "shrine",
    "prefecture": "okinawa",
    "osm_id": 521246633,
    "spot_type": "data_spot",
    "data_source": "osm"
  },
  {
    "name": "浦添グスク・ようどれ館",
    "name_en": "Urasoe Castle Site and Youdore Museum",
    "lat": 26.2487782,
    "lng": 127.7289505,
    "category": "museum",
    "prefecture": "okinawa",
    "osm_id": 542659852,
    "spot_type": "data_spot",
    "data_source": "osm"
  },
  {
    "name": "糸満海人工房資料館",
    "name_en": "",
    "lat": 26.1351374,
    "lng": 127.6632774,
    "category": "museum",
    "prefecture": "okinawa",
    "osm_id": 552155025,
    "spot_type": "data_spot",
    "data_source": "osm"
  },
  {
    "name": "護国神社",
    "name_en": "",
    "lat": 26.2033426,
    "lng": 127.6756218,
    "category": "shrine",
    "prefecture": "okinawa",
    "osm_id": 554172778,
    "spot_type": "data_spot",
    "data_source": "osm"
  },
  {
    "name": "沖宮",
    "name_en": "Oki-no-gu Shrine",
    "lat": 26.202662,
    "lng": 127.6771053,
    "category": "shrine",
    "prefecture": "okinawa",
    "osm_id": 554172923,
    "spot_type": "data_spot",
    "data_source": "osm"
  },
  {
    "name": "万福寺",
    "name_en": "",
    "lat": 26.1945038,
    "lng": 127.7063681,
    "category": "temple",
    "prefecture": "okinawa",
    "osm_id": 554290839,
    "spot_type": "data_spot",
    "data_source": "osm"
  },
  {
    "name": "マナティー館",
    "name_en": "Manatee pavilion",
    "lat": 26.6948768,
    "lng": 127.8769559,
    "category": "zoo",
    "prefecture": "okinawa",
    "osm_id": 555590352,
    "spot_type": "data_spot",
    "data_source": "osm"
  },
  {
    "name": "真如苑",
    "name_en": "",
    "lat": 26.2290865,
    "lng": 127.69218,
    "category": "temple",
    "prefecture": "okinawa",
    "osm_id": 557048875,
    "spot_type": "data_spot",
    "data_source": "osm"
  },
  {
    "name": "聖現寺",
    "name_en": "",
    "lat": 26.228455,
    "lng": 127.6822602,
    "category": "temple",
    "prefecture": "okinawa",
    "osm_id": 570721672,
    "spot_type": "data_spot",
    "data_source": "osm"
  },
  {
    "name": "名称不明",
    "name_en": "",
    "lat": 26.1224622,
    "lng": 127.7435122,
    "category": "museum",
    "prefecture": "okinawa",
    "osm_id": 585157976,
    "spot_type": "data_spot",
    "data_source": "osm"
  },
  {
    "name": "浦添市 歴史にふれる館",
    "name_en": "",
    "lat": 26.274056,
    "lng": 127.7138619,
    "category": "museum",
    "prefecture": "okinawa",
    "osm_id": 586987178,
    "spot_type": "data_spot",
    "data_source": "osm"
  },
  {
    "name": "通天寺",
    "name_en": "",
    "lat": 26.1460603,
    "lng": 127.7323377,
    "category": "temple",
    "prefecture": "okinawa",
    "osm_id": 588710798,
    "spot_type": "data_spot",
    "data_source": "osm"
  },
  {
    "name": "新城神社",
    "name_en": "",
    "lat": 26.1398779,
    "lng": 127.7389489,
    "category": "shrine",
    "prefecture": "okinawa",
    "osm_id": 588710813,
    "spot_type": "data_spot",
    "data_source": "osm"
  },
  {
    "name": "那覇ハーリー会館",
    "name_en": "Naha Hārī Museum",
    "lat": 26.2271048,
    "lng": 127.6813056,
    "category": "museum",
    "prefecture": "okinawa",
    "osm_id": 589242280,
    "spot_type": "data_spot",
    "data_source": "osm"
  },
  {
    "name": "泰眞寺",
    "name_en": "",
    "lat": 26.1085888,
    "lng": 127.6682459,
    "category": "temple",
    "prefecture": "okinawa",
    "osm_id": 596952944,
    "spot_type": "data_spot",
    "data_source": "osm"
  },
  {
    "name": "サタケ八重山ヤシ記念館",
    "name_en": "Satake Yaeyama Palm Memorial Hall",
    "lat": 24.4519787,
    "lng": 124.1939694,
    "category": "museum",
    "prefecture": "okinawa",
    "osm_id": 629311206,
    "spot_type": "data_spot",
    "data_source": "osm"
  },
  {
    "name": "平安名埼灯台",
    "name_en": "Hennasaki Lighthouse",
    "lat": 24.7195195,
    "lng": 125.4685126,
    "category": "lighthouse",
    "prefecture": "okinawa",
    "osm_id": 681502553,
    "spot_type": "data_spot",
    "data_source": "osm"
  },
  {
    "name": "名称不明",
    "name_en": "",
    "lat": 24.3497827,
    "lng": 123.7035857,
    "category": "lighthouse",
    "prefecture": "okinawa",
    "osm_id": 712671598,
    "spot_type": "data_spot",
    "data_source": "osm"
  },
  {
    "name": "雪塩ミュージアム",
    "name_en": "Yukishio Salt Factory",
    "lat": 24.9022134,
    "lng": 125.2682065,
    "category": "museum",
    "prefecture": "okinawa",
    "osm_id": 713109026,
    "spot_type": "data_spot",
    "data_source": "osm"
  },
  {
    "name": "石垣宝来宝来神社",
    "name_en": "",
    "lat": 24.3570182,
    "lng": 124.1655562,
    "category": "shrine",
    "prefecture": "okinawa",
    "osm_id": 713290135,
    "spot_type": "data_spot",
    "data_source": "osm"
  },
  {
    "name": "宮古島海中公園",
    "name_en": "Miyakojima Marine Park",
    "lat": 24.8787471,
    "lng": 125.2747182,
    "category": "zoo",
    "prefecture": "okinawa",
    "osm_id": 713310635,
    "spot_type": "data_spot",
    "data_source": "osm"
  },
  {
    "name": "マルクスブルグ城",
    "name_en": "",
    "lat": 24.7185927,
    "lng": 125.3243225,
    "category": "museum",
    "prefecture": "okinawa",
    "osm_id": 714464396,
    "spot_type": "data_spot",
    "data_source": "osm"
  },
  {
    "name": "博愛記念館",
    "name_en": "",
    "lat": 24.7191264,
    "lng": 125.3242774,
    "category": "museum",
    "prefecture": "okinawa",
    "osm_id": 714464402,
    "spot_type": "data_spot",
    "data_source": "osm"
  },
  {
    "name": "名称不明",
    "name_en": "",
    "lat": 24.8538243,
    "lng": 125.1632364,
    "category": "lighthouse",
    "prefecture": "okinawa",
    "osm_id": 715312371,
    "spot_type": "data_spot",
    "data_source": "osm"
  },
  {
    "name": "創価学会宮古文化会館",
    "name_en": "",
    "lat": 24.7844882,
    "lng": 125.2811305,
    "category": "temple",
    "prefecture": "okinawa",
    "osm_id": 715561600,
    "spot_type": "data_spot",
    "data_source": "osm"
  },
  {
    "name": "金剛禅寺",
    "name_en": "",
    "lat": 24.7299035,
    "lng": 125.3418683,
    "category": "temple",
    "prefecture": "okinawa",
    "osm_id": 717558231,
    "spot_type": "data_spot",
    "data_source": "osm"
  },
  {
    "name": "赤名宮",
    "name_en": "",
    "lat": 24.7526704,
    "lng": 125.2851018,
    "category": "shrine",
    "prefecture": "okinawa",
    "osm_id": 718766248,
    "spot_type": "data_spot",
    "data_source": "osm"
  },
  {
    "name": "宮古馬飼育場",
    "name_en": "Miyako Horse Riding Experience",
    "lat": 24.801341,
    "lng": 125.3156661,
    "category": "zoo",
    "prefecture": "okinawa",
    "osm_id": 718838471,
    "spot_type": "data_spot",
    "data_source": "osm"
  },
  {
    "name": "恵子美術館",
    "name_en": "",
    "lat": 24.8021109,
    "lng": 125.2810238,
    "category": "museum",
    "prefecture": "okinawa",
    "osm_id": 722100191,
    "spot_type": "data_spot",
    "data_source": "osm"
  },
  {
    "name": "キンダーハウス",
    "name_en": "",
    "lat": 24.7195812,
    "lng": 125.3224928,
    "category": "museum",
    "prefecture": "okinawa",
    "osm_id": 734495107,
    "spot_type": "data_spot",
    "data_source": "osm"
  },
  {
    "name": "軽便与那原駅舎展示資料館",
    "name_en": "Yonabaru Light Rail Station Museum",
    "lat": 26.2003178,
    "lng": 127.7561901,
    "category": "museum",
    "prefecture": "okinawa",
    "osm_id": 737655725,
    "spot_type": "data_spot",
    "data_source": "osm"
  },
  {
    "name": "ウミガメ館",
    "name_en": "Sea turtle pavilion",
    "lat": 26.6945645,
    "lng": 127.8765629,
    "category": "zoo",
    "prefecture": "okinawa",
    "osm_id": 851944421,
    "spot_type": "data_spot",
    "data_source": "osm"
  },
  {
    "name": "本願寺沖縄別院",
    "name_en": "",
    "lat": 26.2572363,
    "lng": 127.7269199,
    "category": "temple",
    "prefecture": "okinawa",
    "osm_id": 876577963,
    "spot_type": "data_spot",
    "data_source": "osm"
  },
  {
    "name": "佐喜真美術館",
    "name_en": "Sakima Art Museum",
    "lat": 26.2780176,
    "lng": 127.7749304,
    "category": "museum",
    "prefecture": "okinawa",
    "osm_id": 914792647,
    "spot_type": "data_spot",
    "data_source": "osm"
  },
  {
    "name": "名称不明",
    "name_en": "",
    "lat": 26.2434404,
    "lng": 127.7595881,
    "category": "museum",
    "prefecture": "okinawa",
    "osm_id": 938251328,
    "spot_type": "data_spot",
    "data_source": "osm"
  },
  {
    "name": "琉球八社 安里八幡宮",
    "name_en": "Asato Hachimangu Shrine",
    "lat": 26.2211426,
    "lng": 127.6949787,
    "category": "shrine",
    "prefecture": "okinawa",
    "osm_id": 956197019,
    "spot_type": "data_spot",
    "data_source": "osm"
  },
  {
    "name": "八幡神徳寺",
    "name_en": "Hachiman Kotokuji Temple",
    "lat": 26.2205807,
    "lng": 127.6945118,
    "category": "temple",
    "prefecture": "okinawa",
    "osm_id": 958336538,
    "spot_type": "data_spot",
    "data_source": "osm"
  },
  {
    "name": "大典寺",
    "name_en": "",
    "lat": 26.2167643,
    "lng": 127.677971,
    "category": "temple",
    "prefecture": "okinawa",
    "osm_id": 958539634,
    "spot_type": "data_spot",
    "data_source": "osm"
  },
  {
    "name": "安国寺",
    "name_en": "",
    "lat": 26.2186976,
    "lng": 127.7134642,
    "category": "temple",
    "prefecture": "okinawa",
    "osm_id": 977104082,
    "spot_type": "data_spot",
    "data_source": "osm"
  },
  {
    "name": "具志川城跡",
    "name_en": "Gushikawa Castle Site",
    "lat": 26.0802997,
    "lng": 127.6644684,
    "category": "castle",
    "prefecture": "okinawa",
    "osm_id": 989053627,
    "spot_type": "data_spot",
    "data_source": "osm"
  },
  {
    "name": "沖縄こどもの国",
    "name_en": "",
    "lat": 26.3267057,
    "lng": 127.8045395,
    "category": "zoo",
    "prefecture": "okinawa",
    "osm_id": 1005801989,
    "spot_type": "data_spot",
    "data_source": "osm"
  },
  {
    "name": "袋中寺",
    "name_en": "Taichuji Temple",
    "lat": 26.1941416,
    "lng": 127.6732887,
    "category": "temple",
    "prefecture": "okinawa",
    "osm_id": 1009575886,
    "spot_type": "data_spot",
    "data_source": "osm"
  },
  {
    "name": "平和記念堂",
    "name_en": "Heiwa-kinendo Shrine",
    "lat": 26.1917821,
    "lng": 127.6735312,
    "category": "shrine",
    "prefecture": "okinawa",
    "osm_id": 1009596435,
    "spot_type": "data_spot",
    "data_source": "osm"
  },
  {
    "name": "普天満宮",
    "name_en": "Futenma Shrine",
    "lat": 26.2927597,
    "lng": 127.7772328,
    "category": "shrine",
    "prefecture": "okinawa",
    "osm_id": 1017035026,
    "spot_type": "data_spot",
    "data_source": "osm"
  },
  {
    "name": "月代宮",
    "name_en": "Tsukishiro-no-miya Shrine",
    "lat": 26.1656821,
    "lng": 127.7874104,
    "category": "shrine",
    "prefecture": "okinawa",
    "osm_id": 1017125869,
    "spot_type": "data_spot",
    "data_source": "osm"
  },
  {
    "name": "円覚寺総門",
    "name_en": "Enkakuji Main Gate",
    "lat": 26.2184473,
    "lng": 127.7192279,
    "category": "temple",
    "prefecture": "okinawa",
    "osm_id": 1018231178,
    "spot_type": "data_spot",
    "data_source": "osm"
  },
  {
    "name": "DMMかりゆし水族館",
    "name_en": "DMM KARIYUSHI AQUARIUM",
    "lat": 26.1562535,
    "lng": 127.6507246,
    "category": "zoo",
    "prefecture": "okinawa",
    "osm_id": 1025453072,
    "spot_type": "data_spot",
    "data_source": "osm"
  },
  {
    "name": "南風原町立南風原文化センター",
    "name_en": "Haebaru Town Museum",
    "lat": 26.1869118,
    "lng": 127.7305063,
    "category": "museum",
    "prefecture": "okinawa",
    "osm_id": 1029973128,
    "spot_type": "data_spot",
    "data_source": "osm"
  },
  {
    "name": "識名宮",
    "name_en": "Shikina-gu Shrine",
    "lat": 26.2101564,
    "lng": 127.7134076,
    "category": "shrine",
    "prefecture": "okinawa",
    "osm_id": 1030892685,
    "spot_type": "data_spot",
    "data_source": "osm"
  },
  {
    "name": "名称不明",
    "name_en": "",
    "lat": 26.233083,
    "lng": 127.768112,
    "category": "temple",
    "prefecture": "okinawa",
    "osm_id": 1054690527,
    "spot_type": "data_spot",
    "data_source": "osm"
  },
  {
    "name": "名称不明",
    "name_en": "",
    "lat": 26.2697338,
    "lng": 127.7405884,
    "category": "museum",
    "prefecture": "okinawa",
    "osm_id": 1055339787,
    "spot_type": "data_spot",
    "data_source": "osm"
  },
  {
    "name": "名称不明",
    "name_en": "",
    "lat": 26.2902079,
    "lng": 127.7871792,
    "category": "temple",
    "prefecture": "okinawa",
    "osm_id": 1092898293,
    "spot_type": "data_spot",
    "data_source": "osm"
  },
  {
    "name": "白銀堂",
    "name_en": "Hakugin-do",
    "lat": 26.1335644,
    "lng": 127.6700791,
    "category": "shrine",
    "prefecture": "okinawa",
    "osm_id": 1126642454,
    "spot_type": "data_spot",
    "data_source": "osm"
  },
  {
    "name": "名称不明",
    "name_en": "",
    "lat": 26.3323343,
    "lng": 127.8802987,
    "category": "museum",
    "prefecture": "okinawa",
    "osm_id": 1132202602,
    "spot_type": "data_spot",
    "data_source": "osm"
  },
  {
    "name": "名称不明",
    "name_en": "",
    "lat": 26.3321765,
    "lng": 127.8800886,
    "category": "museum",
    "prefecture": "okinawa",
    "osm_id": 1132202603,
    "spot_type": "data_spot",
    "data_source": "osm"
  },
  {
    "name": "久米島自然文化センター",
    "name_en": "",
    "lat": 26.3417381,
    "lng": 126.7637547,
    "category": "museum",
    "prefecture": "okinawa",
    "osm_id": 1169515015,
    "spot_type": "data_spot",
    "data_source": "osm"
  },
  {
    "name": "宇江城城跡",
    "name_en": "Uegusuku Castle Ruins",
    "lat": 26.3766389,
    "lng": 126.7693656,
    "category": "castle",
    "prefecture": "okinawa",
    "osm_id": 1169679043,
    "spot_type": "data_spot",
    "data_source": "osm"
  },
  {
    "name": "具志川城跡",
    "name_en": "Gushikawa Castle Ruins",
    "lat": 26.3832994,
    "lng": 126.7509822,
    "category": "castle",
    "prefecture": "okinawa",
    "osm_id": 1169680273,
    "spot_type": "data_spot",
    "data_source": "osm"
  },
  {
    "name": "南城美術館",
    "name_en": "Nanjo Art Museum",
    "lat": 26.1741361,
    "lng": 127.8201831,
    "category": "museum",
    "prefecture": "okinawa",
    "osm_id": 1203561601,
    "spot_type": "data_spot",
    "data_source": "osm"
  },
  {
    "name": "ミニ動物園",
    "name_en": "Mini Zoo",
    "lat": 26.438787,
    "lng": 127.7146123,
    "category": "zoo",
    "prefecture": "okinawa",
    "osm_id": 1211353273,
    "spot_type": "data_spot",
    "data_source": "osm"
  },
  {
    "name": "伊豆味神社",
    "name_en": "Izumi Shrine",
    "lat": 26.650729,
    "lng": 127.9473454,
    "category": "shrine",
    "prefecture": "okinawa",
    "osm_id": 1212181432,
    "spot_type": "data_spot",
    "data_source": "osm"
  },
  {
    "name": "名称不明",
    "name_en": "",
    "lat": 24.7198164,
    "lng": 125.3345993,
    "category": "onsen",
    "prefecture": "okinawa",
    "osm_id": 1235128067,
    "spot_type": "data_spot",
    "data_source": "osm"
  },
  {
    "name": "名称不明",
    "name_en": "",
    "lat": 24.7195382,
    "lng": 125.3346342,
    "category": "onsen",
    "prefecture": "okinawa",
    "osm_id": 1235128068,
    "spot_type": "data_spot",
    "data_source": "osm"
  },
  {
    "name": "名護博物館",
    "name_en": "Nago Museum",
    "lat": 26.5979453,
    "lng": 127.9877967,
    "category": "museum",
    "prefecture": "okinawa",
    "osm_id": 1237210800,
    "spot_type": "data_spot",
    "data_source": "osm"
  },
  {
    "name": "木のふれあい館",
    "name_en": "",
    "lat": 26.5111993,
    "lng": 127.9065895,
    "category": "museum",
    "prefecture": "okinawa",
    "osm_id": 1254861021,
    "spot_type": "data_spot",
    "data_source": "osm"
  },
  {
    "name": "森のふしぎ館",
    "name_en": "",
    "lat": 26.5119292,
    "lng": 127.906688,
    "category": "museum",
    "prefecture": "okinawa",
    "osm_id": 1254861023,
    "spot_type": "data_spot",
    "data_source": "osm"
  },
  {
    "name": "神着宮",
    "name_en": "",
    "lat": 26.5468284,
    "lng": 128.0851002,
    "category": "shrine",
    "prefecture": "okinawa",
    "osm_id": 1282440488,
    "spot_type": "data_spot",
    "data_source": "osm"
  },
  {
    "name": "宮古神社",
    "name_en": "Miyako Shrine",
    "lat": 24.8076966,
    "lng": 125.2805014,
    "category": "shrine",
    "prefecture": "okinawa",
    "osm_id": 1289915832,
    "spot_type": "data_spot",
    "data_source": "osm"
  },
  {
    "name": "しろう農園ヤギふれあい牧場",
    "name_en": "",
    "lat": 24.7210654,
    "lng": 125.3146087,
    "category": "zoo",
    "prefecture": "okinawa",
    "osm_id": 1292587761,
    "spot_type": "data_spot",
    "data_source": "osm"
  },
  {
    "name": "冨崎観音堂",
    "name_en": "",
    "lat": 24.3649342,
    "lng": 124.1162503,
    "category": "temple",
    "prefecture": "okinawa",
    "osm_id": 1306656240,
    "spot_type": "data_spot",
    "data_source": "osm"
  },
  {
    "name": "名称不明",
    "name_en": "",
    "lat": 26.5119642,
    "lng": 127.8959305,
    "category": "rest_area",
    "prefecture": "okinawa",
    "osm_id": 1312964404,
    "spot_type": "data_spot",
    "data_source": "osm"
  },
  {
    "name": "石垣やいま村",
    "name_en": "Ishigaki Yaima Village",
    "lat": 24.4039358,
    "lng": 124.1445355,
    "category": "museum",
    "prefecture": "okinawa",
    "osm_id": 1318075596,
    "spot_type": "data_spot",
    "data_source": "osm"
  },
  {
    "name": "名称不明",
    "name_en": "",
    "lat": 26.372473,
    "lng": 127.1410373,
    "category": "lighthouse",
    "prefecture": "okinawa",
    "osm_id": 1334897011,
    "spot_type": "data_spot",
    "data_source": "osm"
  },
  {
    "name": "波上宮",
    "name_en": "Naminoue Shrine",
    "lat": 26.2204073,
    "lng": 127.6711916,
    "category": "shrine",
    "prefecture": "okinawa",
    "osm_id": 1337981786,
    "spot_type": "data_spot",
    "data_source": "osm"
  },
  {
    "name": "ユンタンザ博物館",
    "name_en": "Yuntanza Museum",
    "lat": 26.4067606,
    "lng": 127.7422326,
    "category": "museum",
    "prefecture": "okinawa",
    "osm_id": 1340232511,
    "spot_type": "data_spot",
    "data_source": "osm"
  },
  {
    "name": "本部町立博物館",
    "name_en": "",
    "lat": 26.6559026,
    "lng": 127.8837453,
    "category": "museum",
    "prefecture": "okinawa",
    "osm_id": 1343937591,
    "spot_type": "data_spot",
    "data_source": "osm"
  },
  {
    "name": "与那国心照寺",
    "name_en": "",
    "lat": 24.4684594,
    "lng": 122.9999749,
    "category": "temple",
    "prefecture": "okinawa",
    "osm_id": 1349786027,
    "spot_type": "data_spot",
    "data_source": "osm"
  },
  {
    "name": "十山神社",
    "name_en": "",
    "lat": 24.4691501,
    "lng": 123.0009459,
    "category": "shrine",
    "prefecture": "okinawa",
    "osm_id": 1349985451,
    "spot_type": "data_spot",
    "data_source": "osm"
  },
  {
    "name": "恵比寿神社",
    "name_en": "",
    "lat": 26.2397959,
    "lng": 127.6857478,
    "category": "shrine",
    "prefecture": "okinawa",
    "osm_id": 1358308278,
    "spot_type": "data_spot",
    "data_source": "osm"
  },
  {
    "name": "護国神社",
    "name_en": "",
    "lat": 26.2032647,
    "lng": 127.6759785,
    "category": "shrine",
    "prefecture": "okinawa",
    "osm_id": 1380250619,
    "spot_type": "data_spot",
    "data_source": "osm"
  },
  {
    "name": "金龍寺",
    "name_en": "",
    "lat": 26.1894686,
    "lng": 127.704475,
    "category": "temple",
    "prefecture": "okinawa",
    "osm_id": 1387496936,
    "spot_type": "data_spot",
    "data_source": "osm"
  },
  {
    "name": "伊仙町歴史民俗資料館",
    "name_en": "",
    "lat": 27.6732649,
    "lng": 128.947161,
    "category": "museum",
    "prefecture": "okinawa",
    "osm_id": 1412117352,
    "spot_type": "data_spot",
    "data_source": "osm"
  },
  {
    "name": "和泊町歴史民俗資料館",
    "name_en": "",
    "lat": 27.3905387,
    "lng": 128.6147976,
    "category": "museum",
    "prefecture": "okinawa",
    "osm_id": 1413217107,
    "spot_type": "data_spot",
    "data_source": "osm"
  },
  {
    "name": "上江洲家住宅",
    "name_en": "Uezu House",
    "lat": 26.3550374,
    "lng": 126.7488692,
    "category": "museum",
    "prefecture": "okinawa",
    "osm_id": 1413219649,
    "spot_type": "data_spot",
    "data_source": "osm"
  },
  {
    "name": "金刀比羅宮",
    "name_en": "Kotohiragu Shrine",
    "lat": 24.4479482,
    "lng": 122.9403028,
    "category": "shrine",
    "prefecture": "okinawa",
    "osm_id": 1451847453,
    "spot_type": "data_spot",
    "data_source": "osm"
  },
  {
    "name": "名称不明",
    "name_en": "",
    "lat": 26.1226555,
    "lng": 127.7434614,
    "category": "museum",
    "prefecture": "okinawa",
    "osm_id": 1495469104,
    "spot_type": "data_spot",
    "data_source": "osm"
  }
]