[
  {
    "name": "日根野",
    "name_en": "Hineno",
    "lat": 34.3908597,
    "lng": 135.3313204,
    "category": "station",
    "prefecture": "osaka",
    "osm_id": 267297188,
    "spot_type": "data_spot",
    "data_source": "osm"
  },
  {
    "name": "下兵庫",
    "name_en": "Shimo-Hyogo",
    "lat": 34.3226895,
    "lng": 135.6348319,
    "category": "station",
    "prefecture": "osaka",
    "osm_id": 267332906,
    "spot_type": "data_spot",
    "data_source": "osm"
  },
  {
    "name": "隅田",
    "name_en": "Suda",
    "lat": 34.3280733,
    "lng": 135.6555901,
    "category": "station",
    "prefecture": "osaka",
    "osm_id": 267333241,
    "spot_type": "data_spot",
    "data_source": "osm"
  },
  {
    "name": "橋本",
    "name_en": "Hashimoto",
    "lat": 34.3182105,
    "lng": 135.6147953,
    "category": "station",
    "prefecture": "osaka",
    "osm_id": 267333258,
    "spot_type": "data_spot",
    "data_source": "osm"
  },
  {
    "name": "高野口",
    "name_en": "Kōyaguchi",
    "lat": 34.3076633,
    "lng": 135.5572561,
    "category": "station",
    "prefecture": "osaka",
    "osm_id": 267333875,
    "spot_type": "data_spot",
    "data_source": "osm"
  },
  {
    "name": "紀伊山田",
    "name_en": "Kii-Yamada",
    "lat": 34.3129748,
    "lng": 135.5839401,
    "category": "station",
    "prefecture": "osaka",
    "osm_id": 267333889,
    "spot_type": "data_spot",
    "data_source": "osm"
  },
  {
    "name": "和泉府中",
    "name_en": "Izumi-Fuchu",
    "lat": 34.4879504,
    "lng": 135.4238783,
    "category": "station",
    "prefecture": "osaka",
    "osm_id": 267335424,
    "spot_type": "data_spot",
    "data_source": "osm"
  },
  {
    "name": "東岸和田",
    "name_en": "Higashi-Kishiwada",
    "lat": 34.4494504,
    "lng": 135.3859705,
    "category": "station",
    "prefecture": "osaka",
    "osm_id": 267335445,
    "spot_type": "data_spot",
    "data_source": "osm"
  },
  {
    "name": "下松",
    "name_en": "Shimomatsu",
    "lat": 34.4574991,
    "lng": 135.3968838,
    "category": "station",
    "prefecture": "osaka",
    "osm_id": 267335523,
    "spot_type": "data_spot",
    "data_source": "osm"
  },
  {
    "name": "熊取",
    "name_en": "Kumatori",
    "lat": 34.4063314,
    "lng": 135.3412207,
    "category": "station",
    "prefecture": "osaka",
    "osm_id": 267335686,
    "spot_type": "data_spot",
    "data_source": "osm"
  },
  {
    "name": "和泉砂川",
    "name_en": "Izumi-sunagawa",
    "lat": 34.3605283,
    "lng": 135.2814777,
    "category": "station",
    "prefecture": "osaka",
    "osm_id": 267336301,
    "spot_type": "data_spot",
    "data_source": "osm"
  },
  {
    "name": "新家",
    "name_en": "Shinge",
    "lat": 34.3723477,
    "lng": 135.2989628,
    "category": "station",
    "prefecture": "osaka",
    "osm_id": 267336455,
    "spot_type": "data_spot",
    "data_source": "osm"
  },
  {
    "name": "山中渓",
    "name_en": "Yamanakadani",
    "lat": 34.3257891,
    "lng": 135.2697913,
    "category": "station",
    "prefecture": "osaka",
    "osm_id": 267336637,
    "spot_type": "data_spot",
    "data_source": "osm"
  },
  {
    "name": "長滝",
    "name_en": "Nagataki",
    "lat": 34.3819871,
    "lng": 135.320077,
    "category": "station",
    "prefecture": "osaka",
    "osm_id": 267336650,
    "spot_type": "data_spot",
    "data_source": "osm"
  },
  {
    "name": "和泉鳥取",
    "name_en": "Izumi-tottori",
    "lat": 34.3425624,
    "lng": 135.2632028,
    "category": "station",
    "prefecture": "osaka",
    "osm_id": 267336655,
    "spot_type": "data_spot",
    "data_source": "osm"
  },
  {
    "name": "王寺",
    "name_en": "Oji",
    "lat": 34.5973636,
    "lng": 135.7035805,
    "category": "station",
    "prefecture": "osaka",
    "osm_id": 267442901,
    "spot_type": "data_spot",
    "data_source": "osm"
  },
  {
    "name": "法隆寺",
    "name_en": "Horyuji",
    "lat": 34.6016824,
    "lng": 135.7391165,
    "category": "station",
    "prefecture": "osaka",
    "osm_id": 267443743,
    "spot_type": "data_spot",
    "data_source": "osm"
  },
  {
    "name": "久宝寺",
    "name_en": "Kyuhoji",
    "lat": 34.6224465,
    "lng": 135.5840263,
    "category": "station",
    "prefecture": "osaka",
    "osm_id": 267446546,
    "spot_type": "data_spot",
    "data_source": "osm"
  },
  {
    "name": "今宮",
    "name_en": "Imamiya",
    "lat": 34.6539549,
    "lng": 135.4930343,
    "category": "station",
    "prefecture": "osaka",
    "osm_id": 267446732,
    "spot_type": "data_spot",
    "data_source": "osm"
  },
  {
    "name": "JR難波",
    "name_en": "JR Namba",
    "lat": 34.6664853,
    "lng": 135.4953257,
    "category": "station",
    "prefecture": "osaka",
    "osm_id": 267447385,
    "spot_type": "data_spot",
    "data_source": "osm"
  },
  {
    "name": "東淀川",
    "name_en": "Higashi-Yodogawa",
    "lat": 34.7395435,
    "lng": 135.5041386,
    "category": "station",
    "prefecture": "osaka",
    "osm_id": 267460437,
    "spot_type": "data_spot",
    "data_source": "osm"
  },
  {
    "name": "立花",
    "name_en": "Tachibana",
    "lat": 34.7379561,
    "lng": 135.3990209,
    "category": "station",
    "prefecture": "osaka",
    "osm_id": 267460771,
    "spot_type": "data_spot",
    "data_source": "osm"
  },
  {
    "name": "桜島",
    "name_en": "Sakurajima",
    "lat": 34.6621229,
    "lng": 135.4322572,
    "category": "station",
    "prefecture": "osaka",
    "osm_id": 267461794,
    "spot_type": "data_spot",
    "data_source": "osm"
  },
  {
    "name": "ユニバーサルシティ",
    "name_en": "Universal City",
    "lat": 34.6679419,
    "lng": 135.4386758,
    "category": "station",
    "prefecture": "osaka",
    "osm_id": 267461811,
    "spot_type": "data_spot",
    "data_source": "osm"
  },
  {
    "name": "徳庵",
    "name_en": "Tokuan",
    "lat": 34.6924445,
    "lng": 135.5813874,
    "category": "station",
    "prefecture": "osaka",
    "osm_id": 267462794,
    "spot_type": "data_spot",
    "data_source": "osm"
  },
  {
    "name": "三ヶ山口",
    "name_en": "Mikeyamaguchi",
    "lat": 34.4072449,
    "lng": 135.3849849,
    "category": "station",
    "prefecture": "osaka",
    "osm_id": 270866822,
    "spot_type": "data_spot",
    "data_source": "osm"
  },
  {
    "name": "森",
    "name_en": "Mori",
    "lat": 34.4143337,
    "lng": 135.3818075,
    "category": "station",
    "prefecture": "osaka",
    "osm_id": 270866824,
    "spot_type": "data_spot",
    "data_source": "osm"
  },
  {
    "name": "清児",
    "name_en": "Sechigo",
    "lat": 34.4248705,
    "lng": 135.372233,
    "category": "station",
    "prefecture": "osaka",
    "osm_id": 270866828,
    "spot_type": "data_spot",
    "data_source": "osm"
  },
  {
    "name": "名越",
    "name_en": "Nagose",
    "lat": 34.4214658,
    "lng": 135.3750074,
    "category": "station",
    "prefecture": "osaka",
    "osm_id": 270866830,
    "spot_type": "data_spot",
    "data_source": "osm"
  },
  {
    "name": "三ツ松",
    "name_en": "Mitsumatsu",
    "lat": 34.4108953,
    "lng": 135.3833246,
    "category": "station",
    "prefecture": "osaka",
    "osm_id": 270866845,
    "spot_type": "data_spot",
    "data_source": "osm"
  },
  {
    "name": "石才",
    "name_en": "Ishizai",
    "lat": 34.4307979,
    "lng": 135.3680317,
    "category": "station",
    "prefecture": "osaka",
    "osm_id": 270866851,
    "spot_type": "data_spot",
    "data_source": "osm"
  },
  {
    "name": "近義の里",
    "name_en": "Koginosato",
    "lat": 34.4370683,
    "lng": 135.3627071,
    "category": "station",
    "prefecture": "osaka",
    "osm_id": 270866868,
    "spot_type": "data_spot",
    "data_source": "osm"
  },
  {
    "name": "難波",
    "name_en": "Namba",
    "lat": 34.6636625,
    "lng": 135.5017751,
    "category": "station",
    "prefecture": "osaka",
    "osm_id": 280487841,
    "spot_type": "data_spot",
    "data_source": "osm"
  },
  {
    "name": "鳥取ノ荘",
    "name_en": "Tottorinoshō",
    "lat": 34.3513187,
    "lng": 135.2317053,
    "category": "station",
    "prefecture": "osaka",
    "osm_id": 280489193,
    "spot_type": "data_spot",
    "data_source": "osm"
  },
  {
    "name": "和歌山大学前",
    "name_en": "Wakayamadaigakumae",
    "lat": 34.2763573,
    "lng": 135.1470827,
    "category": "station",
    "prefecture": "osaka",
    "osm_id": 280489365,
    "spot_type": "data_spot",
    "data_source": "osm"
  },
  {
    "name": "樽井",
    "name_en": "Tarui",
    "lat": 34.3742616,
    "lng": 135.2614949,
    "category": "station",
    "prefecture": "osaka",
    "osm_id": 280489390,
    "spot_type": "data_spot",
    "data_source": "osm"
  },
  {
    "name": "河内長野",
    "name_en": "Kawachinagano",
    "lat": 34.4512484,
    "lng": 135.5731535,
    "category": "station",
    "prefecture": "osaka",
    "osm_id": 280491296,
    "spot_type": "data_spot",
    "data_source": "osm"
  },
  {
    "name": "初芝",
    "name_en": "Hatsushiba",
    "lat": 34.5424151,
    "lng": 135.526262,
    "category": "station",
    "prefecture": "osaka",
    "osm_id": 280491525,
    "spot_type": "data_spot",
    "data_source": "osm"
  },
  {
    "name": "白鷺",
    "name_en": "Shirasagi",
    "lat": 34.5501719,
    "lng": 135.5133949,
    "category": "station",
    "prefecture": "osaka",
    "osm_id": 280493311,
    "spot_type": "data_spot",
    "data_source": "osm"
  },
  {
    "name": "住吉東",
    "name_en": "Sumiyoshihigashi",
    "lat": 34.6135489,
    "lng": 135.4975863,
    "category": "station",
    "prefecture": "osaka",
    "osm_id": 280493642,
    "spot_type": "data_spot",
    "data_source": "osm"
  },
  {
    "name": "栄山寺",
    "name_en": "Eizanji",
    "lat": 34.3559366,
    "lng": 135.7208895,
    "category": "temple",
    "prefecture": "osaka",
    "osm_id": 294112995,
    "spot_type": "data_spot",
    "data_source": "osm"
  },
  {
    "name": "総持寺",
    "name_en": "Sojiji",
    "lat": 34.8269813,
    "lng": 135.5846204,
    "category": "station",
    "prefecture": "osaka",
    "osm_id": 335668386,
    "spot_type": "data_spot",
    "data_source": "osm"
  },
  {
    "name": "南茨木",
    "name_en": "Minamiibaraki",
    "lat": 34.8023575,
    "lng": 135.565179,
    "category": "station",
    "prefecture": "osaka",
    "osm_id": 335669181,
    "spot_type": "data_spot",
    "data_source": "osm"
  },
  {
    "name": "瓢箪山",
    "name_en": "Hyōtan-yama",
    "lat": 34.6620608,
    "lng": 135.6390221,
    "category": "station",
    "prefecture": "osaka",
    "osm_id": 335841128,
    "spot_type": "data_spot",
    "data_source": "osm"
  },
  {
    "name": "額田",
    "name_en": "Nukata",
    "lat": 34.6753433,
    "lng": 135.6511614,
    "category": "station",
    "prefecture": "osaka",
    "osm_id": 335841162,
    "spot_type": "data_spot",
    "data_source": "osm"
  },
  {
    "name": "枚岡",
    "name_en": "Hiraoka",
    "lat": 34.6698004,
    "lng": 135.6481698,
    "category": "station",
    "prefecture": "osaka",
    "osm_id": 335841164,
    "spot_type": "data_spot",
    "data_source": "osm"
  },
  {
    "name": "生駒山上",
    "name_en": "Ikoma-Sanjō",
    "lat": 34.6794517,
    "lng": 135.680478,
    "category": "station",
    "prefecture": "osaka",
    "osm_id": 335847608,
    "spot_type": "data_spot",
    "data_source": "osm"
  },
  {
    "name": "梅屋敷",
    "name_en": "Umeyashiki",
    "lat": 34.6833483,
    "lng": 135.6870451,
    "category": "station",
    "prefecture": "osaka",
    "osm_id": 335847620,
    "spot_type": "data_spot",
    "data_source": "osm"
  },
  {
    "name": "霞ヶ丘",
    "name_en": "Kasumigaoka",
    "lat": 34.6812936,
    "lng": 135.6835755,
    "category": "station",
    "prefecture": "osaka",
    "osm_id": 335847700,
    "spot_type": "data_spot",
    "data_source": "osm"
  },
  {
    "name": "鳥居前",
    "name_en": "Toriimae",
    "lat": 34.692305,
    "lng": 135.696183,
    "category": "station",
    "prefecture": "osaka",
    "osm_id": 335847703,
    "spot_type": "data_spot",
    "data_source": "osm"
  },
  {
    "name": "河内森",
    "name_en": "Kawachimori",
    "lat": 34.7739292,
    "lng": 135.6854901,
    "category": "station",
    "prefecture": "osaka",
    "osm_id": 335848162,
    "spot_type": "data_spot",
    "data_source": "osm"
  },
  {
    "name": "宮之阪",
    "name_en": "Miyanosaka",
    "lat": 34.8136444,
    "lng": 135.6567114,
    "category": "station",
    "prefecture": "osaka",
    "osm_id": 335848164,
    "spot_type": "data_spot",
    "data_source": "osm"
  },
  {
    "name": "村野",
    "name_en": "Murano",
    "lat": 34.8017631,
    "lng": 135.6642105,
    "category": "station",
    "prefecture": "osaka",
    "osm_id": 335848170,
    "spot_type": "data_spot",
    "data_source": "osm"
  },
  {
    "name": "星ヶ丘",
    "name_en": "Hoshigaoka",
    "lat": 34.8074219,
    "lng": 135.6598814,
    "category": "station",
    "prefecture": "osaka",
    "osm_id": 335848171,
    "spot_type": "data_spot",
    "data_source": "osm"
  },
  {
    "name": "私市",
    "name_en": "Kisaichi",
    "lat": 34.7677187,
    "lng": 135.6866009,
    "category": "station",
    "prefecture": "osaka",
    "osm_id": 335848172,
    "spot_type": "data_spot",
    "data_source": "osm"
  },
  {
    "name": "交野市",
    "name_en": "Katanoshi",
    "lat": 34.7869965,
    "lng": 135.6755011,
    "category": "station",
    "prefecture": "osaka",
    "osm_id": 335848174,
    "spot_type": "data_spot",
    "data_source": "osm"
  },
  {
    "name": "郡津",
    "name_en": "Kozu",
    "lat": 34.7945375,
    "lng": 135.6697281,
    "category": "station",
    "prefecture": "osaka",
    "osm_id": 335848179,
    "spot_type": "data_spot",
    "data_source": "osm"
  },
  {
    "name": "三国",
    "name_en": "Mikuni",
    "lat": 34.7375647,
    "lng": 135.4829803,
    "category": "station",
    "prefecture": "osaka",
    "osm_id": 346120930,
    "spot_type": "data_spot",
    "data_source": "osm"
  },
  {
    "name": "中津",
    "name_en": "Nakatsu",
    "lat": 34.7099152,
    "lng": 135.4923765,
    "category": "station",
    "prefecture": "osaka",
    "osm_id": 346120988,
    "spot_type": "data_spot",
    "data_source": "osm"
  },
  {
    "name": "中山観音",
    "name_en": "Nakayama-kannon",
    "lat": 34.8196261,
    "lng": 135.3692889,
    "category": "station",
    "prefecture": "osaka",
    "osm_id": 346121695,
    "spot_type": "data_spot",
    "data_source": "osm"
  },
  {
    "name": "売布神社",
    "name_en": "Mefu-jinja",
    "lat": 34.8157929,
    "lng": 135.3613299,
    "category": "station",
    "prefecture": "osaka",
    "osm_id": 346121934,
    "spot_type": "data_spot",
    "data_source": "osm"
  },
  {
    "name": "山本",
    "name_en": "Yamamoto",
    "lat": 34.8220433,
    "lng": 135.3886222,
    "category": "station",
    "prefecture": "osaka",
    "osm_id": 346121951,
    "spot_type": "data_spot",
    "data_source": "osm"
  },
  {
    "name": "清荒神",
    "name_en": "Kiyoshikōjin",
    "lat": 34.811261,
    "lng": 135.353308,
    "category": "station",
    "prefecture": "osaka",
    "osm_id": 346122037,
    "spot_type": "data_spot",
    "data_source": "osm"
  },
  {
    "name": "雲雀丘花屋敷",
    "name_en": "Hibarigaoka-Hanayashiki",
    "lat": 34.8272086,
    "lng": 135.4027325,
    "category": "station",
    "prefecture": "osaka",
    "osm_id": 346122422,
    "spot_type": "data_spot",
    "data_source": "osm"
  },
  {
    "name": "神崎川",
    "name_en": "Kanzakigawa",
    "lat": 34.7323372,
    "lng": 135.4728791,
    "category": "station",
    "prefecture": "osaka",
    "osm_id": 346486546,
    "spot_type": "data_spot",
    "data_source": "osm"
  },
  {
    "name": "武庫之荘",
    "name_en": "Mukonoso",
    "lat": 34.7515492,
    "lng": 135.3933358,
    "category": "station",
    "prefecture": "osaka",
    "osm_id": 346486696,
    "spot_type": "data_spot",
    "data_source": "osm"
  },
  {
    "name": "園田",
    "name_en": "Sonoda",
    "lat": 34.7519904,
    "lng": 135.4480934,
    "category": "station",
    "prefecture": "osaka",
    "osm_id": 346486938,
    "spot_type": "data_spot",
    "data_source": "osm"
  },
  {
    "name": "塚口",
    "name_en": "Tsukaguchi",
    "lat": 34.7527774,
    "lng": 135.4159169,
    "category": "station",
    "prefecture": "osaka",
    "osm_id": 346487068,
    "spot_type": "data_spot",
    "data_source": "osm"
  },
  {
    "name": "千船",
    "name_en": "Chibune",
    "lat": 34.7123585,
    "lng": 135.4451972,
    "category": "station",
    "prefecture": "osaka",
    "osm_id": 346488947,
    "spot_type": "data_spot",
    "data_source": "osm"
  },
  {
    "name": "フェリーターミナル",
    "name_en": "Ferry Terminal",
    "lat": 34.6192484,
    "lng": 135.4349607,
    "category": "station",
    "prefecture": "osaka",
    "osm_id": 346493326,
    "spot_type": "data_spot",
    "data_source": "osm"
  },
  {
    "name": "南港東",
    "name_en": "Nanko-higashi",
    "lat": 34.6138233,
    "lng": 135.4386318,
    "category": "station",
    "prefecture": "osaka",
    "osm_id": 346493339,
    "spot_type": "data_spot",
    "data_source": "osm"
  },
  {
    "name": "南港口",
    "name_en": "Nanko-guchi",
    "lat": 34.6138165,
    "lng": 135.4459613,
    "category": "station",
    "prefecture": "osaka",
    "osm_id": 346493752,
    "spot_type": "data_spot",
    "data_source": "osm"
  },
  {
    "name": "中ふ頭",
    "name_en": "Nakafuto",
    "lat": 34.6340492,
    "lng": 135.41744,
    "category": "station",
    "prefecture": "osaka",
    "osm_id": 346493769,
    "spot_type": "data_spot",
    "data_source": "osm"
  },
  {
    "name": "平林",
    "name_en": "Hirabayashi",
    "lat": 34.6106653,
    "lng": 135.4586267,
    "category": "station",
    "prefecture": "osaka",
    "osm_id": 346493834,
    "spot_type": "data_spot",
    "data_source": "osm"
  },
  {
    "name": "ポートタウン西",
    "name_en": "Port Town-nishi",
    "lat": 34.6309045,
    "lng": 135.4228145,
    "category": "station",
    "prefecture": "osaka",
    "osm_id": 346494201,
    "spot_type": "data_spot",
    "data_source": "osm"
  },
  {
    "name": "和泉中央",
    "name_en": "Izumichuo",
    "lat": 34.4613227,
    "lng": 135.4562898,
    "category": "station",
    "prefecture": "osaka",
    "osm_id": 346586260,
    "spot_type": "data_spot",
    "data_source": "osm"
  },
  {
    "name": "中百舌鳥",
    "name_en": "Nakamozu",
    "lat": 34.556307,
    "lng": 135.504437,
    "category": "station",
    "prefecture": "osaka",
    "osm_id": 346586904,
    "spot_type": "data_spot",
    "data_source": "osm"
  },
  {
    "name": "栂・美木多",
    "name_en": "Toga-Mikita",
    "lat": 34.4850568,
    "lng": 135.4903546,
    "category": "station",
    "prefecture": "osaka",
    "osm_id": 346587051,
    "spot_type": "data_spot",
    "data_source": "osm"
  },
  {
    "name": "門戸厄神",
    "name_en": "Mondo-Yakujin",
    "lat": 34.7575817,
    "lng": 135.3582866,
    "category": "station",
    "prefecture": "osaka",
    "osm_id": 346648359,
    "spot_type": "data_spot",
    "data_source": "osm"
  },
  {
    "name": "小林",
    "name_en": "Obayashi",
    "lat": 34.7891636,
    "lng": 135.3524275,
    "category": "station",
    "prefecture": "osaka",
    "osm_id": 346648538,
    "spot_type": "data_spot",
    "data_source": "osm"
  },
  {
    "name": "宝塚南口",
    "name_en": "Takarazuka-Minamiguchi",
    "lat": 34.8041687,
    "lng": 135.3458387,
    "category": "station",
    "prefecture": "osaka",
    "osm_id": 346648675,
    "spot_type": "data_spot",
    "data_source": "osm"
  },
  {
    "name": "仁川",
    "name_en": "Nigawa",
    "lat": 34.7747939,
    "lng": 135.3569799,
    "category": "station",
    "prefecture": "osaka",
    "osm_id": 346649198,
    "spot_type": "data_spot",
    "data_source": "osm"
  },
  {
    "name": "大阪",
    "name_en": "Osaka",
    "lat": 34.7022133,
    "lng": 135.4955732,
    "category": "station",
    "prefecture": "osaka",
    "osm_id": 346685291,
    "spot_type": "data_spot",
    "data_source": "osm"
  },
  {
    "name": "森ノ宮",
    "name_en": "Morinomiya",
    "lat": 34.6804474,
    "lng": 135.5340047,
    "category": "station",
    "prefecture": "osaka",
    "osm_id": 346685316,
    "spot_type": "data_spot",
    "data_source": "osm"
  },
  {
    "name": "玉造",
    "name_en": "Tamatsukuri",
    "lat": 34.6732044,
    "lng": 135.5328575,
    "category": "station",
    "prefecture": "osaka",
    "osm_id": 346685329,
    "spot_type": "data_spot",
    "data_source": "osm"
  },
  {
    "name": "大阪城公園",
    "name_en": "Ōsakajōkōen",
    "lat": 34.6877568,
    "lng": 135.5344012,
    "category": "station",
    "prefecture": "osaka",
    "osm_id": 346685381,
    "spot_type": "data_spot",
    "data_source": "osm"
  },
  {
    "name": "福島",
    "name_en": "Fukushima",
    "lat": 34.6972584,
    "lng": 135.4868438,
    "category": "station",
    "prefecture": "osaka",
    "osm_id": 346685402,
    "spot_type": "data_spot",
    "data_source": "osm"
  },
  {
    "name": "出来島",
    "name_en": "Dekijima",
    "lat": 34.7070602,
    "lng": 135.4369699,
    "category": "station",
    "prefecture": "osaka",
    "osm_id": 347198109,
    "spot_type": "data_spot",
    "data_source": "osm"
  },
  {
    "name": "福",
    "name_en": "Fuku",
    "lat": 34.6996206,
    "lng": 135.4429972,
    "category": "station",
    "prefecture": "osaka",
    "osm_id": 347198124,
    "spot_type": "data_spot",
    "data_source": "osm"
  },
  {
    "name": "西九条",
    "name_en": "Nishikujo",
    "lat": 34.6822701,
    "lng": 135.4663099,
    "category": "station",
    "prefecture": "osaka",
    "osm_id": 347198154,
    "spot_type": "data_spot",
    "data_source": "osm"
  },
  {
    "name": "千鳥橋",
    "name_en": "Chidoribashi",
    "lat": 34.6854359,
    "lng": 135.4580076,
    "category": "station",
    "prefecture": "osaka",
    "osm_id": 347198160,
    "spot_type": "data_spot",
    "data_source": "osm"
  },
  {
    "name": "伝法",
    "name_en": "Dempō",
    "lat": 34.6890763,
    "lng": 135.4517764,
    "category": "station",
    "prefecture": "osaka",
    "osm_id": 347198162,
    "spot_type": "data_spot",
    "data_source": "osm"
  },
  {
    "name": "新神戸",
    "name_en": "Shin-Kobe",
    "lat": 34.7047051,
    "lng": 135.1956697,
    "category": "station",
    "prefecture": "osaka",
    "osm_id": 359798283,
    "spot_type": "data_spot",
    "data_source": "osm"
  },
  {
    "name": "深日町",
    "name_en": "Fukechō",
    "lat": 34.3183405,
    "lng": 135.1484127,
    "category": "station",
    "prefecture": "osaka",
    "osm_id": 360074315,
    "spot_type": "data_spot",
    "data_source": "osm"
  },
  {
    "name": "多奈川",
    "name_en": "Tanagawa",
    "lat": 34.3166828,
    "lng": 135.1371424,
    "category": "station",
    "prefecture": "osaka",
    "osm_id": 360074329,
    "spot_type": "data_spot",
    "data_source": "osm"
  },
  {
    "name": "深日港",
    "name_en": "Fukekō",
    "lat": 34.3174054,
    "lng": 135.1415627,
    "category": "station",
    "prefecture": "osaka",
    "osm_id": 360074336,
    "spot_type": "data_spot",
    "data_source": "osm"
  },
  {
    "name": "布忍",
    "name_en": "Nunose",
    "lat": 34.5772599,
    "lng": 135.5397123,
    "category": "station",
    "prefecture": "osaka",
    "osm_id": 413336882,
    "spot_type": "data_spot",
    "data_source": "osm"
  },
  {
    "name": "大阪阿部野橋",
    "name_en": "Ōsaka Abenobashi",
    "lat": 34.6454112,
    "lng": 135.5154211,
    "category": "station",
    "prefecture": "osaka",
    "osm_id": 413336883,
    "spot_type": "data_spot",
    "data_source": "osm"
  },
  {
    "name": "二上山",
    "name_en": "Nijōzan",
    "lat": 34.5388695,
    "lng": 135.6863241,
    "category": "station",
    "prefecture": "osaka",
    "osm_id": 413336888,
    "spot_type": "data_spot",
    "data_source": "osm"
  },
  {
    "name": "上ノ太子",
    "name_en": "Kaminotaishi",
    "lat": 34.5329667,
    "lng": 135.6377982,
    "category": "station",
    "prefecture": "osaka",
    "osm_id": 413337054,
    "spot_type": "data_spot",
    "data_source": "osm"
  },
  {
    "name": "二上神社口",
    "name_en": "Nijō-Jinjaguchi",
    "lat": 34.5318614,
    "lng": 135.6943402,
    "category": "station",
    "prefecture": "osaka",
    "osm_id": 413337680,
    "spot_type": "data_spot",
    "data_source": "osm"
  },
  {
    "name": "土師ノ里",
    "name_en": "Hajinosato",
    "lat": 34.5717703,
    "lng": 135.6150711,
    "category": "station",
    "prefecture": "osaka",
    "osm_id": 413337961,
    "spot_type": "data_spot",
    "data_source": "osm"
  },
  {
    "name": "駒ヶ谷",
    "name_en": "Komagatani",
    "lat": 34.5455729,
    "lng": 135.6221664,
    "category": "station",
    "prefecture": "osaka",
    "osm_id": 413338173,
    "spot_type": "data_spot",
    "data_source": "osm"
  },
  {
    "name": "石切劔箭神社（石切神社）上之宮",
    "name_en": "",
    "lat": 34.6819924,
    "lng": 135.6568265,
    "category": "shrine",
    "prefecture": "osaka",
    "osm_id": 426577169,
    "spot_type": "data_spot",
    "data_source": "osm"
  },
  {
    "name": "竹林寺",
    "name_en": "Chikurin-ji Temple",
    "lat": 34.6769964,
    "lng": 135.4798211,
    "category": "temple",
    "prefecture": "osaka",
    "osm_id": 432784303,
    "spot_type": "data_spot",
    "data_source": "osm"
  },
  {
    "name": "御霊神社",
    "name_en": "Goryo Shrine",
    "lat": 34.6703005,
    "lng": 135.4807706,
    "category": "shrine",
    "prefecture": "osaka",
    "osm_id": 441158627,
    "spot_type": "data_spot",
    "data_source": "osm"
  },
  {
    "name": "中公園",
    "name_en": "Naka Koen",
    "lat": 34.6733088,
    "lng": 135.2074848,
    "category": "station",
    "prefecture": "osaka",
    "osm_id": 443057009,
    "spot_type": "data_spot",
    "data_source": "osm"
  },
  {
    "name": "榎木大明神",
    "name_en": "",
    "lat": 34.6762411,
    "lng": 135.5140185,
    "category": "shrine",
    "prefecture": "osaka",
    "osm_id": 450637713,
    "spot_type": "data_spot",
    "data_source": "osm"
  },
  {
    "name": "五條宮",
    "name_en": "Gojogu Shrine",
    "lat": 34.6570768,
    "lng": 135.518608,
    "category": "shrine",
    "prefecture": "osaka",
    "osm_id": 457655926,
    "spot_type": "data_spot",
    "data_source": "osm"
  },
  {
    "name": "宗恩寺",
    "name_en": "Shuonji Temple",
    "lat": 34.6570022,
    "lng": 135.5167777,
    "category": "temple",
    "prefecture": "osaka",
    "osm_id": 458605338,
    "spot_type": "data_spot",
    "data_source": "osm"
  },
  {
    "name": "旧堺燈台",
    "name_en": "",
    "lat": 34.5834853,
    "lng": 135.458956,
    "category": "lighthouse",
    "prefecture": "osaka",
    "osm_id": 462138633,
    "spot_type": "data_spot",
    "data_source": "osm"
  },
  {
    "name": "八阪神社",
    "name_en": "Yasaka-jinja Shrine",
    "lat": 34.675427,
    "lng": 135.5380377,
    "category": "shrine",
    "prefecture": "osaka",
    "osm_id": 476114017,
    "spot_type": "data_spot",
    "data_source": "osm"
  },
  {
    "name": "八王子神社",
    "name_en": "Hachiōji Shrine",
    "lat": 34.6773013,
    "lng": 135.5396327,
    "category": "shrine",
    "prefecture": "osaka",
    "osm_id": 477074706,
    "spot_type": "data_spot",
    "data_source": "osm"
  },
  {
    "name": "良念寺 (Ryonen-ji Temple)",
    "name_en": "",
    "lat": 34.6691476,
    "lng": 135.5470117,
    "category": "temple",
    "prefecture": "osaka",
    "osm_id": 477078238,
    "spot_type": "data_spot",
    "data_source": "osm"
  },
  {
    "name": "新伊丹",
    "name_en": "Shinitami",
    "lat": 34.7726357,
    "lng": 135.4155927,
    "category": "station",
    "prefecture": "osaka",
    "osm_id": 516137301,
    "spot_type": "data_spot",
    "data_source": "osm"
  },
  {
    "name": "稲野",
    "name_en": "Inano",
    "lat": 34.7648674,
    "lng": 135.4156535,
    "category": "station",
    "prefecture": "osaka",
    "osm_id": 516137427,
    "spot_type": "data_spot",
    "data_source": "osm"
  },
  {
    "name": "甲陽園",
    "name_en": "Koyoen",
    "lat": 34.7608785,
    "lng": 135.3301337,
    "category": "station",
    "prefecture": "osaka",
    "osm_id": 516180759,
    "spot_type": "data_spot",
    "data_source": "osm"
  },
  {
    "name": "苦楽園口",
    "name_en": "Kurakuenguchi",
    "lat": 34.7502404,
    "lng": 135.3288957,
    "category": "station",
    "prefecture": "osaka",
    "osm_id": 516180817,
    "spot_type": "data_spot",
    "data_source": "osm"
  },
  {
    "name": "谷上",
    "name_en": "Tanigami",
    "lat": 34.7618497,
    "lng": 135.1713884,
    "category": "station",
    "prefecture": "osaka",
    "osm_id": 517815393,
    "spot_type": "data_spot",
    "data_source": "osm"
  },
  {
    "name": "花山",
    "name_en": "Hanayama",
    "lat": 34.7697058,
    "lng": 135.1872768,
    "category": "station",
    "prefecture": "osaka",
    "osm_id": 517816421,
    "spot_type": "data_spot",
    "data_source": "osm"
  },
  {
    "name": "大池",
    "name_en": "Ooike",
    "lat": 34.7810659,
    "lng": 135.198828,
    "category": "station",
    "prefecture": "osaka",
    "osm_id": 517817004,
    "spot_type": "data_spot",
    "data_source": "osm"
  },
  {
    "name": "神鉄六甲",
    "name_en": "Shintetsu-Rokko",
    "lat": 34.7854092,
    "lng": 135.2063002,
    "category": "station",
    "prefecture": "osaka",
    "osm_id": 517817365,
    "spot_type": "data_spot",
    "data_source": "osm"
  },
  {
    "name": "唐櫃台",
    "name_en": "Karatodai",
    "lat": 34.7903203,
    "lng": 135.2114797,
    "category": "station",
    "prefecture": "osaka",
    "osm_id": 517817650,
    "spot_type": "data_spot",
    "data_source": "osm"
  },
  {
    "name": "有馬温泉",
    "name_en": "Arima Onsen",
    "lat": 34.7992564,
    "lng": 135.2462748,
    "category": "station",
    "prefecture": "osaka",
    "osm_id": 517820275,
    "spot_type": "data_spot",
    "data_source": "osm"
  },
  {
    "name": "妙法寺",
    "name_en": "Myohoji",
    "lat": 34.675049,
    "lng": 135.1101441,
    "category": "station",
    "prefecture": "osaka",
    "osm_id": 519693912,
    "spot_type": "data_spot",
    "data_source": "osm"
  },
  {
    "name": "狸坂大明神",
    "name_en": "Tanukizaka-daimyojin Shrine",
    "lat": 34.678057,
    "lng": 135.5128388,
    "category": "shrine",
    "prefecture": "osaka",
    "osm_id": 529751239,
    "spot_type": "data_spot",
    "data_source": "osm"
  },
  {
    "name": "新大阪",
    "name_en": "Shin-Osaka",
    "lat": 34.7328955,
    "lng": 135.4985436,
    "category": "station",
    "prefecture": "osaka",
    "osm_id": 534123201,
    "spot_type": "data_spot",
    "data_source": "osm"
  },
  {
    "name": "江坂",
    "name_en": "Esaka",
    "lat": 34.7588662,
    "lng": 135.4970992,
    "category": "station",
    "prefecture": "osaka",
    "osm_id": 534123476,
    "spot_type": "data_spot",
    "data_source": "osm"
  },
  {
    "name": "少路",
    "name_en": "Shoji",
    "lat": 34.804265,
    "lng": 135.4754296,
    "category": "station",
    "prefecture": "osaka",
    "osm_id": 538729544,
    "spot_type": "data_spot",
    "data_source": "osm"
  },
  {
    "name": "御殿山神社",
    "name_en": "",
    "lat": 34.8297509,
    "lng": 135.6571684,
    "category": "shrine",
    "prefecture": "osaka",
    "osm_id": 664345770,
    "spot_type": "data_spot",
    "data_source": "osm"
  },
  {
    "name": "名称不明",
    "name_en": "",
    "lat": 34.3225433,
    "lng": 135.3767124,
    "category": "onsen",
    "prefecture": "osaka",
    "osm_id": 728270555,
    "spot_type": "data_spot",
    "data_source": "osm"
  },
  {
    "name": "松尾寺",
    "name_en": "Matsuo Temple",
    "lat": 34.6354256,
    "lng": 135.7272867,
    "category": "temple",
    "prefecture": "osaka",
    "osm_id": 730918166,
    "spot_type": "data_spot",
    "data_source": "osm"
  },
  {
    "name": "矢田寺 (Yata-dera)",
    "name_en": "",
    "lat": 34.6494922,
    "lng": 135.7364881,
    "category": "temple",
    "prefecture": "osaka",
    "osm_id": 762284223,
    "spot_type": "data_spot",
    "data_source": "osm"
  },
  {
    "name": "新開地",
    "name_en": "Shinkaichi",
    "lat": 34.6763214,
    "lng": 135.1699022,
    "category": "station",
    "prefecture": "osaka",
    "osm_id": 823218395,
    "spot_type": "data_spot",
    "data_source": "osm"
  },
  {
    "name": "鈴蘭台西口",
    "name_en": "Suzurandai Nishi-guchi",
    "lat": 34.7263275,
    "lng": 135.140439,
    "category": "station",
    "prefecture": "osaka",
    "osm_id": 823226628,
    "spot_type": "data_spot",
    "data_source": "osm"
  },
  {
    "name": "西鈴蘭台",
    "name_en": "Nishi Suzurandai",
    "lat": 34.7257569,
    "lng": 135.1354302,
    "category": "station",
    "prefecture": "osaka",
    "osm_id": 823235438,
    "spot_type": "data_spot",
    "data_source": "osm"
  },
  {
    "name": "園通寺",
    "name_en": "Entsuji Temple",
    "lat": 34.7157147,
    "lng": 135.2472401,
    "category": "temple",
    "prefecture": "osaka",
    "osm_id": 836036795,
    "spot_type": "data_spot",
    "data_source": "osm"
  },
  {
    "name": "徳井神社",
    "name_en": "Tokui-jinja Shrine",
    "lat": 34.7176259,
    "lng": 135.2437172,
    "category": "shrine",
    "prefecture": "osaka",
    "osm_id": 836036796,
    "spot_type": "data_spot",
    "data_source": "osm"
  },
  {
    "name": "光円寺",
    "name_en": "",
    "lat": 34.7143133,
    "lng": 135.235011,
    "category": "temple",
    "prefecture": "osaka",
    "osm_id": 841783542,
    "spot_type": "data_spot",
    "data_source": "osm"
  },
  {
    "name": "杭瀬温泉",
    "name_en": "",
    "lat": 34.717565,
    "lng": 135.4345561,
    "category": "onsen",
    "prefecture": "osaka",
    "osm_id": 941284848,
    "spot_type": "data_spot",
    "data_source": "osm"
  },
  {
    "name": "JR長瀬",
    "name_en": "JR-Nagase",
    "lat": 34.6497346,
    "lng": 135.570234,
    "category": "station",
    "prefecture": "osaka",
    "osm_id": 942638137,
    "spot_type": "data_spot",
    "data_source": "osm"
  },
  {
    "name": "新加美",
    "name_en": "Shin-Kami",
    "lat": 34.6269781,
    "lng": 135.5683836,
    "category": "station",
    "prefecture": "osaka",
    "osm_id": 942638193,
    "spot_type": "data_spot",
    "data_source": "osm"
  },
  {
    "name": "淡路",
    "name_en": "Awaji",
    "lat": 34.7392524,
    "lng": 135.5168901,
    "category": "station",
    "prefecture": "osaka",
    "osm_id": 968591168,
    "spot_type": "data_spot",
    "data_source": "osm"
  },
  {
    "name": "高瀬神社",
    "name_en": "Takase Shrine",
    "lat": 34.7293617,
    "lng": 135.5625537,
    "category": "shrine",
    "prefecture": "osaka",
    "osm_id": 1096545439,
    "spot_type": "data_spot",
    "data_source": "osm"
  },
  {
    "name": "守居神社",
    "name_en": "Morii Shrine",
    "lat": 34.7320714,
    "lng": 135.5589468,
    "category": "shrine",
    "prefecture": "osaka",
    "osm_id": 1096707835,
    "spot_type": "data_spot",
    "data_source": "osm"
  },
  {
    "name": "蹉跎神社",
    "name_en": "Sada Shrine",
    "lat": 34.7927414,
    "lng": 135.6330126,
    "category": "shrine",
    "prefecture": "osaka",
    "osm_id": 1104307723,
    "spot_type": "data_spot",
    "data_source": "osm"
  },
  {
    "name": "加茂神社",
    "name_en": "",
    "lat": 34.7653299,
    "lng": 135.6343336,
    "category": "shrine",
    "prefecture": "osaka",
    "osm_id": 1152359834,
    "spot_type": "data_spot",
    "data_source": "osm"
  },
  {
    "name": "清瀧天満宮",
    "name_en": "",
    "lat": 34.7382857,
    "lng": 135.6664972,
    "category": "shrine",
    "prefecture": "osaka",
    "osm_id": 1157335160,
    "spot_type": "data_spot",
    "data_source": "osm"
  },
  {
    "name": "高天彦神社",
    "name_en": "",
    "lat": 34.4181138,
    "lng": 135.6959341,
    "category": "shrine",
    "prefecture": "osaka",
    "osm_id": 1158659430,
    "spot_type": "data_spot",
    "data_source": "osm"
  },
  {
    "name": "高天寺橋本院",
    "name_en": "",
    "lat": 34.4222909,
    "lng": 135.701095,
    "category": "temple",
    "prefecture": "osaka",
    "osm_id": 1164675776,
    "spot_type": "data_spot",
    "data_source": "osm"
  },
  {
    "name": "菩提寺",
    "name_en": "",
    "lat": 34.4141948,
    "lng": 135.7002242,
    "category": "temple",
    "prefecture": "osaka",
    "osm_id": 1164675778,
    "spot_type": "data_spot",
    "data_source": "osm"
  },
  {
    "name": "吐田極楽寺",
    "name_en": "",
    "lat": 34.4227708,
    "lng": 135.7074637,
    "category": "temple",
    "prefecture": "osaka",
    "osm_id": 1164675779,
    "spot_type": "data_spot",
    "data_source": "osm"
  },
  {
    "name": "三徳山成正院",
    "name_en": "",
    "lat": 34.4108964,
    "lng": 135.7060751,
    "category": "temple",
    "prefecture": "osaka",
    "osm_id": 1164675780,
    "spot_type": "data_spot",
    "data_source": "osm"
  },
  {
    "name": "八幡神社",
    "name_en": "",
    "lat": 34.4132904,
    "lng": 135.7013522,
    "category": "shrine",
    "prefecture": "osaka",
    "osm_id": 1164675781,
    "spot_type": "data_spot",
    "data_source": "osm"
  },
  {
    "name": "極楽寺",
    "name_en": "",
    "lat": 34.4232537,
    "lng": 135.7078099,
    "category": "temple",
    "prefecture": "osaka",
    "osm_id": 1164675783,
    "spot_type": "data_spot",
    "data_source": "osm"
  },
  {
    "name": "葛城の道歴史文化館",
    "name_en": "",
    "lat": 34.4078479,
    "lng": 135.7071225,
    "category": "museum",
    "prefecture": "osaka",
    "osm_id": 1164679735,
    "spot_type": "data_spot",
    "data_source": "osm"
  },
  {
    "name": "東神社",
    "name_en": "",
    "lat": 34.4083657,
    "lng": 135.7080573,
    "category": "shrine",
    "prefecture": "osaka",
    "osm_id": 1164679741,
    "spot_type": "data_spot",
    "data_source": "osm"
  },
  {
    "name": "西神社",
    "name_en": "",
    "lat": 34.4087458,
    "lng": 135.7066285,
    "category": "shrine",
    "prefecture": "osaka",
    "osm_id": 1164679762,
    "spot_type": "data_spot",
    "data_source": "osm"
  },
  {
    "name": "高鴨神社",
    "name_en": "",
    "lat": 34.4083657,
    "lng": 135.7075966,
    "category": "shrine",
    "prefecture": "osaka",
    "osm_id": 1164679767,
    "spot_type": "data_spot",
    "data_source": "osm"
  },
  {
    "name": "高安山",
    "name_en": "Takayasuyama",
    "lat": 34.6138719,
    "lng": 135.653756,
    "category": "station",
    "prefecture": "osaka",
    "osm_id": 1166134546,
    "spot_type": "data_spot",
    "data_source": "osm"
  },
  {
    "name": "名称不明",
    "name_en": "",
    "lat": 34.6074651,
    "lng": 135.6714695,
    "category": "shrine",
    "prefecture": "osaka",
    "osm_id": 1210923520,
    "spot_type": "data_spot",
    "data_source": "osm"
  },
  {
    "name": "名称不明",
    "name_en": "",
    "lat": 34.6062647,
    "lng": 135.6734898,
    "category": "shrine",
    "prefecture": "osaka",
    "osm_id": 1210923950,
    "spot_type": "data_spot",
    "data_source": "osm"
  },
  {
    "name": "斑鳩神社 (Ikaruga Shrine)",
    "name_en": "Ikaruga Shrine",
    "lat": 34.6178197,
    "lng": 135.7369932,
    "category": "shrine",
    "prefecture": "osaka",
    "osm_id": 1212075249,
    "spot_type": "data_spot",
    "data_source": "osm"
  },
  {
    "name": "名称不明",
    "name_en": "",
    "lat": 34.6081002,
    "lng": 135.72497,
    "category": "shrine",
    "prefecture": "osaka",
    "osm_id": 1212075558,
    "spot_type": "data_spot",
    "data_source": "osm"
  },
  {
    "name": "阪南港阪南二区南防波堤灯台",
    "name_en": "",
    "lat": 34.4711964,
    "lng": 135.3456268,
    "category": "lighthouse",
    "prefecture": "osaka",
    "osm_id": 1223938610,
    "spot_type": "data_spot",
    "data_source": "osm"
  },
  {
    "name": "堺浜寺北防波堤灯台",
    "name_en": "",
    "lat": 34.5579594,
    "lng": 135.4093673,
    "category": "lighthouse",
    "prefecture": "osaka",
    "osm_id": 1223938622,
    "spot_type": "data_spot",
    "data_source": "osm"
  },
  {
    "name": "堺浜寺南防波堤灯台",
    "name_en": "",
    "lat": 34.554968,
    "lng": 135.4093563,
    "category": "lighthouse",
    "prefecture": "osaka",
    "osm_id": 1223938624,
    "spot_type": "data_spot",
    "data_source": "osm"
  },
  {
    "name": "大阪港大和川南防波堤南灯台",
    "name_en": "",
    "lat": 34.5956103,
    "lng": 135.3964782,
    "category": "lighthouse",
    "prefecture": "osaka",
    "osm_id": 1223938627,
    "spot_type": "data_spot",
    "data_source": "osm"
  },
  {
    "name": "大阪港大和川南防波堤北灯台",
    "name_en": "",
    "lat": 34.6050954,
    "lng": 135.388007,
    "category": "lighthouse",
    "prefecture": "osaka",
    "osm_id": 1223938628,
    "spot_type": "data_spot",
    "data_source": "osm"
  },
  {
    "name": "大阪港大和川北防波堤灯台",
    "name_en": "",
    "lat": 34.6108127,
    "lng": 135.4012892,
    "category": "lighthouse",
    "prefecture": "osaka",
    "osm_id": 1223938629,
    "spot_type": "data_spot",
    "data_source": "osm"
  },
  {
    "name": "大阪南港沖防波堤灯台",
    "name_en": "",
    "lat": 34.6108263,
    "lng": 135.4206257,
    "category": "lighthouse",
    "prefecture": "osaka",
    "osm_id": 1223938630,
    "spot_type": "data_spot",
    "data_source": "osm"
  },
  {
    "name": "名称不明",
    "name_en": "",
    "lat": 34.6286843,
    "lng": 135.3965748,
    "category": "lighthouse",
    "prefecture": "osaka",
    "osm_id": 1223938632,
    "spot_type": "data_spot",
    "data_source": "osm"
  },
  {
    "name": "名称不明",
    "name_en": "",
    "lat": 34.6283418,
    "lng": 135.3895583,
    "category": "lighthouse",
    "prefecture": "osaka",
    "osm_id": 1223938633,
    "spot_type": "data_spot",
    "data_source": "osm"
  },
  {
    "name": "大関酒造今津灯台",
    "name_en": "Ōzeki Syuzou Imazu Lighthouse",
    "lat": 34.7196777,
    "lng": 135.3450822,
    "category": "lighthouse",
    "prefecture": "osaka",
    "osm_id": 1223938642,
    "spot_type": "data_spot",
    "data_source": "osm"
  },
  {
    "name": "神戸メリケンパークオリエンタルホテル灯台",
    "name_en": "",
    "lat": 34.6797416,
    "lng": 135.1886615,
    "category": "lighthouse",
    "prefecture": "osaka",
    "osm_id": 1223938643,
    "spot_type": "data_spot",
    "data_source": "osm"
  },
  {
    "name": "名称不明",
    "name_en": "",
    "lat": 34.6706475,
    "lng": 135.2453016,
    "category": "lighthouse",
    "prefecture": "osaka",
    "osm_id": 1223938648,
    "spot_type": "data_spot",
    "data_source": "osm"
  },
  {
    "name": "名称不明",
    "name_en": "",
    "lat": 34.6688267,
    "lng": 135.2539152,
    "category": "lighthouse",
    "prefecture": "osaka",
    "osm_id": 1223938650,
    "spot_type": "data_spot",
    "data_source": "osm"
  },
  {
    "name": "名称不明",
    "name_en": "",
    "lat": 34.6762224,
    "lng": 135.2958859,
    "category": "lighthouse",
    "prefecture": "osaka",
    "osm_id": 1223938651,
    "spot_type": "data_spot",
    "data_source": "osm"
  },
  {
    "name": "名称不明",
    "name_en": "",
    "lat": 34.6777644,
    "lng": 135.3133736,
    "category": "lighthouse",
    "prefecture": "osaka",
    "osm_id": 1223938652,
    "spot_type": "data_spot",
    "data_source": "osm"
  },
  {
    "name": "名称不明",
    "name_en": "",
    "lat": 34.6562652,
    "lng": 135.2042995,
    "category": "lighthouse",
    "prefecture": "osaka",
    "osm_id": 1223938658,
    "spot_type": "data_spot",
    "data_source": "osm"
  },
  {
    "name": "名称不明",
    "name_en": "",
    "lat": 34.6515106,
    "lng": 135.2043789,
    "category": "lighthouse",
    "prefecture": "osaka",
    "osm_id": 1223938659,
    "spot_type": "data_spot",
    "data_source": "osm"
  },
  {
    "name": "名称不明",
    "name_en": "",
    "lat": 34.6527176,
    "lng": 135.187541,
    "category": "lighthouse",
    "prefecture": "osaka",
    "osm_id": 1223938663,
    "spot_type": "data_spot",
    "data_source": "osm"
  },
  {
    "name": "名称不明",
    "name_en": "",
    "lat": 34.6455916,
    "lng": 135.1507982,
    "category": "lighthouse",
    "prefecture": "osaka",
    "osm_id": 1223938667,
    "spot_type": "data_spot",
    "data_source": "osm"
  },
  {
    "name": "八尾市立歴史民俗資料館",
    "name_en": "",
    "lat": 34.63143,
    "lng": 135.641568,
    "category": "museum",
    "prefecture": "osaka",
    "osm_id": 1422984953,
    "spot_type": "data_spot",
    "data_source": "osm"
  },
  {
    "name": "千早赤阪村郷土資料館",
    "name_en": "",
    "lat": 34.463566,
    "lng": 135.625395,
    "category": "museum",
    "prefecture": "osaka",
    "osm_id": 1422985375,
    "spot_type": "data_spot",
    "data_source": "osm"
  },
  {
    "name": "司馬遼太郎記念館",
    "name_en": "Shiba Ryotaro memorial museum",
    "lat": 34.660438,
    "lng": 135.586191,
    "category": "museum",
    "prefecture": "osaka",
    "osm_id": 1422985794,
    "spot_type": "data_spot",
    "data_source": "osm"
  },
  {
    "name": "和泉市久保惣記念美術館",
    "name_en": "",
    "lat": 34.445059,
    "lng": 135.453338,
    "category": "museum",
    "prefecture": "osaka",
    "osm_id": 1422985998,
    "spot_type": "data_spot",
    "data_source": "osm"
  },
  {
    "name": "四條畷市立歴史民俗資料館",
    "name_en": "",
    "lat": 34.736805,
    "lng": 135.641434,
    "category": "museum",
    "prefecture": "osaka",
    "osm_id": 1422986226,
    "spot_type": "data_spot",
    "data_source": "osm"
  },
  {
    "name": "西法寺",
    "name_en": "",
    "lat": 34.769189,
    "lng": 135.475413,
    "category": "temple",
    "prefecture": "osaka",
    "osm_id": 1422986828,
    "spot_type": "data_spot",
    "data_source": "osm"
  },
  {
    "name": "光徳寺",
    "name_en": "",
    "lat": 34.587406,
    "lng": 135.666372,
    "category": "temple",
    "prefecture": "osaka",
    "osm_id": 1422987272,
    "spot_type": "data_spot",
    "data_source": "osm"
  },
  {
    "name": "堺市立みはら歴史博物館",
    "name_en": "",
    "lat": 34.548011,
    "lng": 135.559888,
    "category": "museum",
    "prefecture": "osaka",
    "osm_id": 1422987781,
    "spot_type": "data_spot",
    "data_source": "osm"
  },
  {
    "name": "堺市立平和と人権資料館（フェニックス・ミュージアム）",
    "name_en": "",
    "lat": 34.5342342,
    "lng": 135.4912845,
    "category": "museum",
    "prefecture": "osaka",
    "osm_id": 1422987805,
    "spot_type": "data_spot",
    "data_source": "osm"
  },
  {
    "name": "大東市立歴史民俗資料館",
    "name_en": "",
    "lat": 34.703536,
    "lng": 135.623866,
    "category": "museum",
    "prefecture": "osaka",
    "osm_id": 1422988001,
    "spot_type": "data_spot",
    "data_source": "osm"
  },
  {
    "name": "大阪大谷大学博物館",
    "name_en": "",
    "lat": 34.4811635,
    "lng": 135.5805203,
    "category": "museum",
    "prefecture": "osaka",
    "osm_id": 1422988084,
    "spot_type": "data_spot",
    "data_source": "osm"
  },
  {
    "name": "大阪商業大学商業史博物館",
    "name_en": "",
    "lat": 34.666829,
    "lng": 135.585498,
    "category": "museum",
    "prefecture": "osaka",
    "osm_id": 1422988631,
    "spot_type": "data_spot",
    "data_source": "osm"
  },
  {
    "name": "大阪市下水道科学館",
    "name_en": "Osaka City Sewerage Science Museum",
    "lat": 34.693465,
    "lng": 135.462465,
    "category": "museum",
    "prefecture": "osaka",
    "osm_id": 1422989271,
    "spot_type": "data_spot",
    "data_source": "osm"
  },
  {
    "name": "大阪府立 上方演芸資料館",
    "name_en": "Osaka Prefectural Museum of Kamigata Comedy and Performing Arts",
    "lat": 34.6646523,
    "lng": 135.5031573,
    "category": "museum",
    "prefecture": "osaka",
    "osm_id": 1422990011,
    "spot_type": "data_spot",
    "data_source": "osm"
  },
  {
    "name": "大阪府立現代美術センター",
    "name_en": "Osaka Contemporary Art Center",
    "lat": 34.6839942,
    "lng": 135.5180899,
    "category": "museum",
    "prefecture": "osaka",
    "osm_id": 1422990204,
    "spot_type": "data_spot",
    "data_source": "osm"
  },
  {
    "name": "大阪府立近つ飛鳥博物館",
    "name_en": "",
    "lat": 34.5031105,
    "lng": 135.6436125,
    "category": "museum",
    "prefecture": "osaka",
    "osm_id": 1422990415,
    "spot_type": "data_spot",
    "data_source": "osm"
  },
  {
    "name": "大阪狭山市立郷土資料館",
    "name_en": "",
    "lat": 34.497848,
    "lng": 135.543393,
    "category": "museum",
    "prefecture": "osaka",
    "osm_id": 1422990934,
    "spot_type": "data_spot",
    "data_source": "osm"
  },
  {
    "name": "KEIDAIギャラリー",
    "name_en": "",
    "lat": 34.7474436,
    "lng": 135.5417005,
    "category": "museum",
    "prefecture": "osaka",
    "osm_id": 1422991063,
    "spot_type": "data_spot",
    "data_source": "osm"
  },
  {
    "name": "大阪芸術大学博物館",
    "name_en": "",
    "lat": 34.511825,
    "lng": 135.630903,
    "category": "museum",
    "prefecture": "osaka",
    "osm_id": 1422991118,
    "spot_type": "data_spot",
    "data_source": "osm"
  },
  {
    "name": "天門美術館",
    "name_en": "",
    "lat": 34.805706,
    "lng": 135.652447,
    "category": "museum",
    "prefecture": "osaka",
    "osm_id": 1422991656,
    "spot_type": "data_spot",
    "data_source": "osm"
  },
  {
    "name": "太子町立竹内街道歴史資料館",
    "name_en": "",
    "lat": 34.51711,
    "lng": 135.656856,
    "category": "museum",
    "prefecture": "osaka",
    "osm_id": 1422991695,
    "spot_type": "data_spot",
    "data_source": "osm"
  },
  {
    "name": "奥内陶芸美術館",
    "name_en": "",
    "lat": 34.780465,
    "lng": 135.456914,
    "category": "museum",
    "prefecture": "osaka",
    "osm_id": 1422991771,
    "spot_type": "data_spot",
    "data_source": "osm"
  },
  {
    "name": "めぐみ記念館",
    "name_en": "",
    "lat": 34.776913,
    "lng": 135.631121,
    "category": "temple",
    "prefecture": "osaka",
    "osm_id": 1422992655,
    "spot_type": "data_spot",
    "data_source": "osm"
  },
  {
    "name": "小谷城郷土館",
    "name_en": "",
    "lat": 34.493228,
    "lng": 135.498417,
    "category": "museum",
    "prefecture": "osaka",
    "osm_id": 1422993108,
    "spot_type": "data_spot",
    "data_source": "osm"
  },
  {
    "name": "岸和田市立郷土資料館",
    "name_en": "",
    "lat": 34.4590822,
    "lng": 135.3700499,
    "category": "museum",
    "prefecture": "osaka",
    "osm_id": 1422993568,
    "spot_type": "data_spot",
    "data_source": "osm"
  },
  {
    "name": "柏原市立歴史資料館",
    "name_en": "",
    "lat": 34.57325,
    "lng": 135.638892,
    "category": "museum",
    "prefecture": "osaka",
    "osm_id": 1423004149,
    "spot_type": "data_spot",
    "data_source": "osm"
  },
  {
    "name": "池田市立歴史民俗資料館",
    "name_en": "",
    "lat": 34.8233919,
    "lng": 135.4358688,
    "category": "museum",
    "prefecture": "osaka",
    "osm_id": 1423005195,
    "spot_type": "data_spot",
    "data_source": "osm"
  },
  {
    "name": "滝畑ふるさと文化財の森センター",
    "name_en": "Takihata Museum of Ethnology and Culture",
    "lat": 34.387519,
    "lng": 135.526207,
    "category": "museum",
    "prefecture": "osaka",
    "osm_id": 1423005275,
    "spot_type": "data_spot",
    "data_source": "osm"
  },
  {
    "name": "泉大津市立織編館",
    "name_en": "",
    "lat": 34.5014224,
    "lng": 135.4084131,
    "category": "museum",
    "prefecture": "osaka",
    "osm_id": 1423005655,
    "spot_type": "data_spot",
    "data_source": "osm"
  },
  {
    "name": "湯木美術館",
    "name_en": "",
    "lat": 34.6875435,
    "lng": 135.5022517,
    "category": "museum",
    "prefecture": "osaka",
    "osm_id": 1423006333,
    "spot_type": "data_spot",
    "data_source": "osm"
  },
  {
    "name": "富士正晴記念館",
    "name_en": "",
    "lat": 34.827117,
    "lng": 135.565533,
    "category": "museum",
    "prefecture": "osaka",
    "osm_id": 1423012075,
    "spot_type": "data_spot",
    "data_source": "osm"
  },
  {
    "name": "茨木市立川端康成文学館",
    "name_en": "",
    "lat": 34.8233348,
    "lng": 135.570851,
    "category": "museum",
    "prefecture": "osaka",
    "osm_id": 1423012116,
    "spot_type": "data_spot",
    "data_source": "osm"
  },
  {
    "name": "唯佛寺",
    "name_en": "",
    "lat": 34.743803,
    "lng": 135.481163,
    "category": "temple",
    "prefecture": "osaka",
    "osm_id": 1423015601,
    "spot_type": "data_spot",
    "data_source": "osm"
  },
  {
    "name": "造幣博物館",
    "name_en": "Mint Museum",
    "lat": 34.6958942,
    "lng": 135.5216842,
    "category": "museum",
    "prefecture": "osaka",
    "osm_id": 1423016951,
    "spot_type": "data_spot",
    "data_source": "osm"
  },
  {
    "name": "鴻池新田会所",
    "name_en": "",
    "lat": 34.69827,
    "lng": 135.599815,
    "category": "museum",
    "prefecture": "osaka",
    "osm_id": 1423018611,
    "spot_type": "data_spot",
    "data_source": "osm"
  },
  {
    "name": "伊丹市昆虫館",
    "name_en": "",
    "lat": 34.7913093,
    "lng": 135.3949205,
    "category": "museum",
    "prefecture": "osaka",
    "osm_id": 1423052008,
    "spot_type": "data_spot",
    "data_source": "osm"
  },
  {
    "name": "俵美術館",
    "name_en": "Tawara Museum",
    "lat": 34.734912,
    "lng": 135.30054,
    "category": "museum",
    "prefecture": "osaka",
    "osm_id": 1423053101,
    "spot_type": "data_spot",
    "data_source": "osm"
  },
  {
    "name": "切手文化博物館",
    "name_en": "",
    "lat": 34.7987857,
    "lng": 135.2511122,
    "category": "museum",
    "prefecture": "osaka",
    "osm_id": 1423054556,
    "spot_type": "data_spot",
    "data_source": "osm"
  },
  {
    "name": "世界の貯金箱博物館",
    "name_en": "",
    "lat": 34.7162548,
    "lng": 135.4134125,
    "category": "museum",
    "prefecture": "osaka",
    "osm_id": 1423061021,
    "spot_type": "data_spot",
    "data_source": "osm"
  },
  {
    "name": "尼崎市立田能資料館",
    "name_en": "",
    "lat": 34.770041,
    "lng": 135.439906,
    "category": "museum",
    "prefecture": "osaka",
    "osm_id": 1423061454,
    "spot_type": "data_spot",
    "data_source": "osm"
  },
  {
    "name": "岩出市民俗資料館",
    "name_en": "",
    "lat": 34.2858141,
    "lng": 135.3177638,
    "category": "museum",
    "prefecture": "osaka",
    "osm_id": 1423061736,
    "spot_type": "data_spot",
    "data_source": "osm"
  },
  {
    "name": "市立五條文化博物館",
    "name_en": "",
    "lat": 34.379541,
    "lng": 135.685291,
    "category": "museum",
    "prefecture": "osaka",
    "osm_id": 1423062585,
    "spot_type": "data_spot",
    "data_source": "osm"
  },
  {
    "name": "帝塚山大学 附属博物館",
    "name_en": "",
    "lat": 34.6860913,
    "lng": 135.7239175,
    "category": "museum",
    "prefecture": "osaka",
    "osm_id": 1423067189,
    "spot_type": "data_spot",
    "data_source": "osm"
  },
  {
    "name": "法隆寺大宝蔵殿",
    "name_en": "",
    "lat": 34.6142238,
    "lng": 135.7362736,
    "category": "museum",
    "prefecture": "osaka",
    "osm_id": 1423070980,
    "spot_type": "data_spot",
    "data_source": "osm"
  },
  {
    "name": "湊川神社宝物殿",
    "name_en": "Treasure House",
    "lat": 34.6806894,
    "lng": 135.1758913,
    "category": "shrine",
    "prefecture": "osaka",
    "osm_id": 1423072783,
    "spot_type": "data_spot",
    "data_source": "osm"
  },
  {
    "name": "當麻寺奥院宝物館",
    "name_en": "",
    "lat": 34.5163523,
    "lng": 135.693899,
    "category": "museum",
    "prefecture": "osaka",
    "osm_id": 1423077165,
    "spot_type": "data_spot",
    "data_source": "osm"
  },
  {
    "name": "百耕資料館",
    "name_en": "",
    "lat": 34.6617273,
    "lng": 135.1300047,
    "category": "museum",
    "prefecture": "osaka",
    "osm_id": 1423077236,
    "spot_type": "data_spot",
    "data_source": "osm"
  },
  {
    "name": "神戸らんぷミュージフム",
    "name_en": "Kobe Lamp Museum",
    "lat": 34.688221,
    "lng": 135.194129,
    "category": "museum",
    "prefecture": "osaka",
    "osm_id": 1423079195,
    "spot_type": "data_spot",
    "data_source": "osm"
  },
  {
    "name": "神戸ファッション美術館",
    "name_en": "Kobe Fashion Museum",
    "lat": 34.6878923,
    "lng": 135.2703325,
    "category": "museum",
    "prefecture": "osaka",
    "osm_id": 1423079203,
    "spot_type": "data_spot",
    "data_source": "osm"
  },
  {
    "name": "神戸海洋博物館",
    "name_en": "Kobe Maritime Museum",
    "lat": 34.6829503,
    "lng": 135.1884501,
    "category": "museum",
    "prefecture": "osaka",
    "osm_id": 1423083509,
    "spot_type": "data_spot",
    "data_source": "osm"
  },
  {
    "name": "神戸深江生活文化史料館",
    "name_en": "",
    "lat": 34.7224543,
    "lng": 135.2926241,
    "category": "museum",
    "prefecture": "osaka",
    "osm_id": 1423083530,
    "spot_type": "data_spot",
    "data_source": "osm"
  },
  {
    "name": "神戸華僑歴史博物館",
    "name_en": "Kobe Overseas Chinese History Museum",
    "lat": 34.685991,
    "lng": 135.187165,
    "category": "museum",
    "prefecture": "osaka",
    "osm_id": 1423083974,
    "spot_type": "data_spot",
    "data_source": "osm"
  },
  {
    "name": "葛城市歴史博物館",
    "name_en": "",
    "lat": 34.477121,
    "lng": 135.730955,
    "category": "museum",
    "prefecture": "osaka",
    "osm_id": 1423090555,
    "spot_type": "data_spot",
    "data_source": "osm"
  },
  {
    "name": "葛城市相撲館「けはや座」",
    "name_en": "Sumo Wrestling Museum",
    "lat": 34.515611,
    "lng": 135.703187,
    "category": "museum",
    "prefecture": "osaka",
    "osm_id": 1423090558,
    "spot_type": "data_spot",
    "data_source": "osm"
  },
  {
    "name": "西宮市立郷土資料館",
    "name_en": "",
    "lat": 34.7308754,
    "lng": 135.3301468,
    "category": "museum",
    "prefecture": "osaka",
    "osm_id": 1423090865,
    "spot_type": "data_spot",
    "data_source": "osm"
  },
  {
    "name": "西宮市貝類館",
    "name_en": "Shell Museum",
    "lat": 34.7120316,
    "lng": 135.3279793,
    "category": "museum",
    "prefecture": "osaka",
    "osm_id": 1423090893,
    "spot_type": "data_spot",
    "data_source": "osm"
  },
  {
    "name": "鉄斎美術館",
    "name_en": "Tessai Museum",
    "lat": 34.8227501,
    "lng": 135.3532603,
    "category": "museum",
    "prefecture": "osaka",
    "osm_id": 1423092608,
    "spot_type": "data_spot",
    "data_source": "osm"
  },
  {
    "name": "須磨寺宝物殿",
    "name_en": "Sumadera Temple Treasure House",
    "lat": 34.648893,
    "lng": 135.111636,
    "category": "museum",
    "prefecture": "osaka",
    "osm_id": 1423093071,
    "spot_type": "data_spot",
    "data_source": "osm"
  },
  {
    "name": "香芝市二上山博物館",
    "name_en": "",
    "lat": 34.542716,
    "lng": 135.699397,
    "category": "museum",
    "prefecture": "osaka",
    "osm_id": 1423093573,
    "spot_type": "data_spot",
    "data_source": "osm"
  },
  {
    "name": "みなとじま",
    "name_en": "Minatojima (Campus Mae)",
    "lat": 34.6689656,
    "lng": 135.2101149,
    "category": "station",
    "prefecture": "osaka",
    "osm_id": 1424100626,
    "spot_type": "data_spot",
    "data_source": "osm"
  },
  {
    "name": "根聖院",
    "name_en": "Konshō-in",
    "lat": 34.6877089,
    "lng": 135.7391474,
    "category": "temple",
    "prefecture": "osaka",
    "osm_id": 1497275203,
    "spot_type": "data_spot",
    "data_source": "osm"
  },
  {
    "name": "添御県坐 神社",
    "name_en": "Sounomiagataniimasu Shrine",
    "lat": 34.6875457,
    "lng": 135.7394746,
    "category": "shrine",
    "prefecture": "osaka",
    "osm_id": 1497275221,
    "spot_type": "data_spot",
    "data_source": "osm"
  },
  {
    "name": "多聞院",
    "name_en": "Tamon-in",
    "lat": 34.6908595,
    "lng": 135.738184,
    "category": "temple",
    "prefecture": "osaka",
    "osm_id": 1497288311,
    "spot_type": "data_spot",
    "data_source": "osm"
  },
  {
    "name": "法融寺",
    "name_en": "Hōyū temple",
    "lat": 34.7046908,
    "lng": 135.7343884,
    "category": "temple",
    "prefecture": "osaka",
    "osm_id": 1497921118,
    "spot_type": "data_spot",
    "data_source": "osm"
  },
  {
    "name": "諦崇禅寺",
    "name_en": "",
    "lat": 34.6909097,
    "lng": 135.7226618,
    "category": "temple",
    "prefecture": "osaka",
    "osm_id": 1501034841,
    "spot_type": "data_spot",
    "data_source": "osm"
  },
  {
    "name": "八劔神社",
    "name_en": "",
    "lat": 34.6912683,
    "lng": 135.5496145,
    "category": "shrine",
    "prefecture": "osaka",
    "osm_id": 1635172574,
    "spot_type": "data_spot",
    "data_source": "osm"
  },
  {
    "name": "髙尾大明神",
    "name_en": "Takao Daimyojin",
    "lat": 34.7275416,
    "lng": 135.2106702,
    "category": "shrine",
    "prefecture": "osaka",
    "osm_id": 1704494461,
    "spot_type": "data_spot",
    "data_source": "osm"
  },
  {
    "name": "勝福寺",
    "name_en": "",
    "lat": 34.7032789,
    "lng": 135.6058426,
    "category": "temple",
    "prefecture": "osaka",
    "osm_id": 1716390524,
    "spot_type": "data_spot",
    "data_source": "osm"
  },
  {
    "name": "妙法寺",
    "name_en": "",
    "lat": 34.6689824,
    "lng": 135.5482171,
    "category": "temple",
    "prefecture": "osaka",
    "osm_id": 1720544278,
    "spot_type": "data_spot",
    "data_source": "osm"
  },
  {
    "name": "林覚寺",
    "name_en": "",
    "lat": 34.6198369,
    "lng": 135.5356216,
    "category": "temple",
    "prefecture": "osaka",
    "osm_id": 1724836544,
    "spot_type": "data_spot",
    "data_source": "osm"
  },
  {
    "name": "平野",
    "name_en": "",
    "lat": 34.6309179,
    "lng": 135.5517451,
    "category": "station",
    "prefecture": "osaka",
    "osm_id": 1727925081,
    "spot_type": "data_spot",
    "data_source": "osm"
  },
  {
    "name": "佛照寺",
    "name_en": "",
    "lat": 34.710404,
    "lng": 135.509408,
    "category": "temple",
    "prefecture": "osaka",
    "osm_id": 1734750927,
    "spot_type": "data_spot",
    "data_source": "osm"
  },
  {
    "name": "梅翁寺",
    "name_en": "",
    "lat": 34.6750307,
    "lng": 135.4672445,
    "category": "temple",
    "prefecture": "osaka",
    "osm_id": 1734845946,
    "spot_type": "data_spot",
    "data_source": "osm"
  },
  {
    "name": "光照山正祐寺",
    "name_en": "",
    "lat": 34.6621944,
    "lng": 135.5190267,
    "category": "temple",
    "prefecture": "osaka",
    "osm_id": 1829544513,
    "spot_type": "data_spot",
    "data_source": "osm"
  },
  {
    "name": "来迎寺",
    "name_en": "",
    "lat": 34.6601693,
    "lng": 135.5188064,
    "category": "temple",
    "prefecture": "osaka",
    "osm_id": 1830282695,
    "spot_type": "data_spot",
    "data_source": "osm"
  },
  {
    "name": "名称不明",
    "name_en": "",
    "lat": 34.6206956,
    "lng": 135.5249269,
    "category": "temple",
    "prefecture": "osaka",
    "osm_id": 1831848369,
    "spot_type": "data_spot",
    "data_source": "osm"
  },
  {
    "name": "宗林寺",
    "name_en": "",
    "lat": 34.6606019,
    "lng": 135.518779,
    "category": "temple",
    "prefecture": "osaka",
    "osm_id": 1865205526,
    "spot_type": "data_spot",
    "data_source": "osm"
  },
  {
    "name": "神戸映画資料館",
    "name_en": "Kobe Planet Film Archive",
    "lat": 34.6543635,
    "lng": 135.1463454,
    "category": "museum",
    "prefecture": "osaka",
    "osm_id": 1911040322,
    "spot_type": "data_spot",
    "data_source": "osm"
  },
  {
    "name": "KOBE鉄人三国志ギャラリー",
    "name_en": "Kobe Iron Man Three Kingdoms Gallery",
    "lat": 34.6521395,
    "lng": 135.1477951,
    "category": "museum",
    "prefecture": "osaka",
    "osm_id": 1911041550,
    "spot_type": "data_spot",
    "data_source": "osm"
  },
  {
    "name": "安楽寺",
    "name_en": "",
    "lat": 34.5289646,
    "lng": 135.6008229,
    "category": "temple",
    "prefecture": "osaka",
    "osm_id": 1916535828,
    "spot_type": "data_spot",
    "data_source": "osm"
  },
  {
    "name": "山本八幡宮",
    "name_en": "",
    "lat": 34.6284944,
    "lng": 135.6198033,
    "category": "shrine",
    "prefecture": "osaka",
    "osm_id": 1937603386,
    "spot_type": "data_spot",
    "data_source": "osm"
  },
  {
    "name": "極楽寺",
    "name_en": "",
    "lat": 34.5241726,
    "lng": 135.6133078,
    "category": "temple",
    "prefecture": "osaka",
    "osm_id": 1986293889,
    "spot_type": "data_spot",
    "data_source": "osm"
  },
  {
    "name": "南通寺",
    "name_en": "",
    "lat": 34.6282373,
    "lng": 135.6783525,
    "category": "temple",
    "prefecture": "osaka",
    "osm_id": 2018047180,
    "spot_type": "data_spot",
    "data_source": "osm"
  },
  {
    "name": "長弓寺",
    "name_en": "Chōkyū temple",
    "lat": 34.7185634,
    "lng": 135.7273021,
    "category": "temple",
    "prefecture": "osaka",
    "osm_id": 2021222109,
    "spot_type": "data_spot",
    "data_source": "osm"
  },
  {
    "name": "杵築神社",
    "name_en": "",
    "lat": 34.7082694,
    "lng": 135.7326807,
    "category": "shrine",
    "prefecture": "osaka",
    "osm_id": 2031364786,
    "spot_type": "data_spot",
    "data_source": "osm"
  },
  {
    "name": "稲蔵神社",
    "name_en": "Inakura shrine",
    "lat": 34.7080096,
    "lng": 135.7100813,
    "category": "shrine",
    "prefecture": "osaka",
    "osm_id": 2037819976,
    "spot_type": "data_spot",
    "data_source": "osm"
  },
  {
    "name": "安養寺",
    "name_en": "An'yo temple",
    "lat": 34.7142049,
    "lng": 135.7254732,
    "category": "temple",
    "prefecture": "osaka",
    "osm_id": 2039461671,
    "spot_type": "data_spot",
    "data_source": "osm"
  },
  {
    "name": "往馬大社",
    "name_en": "Ikoma Shrine",
    "lat": 34.6783097,
    "lng": 135.7037568,
    "category": "shrine",
    "prefecture": "osaka",
    "osm_id": 2041504892,
    "spot_type": "data_spot",
    "data_source": "osm"
  },
  {
    "name": "安楽寺",
    "name_en": "",
    "lat": 34.6867468,
    "lng": 135.702776,
    "category": "temple",
    "prefecture": "osaka",
    "osm_id": 2043501322,
    "spot_type": "data_spot",
    "data_source": "osm"
  },
  {
    "name": "名称不明",
    "name_en": "",
    "lat": 34.6895086,
    "lng": 135.6946669,
    "category": "temple",
    "prefecture": "osaka",
    "osm_id": 2045997916,
    "spot_type": "data_spot",
    "data_source": "osm"
  },
  {
    "name": "犬鳴山 七宝瀧寺",
    "name_en": "",
    "lat": 34.3385234,
    "lng": 135.3875613,
    "category": "temple",
    "prefecture": "osaka",
    "osm_id": 2046192677,
    "spot_type": "data_spot",
    "data_source": "osm"
  },
  {
    "name": "西方寺",
    "name_en": "",
    "lat": 34.6902752,
    "lng": 135.7065511,
    "category": "temple",
    "prefecture": "osaka",
    "osm_id": 2057209847,
    "spot_type": "data_spot",
    "data_source": "osm"
  },
  {
    "name": "安養寺",
    "name_en": "",
    "lat": 34.69241,
    "lng": 135.705108,
    "category": "temple",
    "prefecture": "osaka",
    "osm_id": 2057209911,
    "spot_type": "data_spot",
    "data_source": "osm"
  },
  {
    "name": "長命寺",
    "name_en": "",
    "lat": 34.6994559,
    "lng": 135.6932006,
    "category": "temple",
    "prefecture": "osaka",
    "osm_id": 2095834126,
    "spot_type": "data_spot",
    "data_source": "osm"
  },
  {
    "name": "八坂神社",
    "name_en": "",
    "lat": 34.6899928,
    "lng": 135.5518757,
    "category": "shrine",
    "prefecture": "osaka",
    "osm_id": 2121141969,
    "spot_type": "data_spot",
    "data_source": "osm"
  },
  {
    "name": "大日寺",
    "name_en": "",
    "lat": 34.6910213,
    "lng": 135.5499164,
    "category": "temple",
    "prefecture": "osaka",
    "osm_id": 2121141972,
    "spot_type": "data_spot",
    "data_source": "osm"
  },
  {
    "name": "善福寺",
    "name_en": "",
    "lat": 34.6900457,
    "lng": 135.5517201,
    "category": "temple",
    "prefecture": "osaka",
    "osm_id": 2121141974,
    "spot_type": "data_spot",
    "data_source": "osm"
  },
  {
    "name": "王龍寺",
    "name_en": "",
    "lat": 34.7045844,
    "lng": 135.7175697,
    "category": "temple",
    "prefecture": "osaka",
    "osm_id": 2141007970,
    "spot_type": "data_spot",
    "data_source": "osm"
  },
  {
    "name": "吉祥寺",
    "name_en": "",
    "lat": 34.660289,
    "lng": 135.515145,
    "category": "temple",
    "prefecture": "osaka",
    "osm_id": 2156800502,
    "spot_type": "data_spot",
    "data_source": "osm"
  },
  {
    "name": "鳳林寺",
    "name_en": "",
    "lat": 34.659686,
    "lng": 135.514899,
    "category": "temple",
    "prefecture": "osaka",
    "osm_id": 2156932081,
    "spot_type": "data_spot",
    "data_source": "osm"
  },
  {
    "name": "太平寺",
    "name_en": "",
    "lat": 34.659298,
    "lng": 135.513845,
    "category": "temple",
    "prefecture": "osaka",
    "osm_id": 2156933398,
    "spot_type": "data_spot",
    "data_source": "osm"
  },
  {
    "name": "聞通寺",
    "name_en": "",
    "lat": 34.6929549,
    "lng": 135.5493564,
    "category": "temple",
    "prefecture": "osaka",
    "osm_id": 2158750383,
    "spot_type": "data_spot",
    "data_source": "osm"
  },
  {
    "name": "観泉寺 (Kansen-ji Temple)",
    "name_en": "",
    "lat": 34.6658045,
    "lng": 135.7105437,
    "category": "temple",
    "prefecture": "osaka",
    "osm_id": 2211024593,
    "spot_type": "data_spot",
    "data_source": "osm"
  },
  {
    "name": "新宮温泉",
    "name_en": "",
    "lat": 34.6892363,
    "lng": 135.5501798,
    "category": "onsen",
    "prefecture": "osaka",
    "osm_id": 2264401717,
    "spot_type": "data_spot",
    "data_source": "osm"
  },
  {
    "name": "不動の湯",
    "name_en": "",
    "lat": 34.688679,
    "lng": 135.552704,
    "category": "onsen",
    "prefecture": "osaka",
    "osm_id": 2268044803,
    "spot_type": "data_spot",
    "data_source": "osm"
  },
  {
    "name": "善正寺",
    "name_en": "",
    "lat": 34.6904582,
    "lng": 135.5476105,
    "category": "temple",
    "prefecture": "osaka",
    "osm_id": 2273241497,
    "spot_type": "data_spot",
    "data_source": "osm"
  },
  {
    "name": "福繁大神",
    "name_en": "",
    "lat": 34.683622,
    "lng": 135.547233,
    "category": "shrine",
    "prefecture": "osaka",
    "osm_id": 2276407320,
    "spot_type": "data_spot",
    "data_source": "osm"
  },
  {
    "name": "慈尊院",
    "name_en": "Jison-in",
    "lat": 34.2951647,
    "lng": 135.5499064,
    "category": "temple",
    "prefecture": "osaka",
    "osm_id": 2279230601,
    "spot_type": "data_spot",
    "data_source": "osm"
  },
  {
    "name": "華厳の湯",
    "name_en": "",
    "lat": 34.6927274,
    "lng": 135.5488629,
    "category": "onsen",
    "prefecture": "osaka",
    "osm_id": 2282136107,
    "spot_type": "data_spot",
    "data_source": "osm"
  },
  {
    "name": "名称不明",
    "name_en": "",
    "lat": 34.733519,
    "lng": 135.577503,
    "category": "shrine",
    "prefecture": "osaka",
    "osm_id": 2320506545,
    "spot_type": "data_spot",
    "data_source": "osm"
  },
  {
    "name": "Healthy Bath玉の湯",
    "name_en": "",
    "lat": 34.5952285,
    "lng": 135.5101558,
    "category": "onsen",
    "prefecture": "osaka",
    "osm_id": 2338832092,
    "spot_type": "data_spot",
    "data_source": "osm"
  },
  {
    "name": "金毘羅神社",
    "name_en": "",
    "lat": 34.6596751,
    "lng": 135.7158353,
    "category": "shrine",
    "prefecture": "osaka",
    "osm_id": 2355955898,
    "spot_type": "data_spot",
    "data_source": "osm"
  },
  {
    "name": "石福寺",
    "name_en": "",
    "lat": 34.6601507,
    "lng": 135.7120713,
    "category": "temple",
    "prefecture": "osaka",
    "osm_id": 2356040303,
    "spot_type": "data_spot",
    "data_source": "osm"
  },
  {
    "name": "鶴林寺 (Kakurin-ji)",
    "name_en": "",
    "lat": 34.6718229,
    "lng": 135.6884734,
    "category": "temple",
    "prefecture": "osaka",
    "osm_id": 2358266222,
    "spot_type": "data_spot",
    "data_source": "osm"
  },
  {
    "name": "千光寺",
    "name_en": "Senkoji",
    "lat": 34.6558764,
    "lng": 135.6825511,
    "category": "temple",
    "prefecture": "osaka",
    "osm_id": 2365200685,
    "spot_type": "data_spot",
    "data_source": "osm"
  },
  {
    "name": "design museum",
    "name_en": "",
    "lat": 34.6910724,
    "lng": 135.4868302,
    "category": "museum",
    "prefecture": "osaka",
    "osm_id": 2373447958,
    "spot_type": "data_spot",
    "data_source": "osm"
  },
  {
    "name": "長栄寺",
    "name_en": "",
    "lat": 34.7654703,
    "lng": 135.6122213,
    "category": "temple",
    "prefecture": "osaka",
    "osm_id": 2376027267,
    "spot_type": "data_spot",
    "data_source": "osm"
  },
  {
    "name": "南蛮文化館",
    "name_en": "Gallery Namban",
    "lat": 34.709457,
    "lng": 135.4919,
    "category": "museum",
    "prefecture": "osaka",
    "osm_id": 2376818627,
    "spot_type": "data_spot",
    "data_source": "osm"
  },
  {
    "name": "楠公寺",
    "name_en": "",
    "lat": 34.7256214,
    "lng": 135.655113,
    "category": "temple",
    "prefecture": "osaka",
    "osm_id": 2380798373,
    "spot_type": "data_spot",
    "data_source": "osm"
  },
  {
    "name": "片岡神社",
    "name_en": "",
    "lat": 34.5895738,
    "lng": 135.7049812,
    "category": "shrine",
    "prefecture": "osaka",
    "osm_id": 2386197873,
    "spot_type": "data_spot",
    "data_source": "osm"
  },
  {
    "name": "葛木二上神社",
    "name_en": "Katsuragi Futagami Shrine",
    "lat": 34.5256835,
    "lng": 135.67799,
    "category": "shrine",
    "prefecture": "osaka",
    "osm_id": 2386384042,
    "spot_type": "data_spot",
    "data_source": "osm"
  },
  {
    "name": "願光寺",
    "name_en": "",
    "lat": 34.7246856,
    "lng": 135.5597163,
    "category": "temple",
    "prefecture": "osaka",
    "osm_id": 2414190202,
    "spot_type": "data_spot",
    "data_source": "osm"
  },
  {
    "name": "朝日寺",
    "name_en": "",
    "lat": 34.562369,
    "lng": 135.482021,
    "category": "temple",
    "prefecture": "osaka",
    "osm_id": 2440045920,
    "spot_type": "data_spot",
    "data_source": "osm"
  },
  {
    "name": "柿本神社 (Kakinomoto Shrine)",
    "name_en": "",
    "lat": 34.4892605,
    "lng": 135.7271135,
    "category": "shrine",
    "prefecture": "osaka",
    "osm_id": 2482254477,
    "spot_type": "data_spot",
    "data_source": "osm"
  },
  {
    "name": "根来寺",
    "name_en": "",
    "lat": 34.2872227,
    "lng": 135.3165793,
    "category": "temple",
    "prefecture": "osaka",
    "osm_id": 2491210941,
    "spot_type": "data_spot",
    "data_source": "osm"
  },
  {
    "name": "池田城",
    "name_en": "Ikeda Castle",
    "lat": 34.8271009,
    "lng": 135.4282514,
    "category": "castle",
    "prefecture": "osaka",
    "osm_id": 2492251901,
    "spot_type": "data_spot",
    "data_source": "osm"
  },
  {
    "name": "名称不明",
    "name_en": "",
    "lat": 34.5380365,
    "lng": 135.4743072,
    "category": "temple",
    "prefecture": "osaka",
    "osm_id": 2528901064,
    "spot_type": "data_spot",
    "data_source": "osm"
  },
  {
    "name": "一言主神社",
    "name_en": "",
    "lat": 34.7215112,
    "lng": 135.7233326,
    "category": "shrine",
    "prefecture": "osaka",
    "osm_id": 2535936809,
    "spot_type": "data_spot",
    "data_source": "osm"
  },
  {
    "name": "法華院",
    "name_en": "",
    "lat": 34.7183323,
    "lng": 135.7265754,
    "category": "temple",
    "prefecture": "osaka",
    "osm_id": 2535936909,
    "spot_type": "data_spot",
    "data_source": "osm"
  },
  {
    "name": "大鳥北浜神社",
    "name_en": "",
    "lat": 34.5423499,
    "lng": 135.4518115,
    "category": "shrine",
    "prefecture": "osaka",
    "osm_id": 2540706676,
    "spot_type": "data_spot",
    "data_source": "osm"
  },
  {
    "name": "丹比神社",
    "name_en": "",
    "lat": 34.5444284,
    "lng": 135.5625899,
    "category": "shrine",
    "prefecture": "osaka",
    "osm_id": 2542717883,
    "spot_type": "data_spot",
    "data_source": "osm"
  },
  {
    "name": "津原神社",
    "name_en": "",
    "lat": 34.6605591,
    "lng": 135.6188457,
    "category": "shrine",
    "prefecture": "osaka",
    "osm_id": 2545355615,
    "spot_type": "data_spot",
    "data_source": "osm"
  },
  {
    "name": "長福寺",
    "name_en": "",
    "lat": 34.7056233,
    "lng": 135.6949794,
    "category": "temple",
    "prefecture": "osaka",
    "osm_id": 2621836741,
    "spot_type": "data_spot",
    "data_source": "osm"
  },
  {
    "name": "八大龍王光龍院",
    "name_en": "",
    "lat": 34.6780975,
    "lng": 135.6808199,
    "category": "temple",
    "prefecture": "osaka",
    "osm_id": 2621836784,
    "spot_type": "data_spot",
    "data_source": "osm"
  },
  {
    "name": "関目神社",
    "name_en": "",
    "lat": 34.7139514,
    "lng": 135.5436309,
    "category": "shrine",
    "prefecture": "osaka",
    "osm_id": 2623366342,
    "spot_type": "data_spot",
    "data_source": "osm"
  },
  {
    "name": "熊鷹神社",
    "name_en": "Kumataka Shrine",
    "lat": 34.6879442,
    "lng": 135.6935015,
    "category": "shrine",
    "prefecture": "osaka",
    "osm_id": 2628034985,
    "spot_type": "data_spot",
    "data_source": "osm"
  },
  {
    "name": "宝珠院",
    "name_en": "",
    "lat": 34.5816077,
    "lng": 135.4815549,
    "category": "temple",
    "prefecture": "osaka",
    "osm_id": 2628434678,
    "spot_type": "data_spot",
    "data_source": "osm"
  },
  {
    "name": "本受寺",
    "name_en": "",
    "lat": 34.5818404,
    "lng": 135.4814129,
    "category": "temple",
    "prefecture": "osaka",
    "osm_id": 2628434679,
    "spot_type": "data_spot",
    "data_source": "osm"
  },
  {
    "name": "最勝寺",
    "name_en": "",
    "lat": 34.6703174,
    "lng": 135.5264121,
    "category": "temple",
    "prefecture": "osaka",
    "osm_id": 2637059666,
    "spot_type": "data_spot",
    "data_source": "osm"
  },
  {
    "name": "崇禅寺",
    "name_en": "Sōzenji",
    "lat": 34.7309802,
    "lng": 135.5101602,
    "category": "station",
    "prefecture": "osaka",
    "osm_id": 2648985509,
    "spot_type": "data_spot",
    "data_source": "osm"
  },
  {
    "name": "北向地蔵尊",
    "name_en": "",
    "lat": 34.704862,
    "lng": 135.4979631,
    "category": "temple",
    "prefecture": "osaka",
    "osm_id": 2666719768,
    "spot_type": "data_spot",
    "data_source": "osm"
  },
  {
    "name": "道願寺",
    "name_en": "",
    "lat": 34.6701117,
    "lng": 135.680223,
    "category": "temple",
    "prefecture": "osaka",
    "osm_id": 2671323761,
    "spot_type": "data_spot",
    "data_source": "osm"
  },
  {
    "name": "大津神社",
    "name_en": "",
    "lat": 34.5698246,
    "lng": 135.5827296,
    "category": "shrine",
    "prefecture": "osaka",
    "osm_id": 2689203764,
    "spot_type": "data_spot",
    "data_source": "osm"
  },
  {
    "name": "西称寺",
    "name_en": "",
    "lat": 34.5619884,
    "lng": 135.5766591,
    "category": "temple",
    "prefecture": "osaka",
    "osm_id": 2699389394,
    "spot_type": "data_spot",
    "data_source": "osm"
  },
  {
    "name": "念稱寺",
    "name_en": "",
    "lat": 34.5707498,
    "lng": 135.5843667,
    "category": "temple",
    "prefecture": "osaka",
    "osm_id": 2705146425,
    "spot_type": "data_spot",
    "data_source": "osm"
  },
  {
    "name": "天性寺",
    "name_en": "",
    "lat": 34.4589527,
    "lng": 135.3651665,
    "category": "temple",
    "prefecture": "osaka",
    "osm_id": 2717218842,
    "spot_type": "data_spot",
    "data_source": "osm"
  },
  {
    "name": "善宗寺",
    "name_en": "",
    "lat": 34.5723114,
    "lng": 135.4676708,
    "category": "temple",
    "prefecture": "osaka",
    "osm_id": 2769375476,
    "spot_type": "data_spot",
    "data_source": "osm"
  },
  {
    "name": "天田神社",
    "name_en": "",
    "lat": 34.773966,
    "lng": 135.6878989,
    "category": "shrine",
    "prefecture": "osaka",
    "osm_id": 2784781532,
    "spot_type": "data_spot",
    "data_source": "osm"
  },
  {
    "name": "松寶寺",
    "name_en": "",
    "lat": 34.7713248,
    "lng": 135.6878783,
    "category": "temple",
    "prefecture": "osaka",
    "osm_id": 2784781536,
    "spot_type": "data_spot",
    "data_source": "osm"
  },
  {
    "name": "萱島神社",
    "name_en": "",
    "lat": 34.7472448,
    "lng": 135.6109076,
    "category": "shrine",
    "prefecture": "osaka",
    "osm_id": 2787583775,
    "spot_type": "data_spot",
    "data_source": "osm"
  },
  {
    "name": "専隆寺",
    "name_en": "",
    "lat": 34.7396515,
    "lng": 135.5415527,
    "category": "temple",
    "prefecture": "osaka",
    "osm_id": 2800728684,
    "spot_type": "data_spot",
    "data_source": "osm"
  },
  {
    "name": "明教寺（myoukyouji）",
    "name_en": "",
    "lat": 34.5749325,
    "lng": 135.5793217,
    "category": "temple",
    "prefecture": "osaka",
    "osm_id": 2810313176,
    "spot_type": "data_spot",
    "data_source": "osm"
  },
  {
    "name": "休憩所",
    "name_en": "",
    "lat": 34.5183319,
    "lng": 135.6393749,
    "category": "rest_area",
    "prefecture": "osaka",
    "osm_id": 2820052301,
    "spot_type": "data_spot",
    "data_source": "osm"
  },
  {
    "name": "諏訪神社",
    "name_en": "Suwa Shrine",
    "lat": 34.6964191,
    "lng": 135.179894,
    "category": "shrine",
    "prefecture": "osaka",
    "osm_id": 2822633370,
    "spot_type": "data_spot",
    "data_source": "osm"
  },
  {
    "name": "廣國神社",
    "name_en": "",
    "lat": 34.5501115,
    "lng": 135.5542227,
    "category": "shrine",
    "prefecture": "osaka",
    "osm_id": 2825654068,
    "spot_type": "data_spot",
    "data_source": "osm"
  },
  {
    "name": "浄土宗 法巌寺",
    "name_en": "",
    "lat": 34.7809589,
    "lng": 135.4155283,
    "category": "temple",
    "prefecture": "osaka",
    "osm_id": 2850049801,
    "spot_type": "data_spot",
    "data_source": "osm"
  },
  {
    "name": "生駒ふるさとミュージアム",
    "name_en": "",
    "lat": 34.6906016,
    "lng": 135.7043733,
    "category": "museum",
    "prefecture": "osaka",
    "osm_id": 2863583647,
    "spot_type": "data_spot",
    "data_source": "osm"
  },
  {
    "name": "宝山寺",
    "name_en": "Hōzanji",
    "lat": 34.6861028,
    "lng": 135.6892136,
    "category": "station",
    "prefecture": "osaka",
    "osm_id": 2865865081,
    "spot_type": "data_spot",
    "data_source": "osm"
  },
  {
    "name": "大金湯（銭湯）",
    "name_en": "",
    "lat": 34.7160483,
    "lng": 135.4539726,
    "category": "onsen",
    "prefecture": "osaka",
    "osm_id": 2875761167,
    "spot_type": "data_spot",
    "data_source": "osm"
  },
  {
    "name": "妙楽寺",
    "name_en": "",
    "lat": 34.7545869,
    "lng": 135.5983114,
    "category": "temple",
    "prefecture": "osaka",
    "osm_id": 2892638107,
    "spot_type": "data_spot",
    "data_source": "osm"
  },
  {
    "name": "地蔵",
    "name_en": "",
    "lat": 34.721697,
    "lng": 135.4590618,
    "category": "temple",
    "prefecture": "osaka",
    "osm_id": 2903785332,
    "spot_type": "data_spot",
    "data_source": "osm"
  },
  {
    "name": "産須那神社",
    "name_en": "",
    "lat": 34.7256266,
    "lng": 135.5720939,
    "category": "shrine",
    "prefecture": "osaka",
    "osm_id": 2917418025,
    "spot_type": "data_spot",
    "data_source": "osm"
  },
  {
    "name": "石切不動明王",
    "name_en": "",
    "lat": 34.6823595,
    "lng": 135.6507567,
    "category": "shrine",
    "prefecture": "osaka",
    "osm_id": 2920463866,
    "spot_type": "data_spot",
    "data_source": "osm"
  },
  {
    "name": "有馬温泉 太閤の湯",
    "name_en": "Taikō no Yu",
    "lat": 34.7978125,
    "lng": 135.2511563,
    "category": "onsen",
    "prefecture": "osaka",
    "osm_id": 2921394250,
    "spot_type": "data_spot",
    "data_source": "osm"
  },
  {
    "name": "有明泉源",
    "name_en": "",
    "lat": 34.797581,
    "lng": 135.249893,
    "category": "onsen",
    "prefecture": "osaka",
    "osm_id": 2924055458,
    "spot_type": "data_spot",
    "data_source": "osm"
  },
  {
    "name": "極楽泉源",
    "name_en": "Gokuraku Spring",
    "lat": 34.7955762,
    "lng": 135.248667,
    "category": "onsen",
    "prefecture": "osaka",
    "osm_id": 2924055459,
    "spot_type": "data_spot",
    "data_source": "osm"
  },
  {
    "name": "竹取亭別館 康貴",
    "name_en": "",
    "lat": 34.7973511,
    "lng": 135.248919,
    "category": "onsen",
    "prefecture": "osaka",
    "osm_id": 2928687785,
    "spot_type": "data_spot",
    "data_source": "osm"
  },
  {
    "name": "延命地蔵尊",
    "name_en": "",
    "lat": 34.6652429,
    "lng": 135.4966148,
    "category": "temple",
    "prefecture": "osaka",
    "osm_id": 2969807833,
    "spot_type": "data_spot",
    "data_source": "osm"
  },
  {
    "name": "大国主神社",
    "name_en": "",
    "lat": 34.657536,
    "lng": 135.497438,
    "category": "shrine",
    "prefecture": "osaka",
    "osm_id": 2971080934,
    "spot_type": "data_spot",
    "data_source": "osm"
  },
  {
    "name": "法照寺",
    "name_en": "",
    "lat": 34.663596,
    "lng": 135.497597,
    "category": "temple",
    "prefecture": "osaka",
    "osm_id": 2971109033,
    "spot_type": "data_spot",
    "data_source": "osm"
  },
  {
    "name": "西吟寺",
    "name_en": "",
    "lat": 34.5777656,
    "lng": 135.5790483,
    "category": "temple",
    "prefecture": "osaka",
    "osm_id": 3007888032,
    "spot_type": "data_spot",
    "data_source": "osm"
  },
  {
    "name": "光月院",
    "name_en": "",
    "lat": 34.5337707,
    "lng": 135.4404313,
    "category": "temple",
    "prefecture": "osaka",
    "osm_id": 3048787922,
    "spot_type": "data_spot",
    "data_source": "osm"
  },
  {
    "name": "吉田寺（きちでんじ）",
    "name_en": "",
    "lat": 34.6048585,
    "lng": 135.7258027,
    "category": "temple",
    "prefecture": "osaka",
    "osm_id": 3051401545,
    "spot_type": "data_spot",
    "data_source": "osm"
  },
  {
    "name": "名称不明",
    "name_en": "",
    "lat": 34.6400832,
    "lng": 135.136987,
    "category": "lighthouse",
    "prefecture": "osaka",
    "osm_id": 3051448613,
    "spot_type": "data_spot",
    "data_source": "osm"
  },
  {
    "name": "名称不明",
    "name_en": "",
    "lat": 34.6463697,
    "lng": 135.1564825,
    "category": "lighthouse",
    "prefecture": "osaka",
    "osm_id": 3051448776,
    "spot_type": "data_spot",
    "data_source": "osm"
  },
  {
    "name": "名称不明",
    "name_en": "",
    "lat": 34.6529639,
    "lng": 135.1902954,
    "category": "lighthouse",
    "prefecture": "osaka",
    "osm_id": 3051448804,
    "spot_type": "data_spot",
    "data_source": "osm"
  },
  {
    "name": "名称不明",
    "name_en": "",
    "lat": 34.6543581,
    "lng": 135.2023806,
    "category": "lighthouse",
    "prefecture": "osaka",
    "osm_id": 3051448806,
    "spot_type": "data_spot",
    "data_source": "osm"
  },
  {
    "name": "名称不明",
    "name_en": "",
    "lat": 34.6815134,
    "lng": 135.22291,
    "category": "lighthouse",
    "prefecture": "osaka",
    "osm_id": 3051448818,
    "spot_type": "data_spot",
    "data_source": "osm"
  },
  {
    "name": "名称不明",
    "name_en": "",
    "lat": 34.6891865,
    "lng": 135.2242441,
    "category": "lighthouse",
    "prefecture": "osaka",
    "osm_id": 3051448821,
    "spot_type": "data_spot",
    "data_source": "osm"
  },
  {
    "name": "小戸神社",
    "name_en": "",
    "lat": 34.8290358,
    "lng": 135.418999,
    "category": "shrine",
    "prefecture": "osaka",
    "osm_id": 3065023365,
    "spot_type": "data_spot",
    "data_source": "osm"
  },
  {
    "name": "ザ・テディベアミュージアム",
    "name_en": "American House",
    "lat": 34.700846,
    "lng": 135.1893653,
    "category": "museum",
    "prefecture": "osaka",
    "osm_id": 3071335142,
    "spot_type": "data_spot",
    "data_source": "osm"
  },
  {
    "name": "潮江素盞鳴神社",
    "name_en": "Susano jinja",
    "lat": 34.7371796,
    "lng": 135.4355829,
    "category": "shrine",
    "prefecture": "osaka",
    "osm_id": 3077953298,
    "spot_type": "data_spot",
    "data_source": "osm"
  },
  {
    "name": "郡津神社",
    "name_en": "",
    "lat": 34.7926846,
    "lng": 135.6777715,
    "category": "shrine",
    "prefecture": "osaka",
    "osm_id": 3079527958,
    "spot_type": "data_spot",
    "data_source": "osm"
  },
  {
    "name": "受西寺",
    "name_en": "",
    "lat": 34.8121656,
    "lng": 135.2514098,
    "category": "temple",
    "prefecture": "osaka",
    "osm_id": 3090075048,
    "spot_type": "data_spot",
    "data_source": "osm"
  },
  {
    "name": "名称不明",
    "name_en": "",
    "lat": 34.7571966,
    "lng": 135.399343,
    "category": "castle",
    "prefecture": "osaka",
    "osm_id": 3100259789,
    "spot_type": "data_spot",
    "data_source": "osm"
  },
  {
    "name": "北向地蔵",
    "name_en": "Kitamuki Jizo",
    "lat": 34.6946414,
    "lng": 135.1928475,
    "category": "temple",
    "prefecture": "osaka",
    "osm_id": 3113540041,
    "spot_type": "data_spot",
    "data_source": "osm"
  },
  {
    "name": "南詢寺",
    "name_en": "",
    "lat": 34.7344541,
    "lng": 135.5759548,
    "category": "temple",
    "prefecture": "osaka",
    "osm_id": 3164237413,
    "spot_type": "data_spot",
    "data_source": "osm"
  },
  {
    "name": "少彦名神社",
    "name_en": "Sukunahikona-jinja Shrine",
    "lat": 34.6888082,
    "lng": 135.5060348,
    "category": "shrine",
    "prefecture": "osaka",
    "osm_id": 3180407485,
    "spot_type": "data_spot",
    "data_source": "osm"
  },
  {
    "name": "楠永神社",
    "name_en": "",
    "lat": 34.6842409,
    "lng": 135.4925608,
    "category": "shrine",
    "prefecture": "osaka",
    "osm_id": 3180407486,
    "spot_type": "data_spot",
    "data_source": "osm"
  },
  {
    "name": "お地蔵さん",
    "name_en": "",
    "lat": 34.819643,
    "lng": 135.384479,
    "category": "temple",
    "prefecture": "osaka",
    "osm_id": 3193795064,
    "spot_type": "data_spot",
    "data_source": "osm"
  },
  {
    "name": "お地蔵さん",
    "name_en": "",
    "lat": 34.81943,
    "lng": 135.383271,
    "category": "temple",
    "prefecture": "osaka",
    "osm_id": 3193810964,
    "spot_type": "data_spot",
    "data_source": "osm"
  },
  {
    "name": "千代田神社",
    "name_en": "Chiyoda Shrine",
    "lat": 34.4697385,
    "lng": 135.5775986,
    "category": "shrine",
    "prefecture": "osaka",
    "osm_id": 3202636361,
    "spot_type": "data_spot",
    "data_source": "osm"
  },
  {
    "name": "栗原神社",
    "name_en": "",
    "lat": 34.6882554,
    "lng": 135.6207827,
    "category": "shrine",
    "prefecture": "osaka",
    "osm_id": 3203090958,
    "spot_type": "data_spot",
    "data_source": "osm"
  },
  {
    "name": "夙川",
    "name_en": "Shukugawa",
    "lat": 34.7422128,
    "lng": 135.3279801,
    "category": "station",
    "prefecture": "osaka",
    "osm_id": 3203267292,
    "spot_type": "data_spot",
    "data_source": "osm"
  },
  {
    "name": "JICAプラザ",
    "name_en": "JICA Plaza",
    "lat": 34.6987976,
    "lng": 135.2156609,
    "category": "museum",
    "prefecture": "osaka",
    "osm_id": 3210115876,
    "spot_type": "data_spot",
    "data_source": "osm"
  },
  {
    "name": "当麻寺",
    "name_en": "Taimadera",
    "lat": 34.5162043,
    "lng": 135.7059736,
    "category": "station",
    "prefecture": "osaka",
    "osm_id": 3266452178,
    "spot_type": "data_spot",
    "data_source": "osm"
  },
  {
    "name": "賽龍寺",
    "name_en": "",
    "lat": 34.7277034,
    "lng": 135.5521854,
    "category": "temple",
    "prefecture": "osaka",
    "osm_id": 3281575169,
    "spot_type": "data_spot",
    "data_source": "osm"
  },
  {
    "name": "鴨都波神社",
    "name_en": "",
    "lat": 34.4601676,
    "lng": 135.732835,
    "category": "shrine",
    "prefecture": "osaka",
    "osm_id": 3312156061,
    "spot_type": "data_spot",
    "data_source": "osm"
  },
  {
    "name": "妙楽寺　鐘楼門",
    "name_en": "",
    "lat": 34.3183513,
    "lng": 135.6082079,
    "category": "temple",
    "prefecture": "osaka",
    "osm_id": 3343845736,
    "spot_type": "data_spot",
    "data_source": "osm"
  },
  {
    "name": "大森神社",
    "name_en": "",
    "lat": 34.3132425,
    "lng": 135.6090808,
    "category": "shrine",
    "prefecture": "osaka",
    "osm_id": 3345168304,
    "spot_type": "data_spot",
    "data_source": "osm"
  },
  {
    "name": "宇佐八幡宮",
    "name_en": "",
    "lat": 34.3164979,
    "lng": 135.6082674,
    "category": "shrine",
    "prefecture": "osaka",
    "osm_id": 3345258435,
    "spot_type": "data_spot",
    "data_source": "osm"
  },
  {
    "name": "相賀神社",
    "name_en": "",
    "lat": 34.3168055,
    "lng": 135.5976384,
    "category": "shrine",
    "prefecture": "osaka",
    "osm_id": 3345393321,
    "spot_type": "data_spot",
    "data_source": "osm"
  },
  {
    "name": "十一面観音",
    "name_en": "",
    "lat": 34.3176208,
    "lng": 135.6059976,
    "category": "temple",
    "prefecture": "osaka",
    "osm_id": 3347114930,
    "spot_type": "data_spot",
    "data_source": "osm"
  },
  {
    "name": "龍泉寺",
    "name_en": "",
    "lat": 34.6846573,
    "lng": 135.5647822,
    "category": "temple",
    "prefecture": "osaka",
    "osm_id": 3355555193,
    "spot_type": "data_spot",
    "data_source": "osm"
  },
  {
    "name": "戎神社",
    "name_en": "",
    "lat": 34.3156713,
    "lng": 135.6129888,
    "category": "shrine",
    "prefecture": "osaka",
    "osm_id": 3369543785,
    "spot_type": "data_spot",
    "data_source": "osm"
  },
  {
    "name": "吹田",
    "name_en": "Suita",
    "lat": 34.7631584,
    "lng": 135.5235882,
    "category": "station",
    "prefecture": "osaka",
    "osm_id": 3401733791,
    "spot_type": "data_spot",
    "data_source": "osm"
  },
  {
    "name": "名称不明",
    "name_en": "",
    "lat": 34.3163564,
    "lng": 135.6115909,
    "category": "shrine",
    "prefecture": "osaka",
    "osm_id": 3441697764,
    "spot_type": "data_spot",
    "data_source": "osm"
  },
  {
    "name": "応其寺",
    "name_en": "",
    "lat": 34.3166212,
    "lng": 135.6133048,
    "category": "temple",
    "prefecture": "osaka",
    "osm_id": 3441697787,
    "spot_type": "data_spot",
    "data_source": "osm"
  },
  {
    "name": "春日神社",
    "name_en": "",
    "lat": 34.807443,
    "lng": 135.4642863,
    "category": "shrine",
    "prefecture": "osaka",
    "osm_id": 3467825103,
    "spot_type": "data_spot",
    "data_source": "osm"
  },
  {
    "name": "正蓮寺",
    "name_en": "",
    "lat": 34.71587,
    "lng": 135.510822,
    "category": "temple",
    "prefecture": "osaka",
    "osm_id": 3485705193,
    "spot_type": "data_spot",
    "data_source": "osm"
  },
  {
    "name": "真田大明神 豊受大神 松永大明神",
    "name_en": "",
    "lat": 34.6723417,
    "lng": 135.5162081,
    "category": "shrine",
    "prefecture": "osaka",
    "osm_id": 3490060570,
    "spot_type": "data_spot",
    "data_source": "osm"
  },
  {
    "name": "龍王大神",
    "name_en": "",
    "lat": 34.7014811,
    "lng": 135.505924,
    "category": "shrine",
    "prefecture": "osaka",
    "osm_id": 3490060578,
    "spot_type": "data_spot",
    "data_source": "osm"
  },
  {
    "name": "白光大神",
    "name_en": "",
    "lat": 34.6768778,
    "lng": 135.5297729,
    "category": "shrine",
    "prefecture": "osaka",
    "osm_id": 3490061301,
    "spot_type": "data_spot",
    "data_source": "osm"
  },
  {
    "name": "楠木大神",
    "name_en": "",
    "lat": 34.6717076,
    "lng": 135.5172762,
    "category": "shrine",
    "prefecture": "osaka",
    "osm_id": 3490061308,
    "spot_type": "data_spot",
    "data_source": "osm"
  },
  {
    "name": "恵美須神社",
    "name_en": "",
    "lat": 34.7152887,
    "lng": 135.5019229,
    "category": "shrine",
    "prefecture": "osaka",
    "osm_id": 3490409448,
    "spot_type": "data_spot",
    "data_source": "osm"
  },
  {
    "name": "鹿島神社",
    "name_en": "",
    "lat": 34.7150985,
    "lng": 135.5017188,
    "category": "shrine",
    "prefecture": "osaka",
    "osm_id": 3490409472,
    "spot_type": "data_spot",
    "data_source": "osm"
  },
  {
    "name": "稲荷神社",
    "name_en": "",
    "lat": 34.7153177,
    "lng": 135.5021424,
    "category": "shrine",
    "prefecture": "osaka",
    "osm_id": 3490409475,
    "spot_type": "data_spot",
    "data_source": "osm"
  },
  {
    "name": "東照宮社 厳島神社",
    "name_en": "",
    "lat": 34.7153125,
    "lng": 135.5020401,
    "category": "shrine",
    "prefecture": "osaka",
    "osm_id": 3490409491,
    "spot_type": "data_spot",
    "data_source": "osm"
  },
  {
    "name": "楠大神",
    "name_en": "",
    "lat": 34.6800339,
    "lng": 135.4780968,
    "category": "shrine",
    "prefecture": "osaka",
    "osm_id": 3490410698,
    "spot_type": "data_spot",
    "data_source": "osm"
  },
  {
    "name": "白砂大神",
    "name_en": "",
    "lat": 34.6844038,
    "lng": 135.4611707,
    "category": "shrine",
    "prefecture": "osaka",
    "osm_id": 3490410699,
    "spot_type": "data_spot",
    "data_source": "osm"
  },
  {
    "name": "菅原神社",
    "name_en": "",
    "lat": 34.7766488,
    "lng": 135.6131185,
    "category": "shrine",
    "prefecture": "osaka",
    "osm_id": 3500228419,
    "spot_type": "data_spot",
    "data_source": "osm"
  },
  {
    "name": "中之島一講 皇大神宮社",
    "name_en": "",
    "lat": 34.6928033,
    "lng": 135.4940779,
    "category": "shrine",
    "prefecture": "osaka",
    "osm_id": 3512007623,
    "spot_type": "data_spot",
    "data_source": "osm"
  },
  {
    "name": "矢作神社",
    "name_en": "",
    "lat": 34.6186223,
    "lng": 135.6076466,
    "category": "shrine",
    "prefecture": "osaka",
    "osm_id": 3517322313,
    "spot_type": "data_spot",
    "data_source": "osm"
  },
  {
    "name": "西方寺",
    "name_en": "",
    "lat": 34.6189534,
    "lng": 135.6060212,
    "category": "temple",
    "prefecture": "osaka",
    "osm_id": 3517329963,
    "spot_type": "data_spot",
    "data_source": "osm"
  },
  {
    "name": "善乗寺",
    "name_en": "",
    "lat": 34.6202999,
    "lng": 135.6070109,
    "category": "temple",
    "prefecture": "osaka",
    "osm_id": 3517347289,
    "spot_type": "data_spot",
    "data_source": "osm"
  },
  {
    "name": "大阪梅田",
    "name_en": "Ōsaka Umeda",
    "lat": 34.7052911,
    "lng": 135.4983887,
    "category": "station",
    "prefecture": "osaka",
    "osm_id": 3544516031,
    "spot_type": "data_spot",
    "data_source": "osm"
  },
  {
    "name": "太神宮",
    "name_en": "",
    "lat": 34.3171903,
    "lng": 135.606859,
    "category": "shrine",
    "prefecture": "osaka",
    "osm_id": 3567708407,
    "spot_type": "data_spot",
    "data_source": "osm"
  },
  {
    "name": "名称不明",
    "name_en": "",
    "lat": 34.7393793,
    "lng": 135.4154127,
    "category": "lighthouse",
    "prefecture": "osaka",
    "osm_id": 3568166333,
    "spot_type": "data_spot",
    "data_source": "osm"
  },
  {
    "name": "善立寺",
    "name_en": "",
    "lat": 34.724314,
    "lng": 135.545629,
    "category": "temple",
    "prefecture": "osaka",
    "osm_id": 3622857993,
    "spot_type": "data_spot",
    "data_source": "osm"
  },
  {
    "name": "一之鳥居",
    "name_en": "",
    "lat": 34.6687964,
    "lng": 135.6414369,
    "category": "shrine",
    "prefecture": "osaka",
    "osm_id": 3625264491,
    "spot_type": "data_spot",
    "data_source": "osm"
  },
  {
    "name": "彌瑩神社 御旅所",
    "name_en": "",
    "lat": 34.6564463,
    "lng": 135.5352431,
    "category": "shrine",
    "prefecture": "osaka",
    "osm_id": 3626108792,
    "spot_type": "data_spot",
    "data_source": "osm"
  },
  {
    "name": "千里丘",
    "name_en": "Senrioka",
    "lat": 34.7916417,
    "lng": 135.5515299,
    "category": "station",
    "prefecture": "osaka",
    "osm_id": 3626687788,
    "spot_type": "data_spot",
    "data_source": "osm"
  },
  {
    "name": "新大阪",
    "name_en": "Shin-Ōsaka",
    "lat": 34.7335385,
    "lng": 135.5001888,
    "category": "station",
    "prefecture": "osaka",
    "osm_id": 3626952971,
    "spot_type": "data_spot",
    "data_source": "osm"
  },
  {
    "name": "六甲",
    "name_en": "Rokkō",
    "lat": 34.719614,
    "lng": 135.2341591,
    "category": "station",
    "prefecture": "osaka",
    "osm_id": 3629375864,
    "spot_type": "data_spot",
    "data_source": "osm"
  },
  {
    "name": "春日野道",
    "name_en": "Kasuganomichi",
    "lat": 34.7030816,
    "lng": 135.2054685,
    "category": "station",
    "prefecture": "osaka",
    "osm_id": 3629375866,
    "spot_type": "data_spot",
    "data_source": "osm"
  },
  {
    "name": "王子公園",
    "name_en": "Ojikoen",
    "lat": 34.7102106,
    "lng": 135.2184074,
    "category": "station",
    "prefecture": "osaka",
    "osm_id": 3629375867,
    "spot_type": "data_spot",
    "data_source": "osm"
  },
  {
    "name": "神戸三宮",
    "name_en": "Kōbe Sannomiya",
    "lat": 34.6931389,
    "lng": 135.1928979,
    "category": "station",
    "prefecture": "osaka",
    "osm_id": 3629375868,
    "spot_type": "data_spot",
    "data_source": "osm"
  },
  {
    "name": "俊徳道",
    "name_en": "Shuntokumichi",
    "lat": 34.6583049,
    "lng": 135.5718416,
    "category": "station",
    "prefecture": "osaka",
    "osm_id": 3631687565,
    "spot_type": "data_spot",
    "data_source": "osm"
  },
  {
    "name": "布施",
    "name_en": "Fuse",
    "lat": 34.6641148,
    "lng": 135.5635982,
    "category": "station",
    "prefecture": "osaka",
    "osm_id": 3631687566,
    "spot_type": "data_spot",
    "data_source": "osm"
  },
  {
    "name": "河内小阪",
    "name_en": "Kawachi Kosaka",
    "lat": 34.6640222,
    "lng": 135.5811925,
    "category": "station",
    "prefecture": "osaka",
    "osm_id": 3631687567,
    "spot_type": "data_spot",
    "data_source": "osm"
  },
  {
    "name": "河内永和",
    "name_en": "Kawachi-Eiwa",
    "lat": 34.664293,
    "lng": 135.573208,
    "category": "station",
    "prefecture": "osaka",
    "osm_id": 3631687568,
    "spot_type": "data_spot",
    "data_source": "osm"
  },