[
  {
    "name": "三間坂",
    "name_en": "Mimasaka",
    "lat": 33.194725,
    "lng": 129.9476933,
    "category": "station",
    "prefecture": "saga",
    "osm_id": 265852127,
    "spot_type": "data_spot",
    "data_source": "osm"
  },
  {
    "name": "上有田",
    "name_en": "Kami-Arita",
    "lat": 33.1902799,
    "lng": 129.9053775,
    "category": "station",
    "prefecture": "saga",
    "osm_id": 265852448,
    "spot_type": "data_spot",
    "data_source": "osm"
  },
  {
    "name": "三河内",
    "name_en": "Mikawachi",
    "lat": 33.1504687,
    "lng": 129.8294343,
    "category": "station",
    "prefecture": "saga",
    "osm_id": 265852520,
    "spot_type": "data_spot",
    "data_source": "osm"
  },
  {
    "name": "日宇",
    "name_en": "Hiu",
    "lat": 33.1572677,
    "lng": 129.7580078,
    "category": "station",
    "prefecture": "saga",
    "osm_id": 265852701,
    "spot_type": "data_spot",
    "data_source": "osm"
  },
  {
    "name": "南風崎",
    "name_en": "Haenosaki",
    "lat": 33.0869453,
    "lng": 129.8012474,
    "category": "station",
    "prefecture": "saga",
    "osm_id": 265887755,
    "spot_type": "data_spot",
    "data_source": "osm"
  },
  {
    "name": "彼杵",
    "name_en": "Sonogi",
    "lat": 33.0396733,
    "lng": 129.9150283,
    "category": "station",
    "prefecture": "saga",
    "osm_id": 265887777,
    "spot_type": "data_spot",
    "data_source": "osm"
  },
  {
    "name": "川棚",
    "name_en": "Kawatana",
    "lat": 33.0684952,
    "lng": 129.863469,
    "category": "station",
    "prefecture": "saga",
    "osm_id": 265887778,
    "spot_type": "data_spot",
    "data_source": "osm"
  },
  {
    "name": "久留米",
    "name_en": "Kurume",
    "lat": 33.3206417,
    "lng": 130.5014036,
    "category": "station",
    "prefecture": "saga",
    "osm_id": 265889297,
    "spot_type": "data_spot",
    "data_source": "osm"
  },
  {
    "name": "福吉",
    "name_en": "Fukuyoshi",
    "lat": 33.5015927,
    "lng": 130.0796877,
    "category": "station",
    "prefecture": "saga",
    "osm_id": 265898978,
    "spot_type": "data_spot",
    "data_source": "osm"
  },
  {
    "name": "蒲池",
    "name_en": "Kamachi",
    "lat": 33.1896376,
    "lng": 130.4226307,
    "category": "station",
    "prefecture": "saga",
    "osm_id": 267462963,
    "spot_type": "data_spot",
    "data_source": "osm"
  },
  {
    "name": "鳴石",
    "name_en": "Naruishi",
    "lat": 33.2996385,
    "lng": 129.816694,
    "category": "station",
    "prefecture": "saga",
    "osm_id": 270856398,
    "spot_type": "data_spot",
    "data_source": "osm"
  },
  {
    "name": "金武",
    "name_en": "Kanatake",
    "lat": 33.2518039,
    "lng": 129.8544789,
    "category": "station",
    "prefecture": "saga",
    "osm_id": 270856463,
    "spot_type": "data_spot",
    "data_source": "osm"
  },
  {
    "name": "夫婦石",
    "name_en": "Meotoishi",
    "lat": 33.2372543,
    "lng": 129.8506151,
    "category": "station",
    "prefecture": "saga",
    "osm_id": 270856548,
    "spot_type": "data_spot",
    "data_source": "osm"
  },
  {
    "name": "川東",
    "name_en": "Kawahigashi",
    "lat": 33.267624,
    "lng": 129.864123,
    "category": "station",
    "prefecture": "saga",
    "osm_id": 270856725,
    "spot_type": "data_spot",
    "data_source": "osm"
  },
  {
    "name": "鷹島口",
    "name_en": "Takashimaguchi",
    "lat": 33.3541067,
    "lng": 129.7617713,
    "category": "station",
    "prefecture": "saga",
    "osm_id": 270856736,
    "spot_type": "data_spot",
    "data_source": "osm"
  },
  {
    "name": "今福",
    "name_en": "Imabuku",
    "lat": 33.3484353,
    "lng": 129.7718989,
    "category": "station",
    "prefecture": "saga",
    "osm_id": 270856744,
    "spot_type": "data_spot",
    "data_source": "osm"
  },
  {
    "name": "山谷",
    "name_en": "Yamadani",
    "lat": 33.2290695,
    "lng": 129.8491014,
    "category": "station",
    "prefecture": "saga",
    "osm_id": 270856748,
    "spot_type": "data_spot",
    "data_source": "osm"
  },
  {
    "name": "久原",
    "name_en": "Kubara",
    "lat": 33.3148676,
    "lng": 129.81155,
    "category": "station",
    "prefecture": "saga",
    "osm_id": 270857013,
    "spot_type": "data_spot",
    "data_source": "osm"
  },
  {
    "name": "西有田",
    "name_en": "NIshi-Arita",
    "lat": 33.2099976,
    "lng": 129.8500521,
    "category": "station",
    "prefecture": "saga",
    "osm_id": 270857161,
    "spot_type": "data_spot",
    "data_source": "osm"
  },
  {
    "name": "三代橋",
    "name_en": "Midaibashi",
    "lat": 33.1891592,
    "lng": 129.8656598,
    "category": "station",
    "prefecture": "saga",
    "osm_id": 270857171,
    "spot_type": "data_spot",
    "data_source": "osm"
  },
  {
    "name": "伊万里",
    "name_en": "Imari",
    "lat": 33.271839,
    "lng": 129.8772734,
    "category": "station",
    "prefecture": "saga",
    "osm_id": 270857585,
    "spot_type": "data_spot",
    "data_source": "osm"
  },
  {
    "name": "福島口",
    "name_en": "Fukushimaguchi",
    "lat": 33.3379647,
    "lng": 129.7903672,
    "category": "station",
    "prefecture": "saga",
    "osm_id": 270857738,
    "spot_type": "data_spot",
    "data_source": "osm"
  },
  {
    "name": "黒川",
    "name_en": "Kurogou",
    "lat": 33.1949099,
    "lng": 129.8555416,
    "category": "station",
    "prefecture": "saga",
    "osm_id": 270857764,
    "spot_type": "data_spot",
    "data_source": "osm"
  },
  {
    "name": "里",
    "name_en": "Sato",
    "lat": 33.2848731,
    "lng": 129.8354635,
    "category": "station",
    "prefecture": "saga",
    "osm_id": 270857953,
    "spot_type": "data_spot",
    "data_source": "osm"
  },
  {
    "name": "大木",
    "name_en": "Oogi",
    "lat": 33.2218071,
    "lng": 129.8499674,
    "category": "station",
    "prefecture": "saga",
    "osm_id": 270858225,
    "spot_type": "data_spot",
    "data_source": "osm"
  },
  {
    "name": "楠久",
    "name_en": "Kusuku",
    "lat": 33.2914152,
    "lng": 129.82674,
    "category": "station",
    "prefecture": "saga",
    "osm_id": 270858664,
    "spot_type": "data_spot",
    "data_source": "osm"
  },
  {
    "name": "浦ノ崎",
    "name_en": "Uranosaki",
    "lat": 33.3349804,
    "lng": 129.7929124,
    "category": "station",
    "prefecture": "saga",
    "osm_id": 270858875,
    "spot_type": "data_spot",
    "data_source": "osm"
  },
  {
    "name": "東山代",
    "name_en": "Higashi-Yamashiro",
    "lat": 33.2781443,
    "lng": 129.84574,
    "category": "station",
    "prefecture": "saga",
    "osm_id": 270858881,
    "spot_type": "data_spot",
    "data_source": "osm"
  },
  {
    "name": "波瀬",
    "name_en": "Haze",
    "lat": 33.3230012,
    "lng": 129.807266,
    "category": "station",
    "prefecture": "saga",
    "osm_id": 270859690,
    "spot_type": "data_spot",
    "data_source": "osm"
  },
  {
    "name": "蔵宿",
    "name_en": "Zoushuku",
    "lat": 33.2020578,
    "lng": 129.8505109,
    "category": "station",
    "prefecture": "saga",
    "osm_id": 270859700,
    "spot_type": "data_spot",
    "data_source": "osm"
  },
  {
    "name": "二日市",
    "name_en": "Futsukaichi",
    "lat": 33.4944306,
    "lng": 130.5187554,
    "category": "station",
    "prefecture": "saga",
    "osm_id": 473592443,
    "spot_type": "data_spot",
    "data_source": "osm"
  },
  {
    "name": "萬行寺",
    "name_en": "Mangyoji Temple",
    "lat": 33.5925365,
    "lng": 130.4117886,
    "category": "temple",
    "prefecture": "saga",
    "osm_id": 534043687,
    "spot_type": "data_spot",
    "data_source": "osm"
  },
  {
    "name": "乳峰禅寺",
    "name_en": "",
    "lat": 33.5953,
    "lng": 130.4153344,
    "category": "temple",
    "prefecture": "saga",
    "osm_id": 549976536,
    "spot_type": "data_spot",
    "data_source": "osm"
  },
  {
    "name": "日吉神社",
    "name_en": "",
    "lat": 33.5830267,
    "lng": 130.432309,
    "category": "shrine",
    "prefecture": "saga",
    "osm_id": 559389817,
    "spot_type": "data_spot",
    "data_source": "osm"
  },
  {
    "name": "地禄神社",
    "name_en": "",
    "lat": 33.581184,
    "lng": 130.4358885,
    "category": "shrine",
    "prefecture": "saga",
    "osm_id": 563789986,
    "spot_type": "data_spot",
    "data_source": "osm"
  },
  {
    "name": "大野城",
    "name_en": "Onojo",
    "lat": 33.525527,
    "lng": 130.4795263,
    "category": "station",
    "prefecture": "saga",
    "osm_id": 766763060,
    "spot_type": "data_spot",
    "data_source": "osm"
  },
  {
    "name": "紫",
    "name_en": "Murasaki",
    "lat": 33.4963998,
    "lng": 130.5221372,
    "category": "station",
    "prefecture": "saga",
    "osm_id": 766973807,
    "spot_type": "data_spot",
    "data_source": "osm"
  },
  {
    "name": "水城",
    "name_en": "Mizuki",
    "lat": 33.5178457,
    "lng": 130.4901901,
    "category": "station",
    "prefecture": "saga",
    "osm_id": 767175960,
    "spot_type": "data_spot",
    "data_source": "osm"
  },
  {
    "name": "春日",
    "name_en": "Kasuga",
    "lat": 33.5350966,
    "lng": 130.4688631,
    "category": "station",
    "prefecture": "saga",
    "osm_id": 772486285,
    "spot_type": "data_spot",
    "data_source": "osm"
  },
  {
    "name": "唐津",
    "name_en": "Karatsu",
    "lat": 33.4462729,
    "lng": 129.9677507,
    "category": "station",
    "prefecture": "saga",
    "osm_id": 778185118,
    "spot_type": "data_spot",
    "data_source": "osm"
  },
  {
    "name": "端間",
    "name_en": "Hatama",
    "lat": 33.3785125,
    "lng": 130.55077,
    "category": "station",
    "prefecture": "saga",
    "osm_id": 817508631,
    "spot_type": "data_spot",
    "data_source": "osm"
  },
  {
    "name": "基肄城跡",
    "name_en": "Kii Castle Ruins",
    "lat": 33.4449826,
    "lng": 130.5136221,
    "category": "castle",
    "prefecture": "saga",
    "osm_id": 839501989,
    "spot_type": "data_spot",
    "data_source": "osm"
  },
  {
    "name": "八雲神社",
    "name_en": "",
    "lat": 33.5672808,
    "lng": 130.2817567,
    "category": "shrine",
    "prefecture": "saga",
    "osm_id": 1026624189,
    "spot_type": "data_spot",
    "data_source": "osm"
  },
  {
    "name": "坂本八幡宮",
    "name_en": "Sakamoto Hachimangu Shrine",
    "lat": 33.5167742,
    "lng": 130.5134753,
    "category": "shrine",
    "prefecture": "saga",
    "osm_id": 1204189118,
    "spot_type": "data_spot",
    "data_source": "osm"
  },
  {
    "name": "太宰府市文化ふれあい館",
    "name_en": "Fureai Culture Museum",
    "lat": 33.5202557,
    "lng": 130.5095003,
    "category": "museum",
    "prefecture": "saga",
    "osm_id": 1205775433,
    "spot_type": "data_spot",
    "data_source": "osm"
  },
  {
    "name": "博多南",
    "name_en": "Hakata South",
    "lat": 33.5182232,
    "lng": 130.4366707,
    "category": "station",
    "prefecture": "saga",
    "osm_id": 1266239592,
    "spot_type": "data_spot",
    "data_source": "osm"
  },
  {
    "name": "伊都国歴史博物館",
    "name_en": "",
    "lat": 33.536327,
    "lng": 130.251445,
    "category": "museum",
    "prefecture": "saga",
    "osm_id": 1423756367,
    "spot_type": "data_spot",
    "data_source": "osm"
  },
  {
    "name": "伊都民俗資料館",
    "name_en": "",
    "lat": 33.536327,
    "lng": 130.251445,
    "category": "museum",
    "prefecture": "saga",
    "osm_id": 1423756368,
    "spot_type": "data_spot",
    "data_source": "osm"
  },
  {
    "name": "伊都郷土美術館",
    "name_en": "",
    "lat": 33.560563,
    "lng": 130.204713,
    "category": "museum",
    "prefecture": "saga",
    "osm_id": 1423756369,
    "spot_type": "data_spot",
    "data_source": "osm"
  },
  {
    "name": "古賀政男音楽博物館分館古賀政男記念館",
    "name_en": "",
    "lat": 33.1924903,
    "lng": 130.3836128,
    "category": "museum",
    "prefecture": "saga",
    "osm_id": 1423757717,
    "spot_type": "data_spot",
    "data_source": "osm"
  },
  {
    "name": "大牟田市動物園",
    "name_en": "",
    "lat": 33.020306,
    "lng": 130.444022,
    "category": "zoo",
    "prefecture": "saga",
    "osm_id": 1423758204,
    "spot_type": "data_spot",
    "data_source": "osm"
  },
  {
    "name": "大牟田市石炭産業科学館",
    "name_en": "",
    "lat": 33.031073,
    "lng": 130.424355,
    "category": "museum",
    "prefecture": "saga",
    "osm_id": 1423758215,
    "spot_type": "data_spot",
    "data_source": "osm"
  },
  {
    "name": "大牟田市立三池カルタ記念館;大牟田市立図書館",
    "name_en": "",
    "lat": 33.023391,
    "lng": 130.443671,
    "category": "museum",
    "prefecture": "saga",
    "osm_id": 1423758217,
    "spot_type": "data_spot",
    "data_source": "osm"
  },
  {
    "name": "大野城市歴史資料展示室",
    "name_en": "",
    "lat": 33.5362177,
    "lng": 130.4785768,
    "category": "museum",
    "prefecture": "saga",
    "osm_id": 1423758282,
    "spot_type": "data_spot",
    "data_source": "osm"
  },
  {
    "name": "太宰府市文化ふれあい館",
    "name_en": "Fureai Culture Museum",
    "lat": 33.520172,
    "lng": 130.509447,
    "category": "museum",
    "prefecture": "saga",
    "osm_id": 1423758320,
    "spot_type": "data_spot",
    "data_source": "osm"
  },
  {
    "name": "宇美八幡宮宝物殿",
    "name_en": "",
    "lat": 33.570543,
    "lng": 130.508522,
    "category": "museum",
    "prefecture": "saga",
    "osm_id": 1423758365,
    "spot_type": "data_spot",
    "data_source": "osm"
  },
  {
    "name": "宇美町立歴史民俗資料館",
    "name_en": "",
    "lat": 33.569694,
    "lng": 130.50896,
    "category": "museum",
    "prefecture": "saga",
    "osm_id": 1423758373,
    "spot_type": "data_spot",
    "data_source": "osm"
  },
  {
    "name": "岩戸山歴史資料館",
    "name_en": "",
    "lat": 33.2290359,
    "lng": 130.5524038,
    "category": "museum",
    "prefecture": "saga",
    "osm_id": 1423758855,
    "spot_type": "data_spot",
    "data_source": "osm"
  },
  {
    "name": "志免町歴史資料室",
    "name_en": "",
    "lat": 33.592274,
    "lng": 130.479053,
    "category": "museum",
    "prefecture": "saga",
    "osm_id": 1423760801,
    "spot_type": "data_spot",
    "data_source": "osm"
  },
  {
    "name": "志摩町歴史資料館",
    "name_en": "",
    "lat": 33.58302,
    "lng": 130.186548,
    "category": "museum",
    "prefecture": "saga",
    "osm_id": 1423760811,
    "spot_type": "data_spot",
    "data_source": "osm"
  },
  {
    "name": "春日奴国の丘歴史資料館",
    "name_en": "",
    "lat": 33.538067,
    "lng": 130.451837,
    "category": "museum",
    "prefecture": "saga",
    "osm_id": 1423761233,
    "spot_type": "data_spot",
    "data_source": "osm"
  },
  {
    "name": "瀬高町歴史資料館",
    "name_en": "",
    "lat": 33.153788,
    "lng": 130.476382,
    "category": "museum",
    "prefecture": "saga",
    "osm_id": 1423777054,
    "spot_type": "data_spot",
    "data_source": "osm"
  },
  {
    "name": "真木和泉守顕彰記念館",
    "name_en": "",
    "lat": 33.318247,
    "lng": 130.496332,
    "category": "museum",
    "prefecture": "saga",
    "osm_id": 1423779034,
    "spot_type": "data_spot",
    "data_source": "osm"
  },
  {
    "name": "石橋財団石橋美術館",
    "name_en": "",
    "lat": 33.312056,
    "lng": 130.5305337,
    "category": "museum",
    "prefecture": "saga",
    "osm_id": 1423779055,
    "spot_type": "data_spot",
    "data_source": "osm"
  },
  {
    "name": "福岡アジア美術館",
    "name_en": "Fukuoka Asian Art Museum",
    "lat": 33.594969,
    "lng": 130.405817,
    "category": "museum",
    "prefecture": "saga",
    "osm_id": 1423779941,
    "spot_type": "data_spot",
    "data_source": "osm"
  },
  {
    "name": "福岡市埋蔵文化財センター",
    "name_en": "",
    "lat": 33.555478,
    "lng": 130.462501,
    "category": "museum",
    "prefecture": "saga",
    "osm_id": 1423780639,
    "spot_type": "data_spot",
    "data_source": "osm"
  },
  {
    "name": "福岡県立糸島高等学校郷土博物館",
    "name_en": "",
    "lat": 33.557416,
    "lng": 130.210329,
    "category": "museum",
    "prefecture": "saga",
    "osm_id": 1423781544,
    "spot_type": "data_spot",
    "data_source": "osm"
  },
  {
    "name": "福岡県立美術館",
    "name_en": "",
    "lat": 33.597265,
    "lng": 130.398732,
    "category": "museum",
    "prefecture": "saga",
    "osm_id": 1423781545,
    "spot_type": "data_spot",
    "data_source": "osm"
  },
  {
    "name": "筑紫野市歴史博物館（ふるさと館ちくしの）",
    "name_en": "",
    "lat": 33.490747,
    "lng": 130.51925,
    "category": "museum",
    "prefecture": "saga",
    "osm_id": 1423782129,
    "spot_type": "data_spot",
    "data_source": "osm"
  },
  {
    "name": "須惠町立歴史民俗資料館",
    "name_en": "",
    "lat": 33.59187,
    "lng": 130.524475,
    "category": "museum",
    "prefecture": "saga",
    "osm_id": 1423784532,
    "spot_type": "data_spot",
    "data_source": "osm"
  },
  {
    "name": "ハウステンボス美術館・博物館",
    "name_en": "Palace Huis Ten Bosch",
    "lat": 33.0795856,
    "lng": 129.7835755,
    "category": "museum",
    "prefecture": "saga",
    "osm_id": 1423797459,
    "spot_type": "data_spot",
    "data_source": "osm"
  },
  {
    "name": "上峰町郷土資料館",
    "name_en": "",
    "lat": 33.320076,
    "lng": 130.4228171,
    "category": "museum",
    "prefecture": "saga",
    "osm_id": 1423797741,
    "spot_type": "data_spot",
    "data_source": "osm"
  },
  {
    "name": "中冨記念くすり博物館",
    "name_en": "",
    "lat": 33.397805,
    "lng": 130.510751,
    "category": "museum",
    "prefecture": "saga",
    "osm_id": 1423797860,
    "spot_type": "data_spot",
    "data_source": "osm"
  },
  {
    "name": "今右衛門古陶磁美術館",
    "name_en": "",
    "lat": 33.1878487,
    "lng": 129.8961817,
    "category": "museum",
    "prefecture": "saga",
    "osm_id": 1423798499,
    "spot_type": "data_spot",
    "data_source": "osm"
  },
  {
    "name": "伊万里・鍋島ギャラリー",
    "name_en": "",
    "lat": 33.2718807,
    "lng": 129.8762116,
    "category": "museum",
    "prefecture": "saga",
    "osm_id": 1423798549,
    "spot_type": "data_spot",
    "data_source": "osm"
  },
  {
    "name": "伊万里市歴史民俗資料館",
    "name_en": "",
    "lat": 33.27971,
    "lng": 129.878474,
    "category": "museum",
    "prefecture": "saga",
    "osm_id": 1423798584,
    "spot_type": "data_spot",
    "data_source": "osm"
  },
  {
    "name": "佐世保市世知原炭鉱資料館",
    "name_en": "",
    "lat": 33.255539,
    "lng": 129.750124,
    "category": "museum",
    "prefecture": "saga",
    "osm_id": 1423798960,
    "spot_type": "data_spot",
    "data_source": "osm"
  },
  {
    "name": "佐賀市文化財資料館",
    "name_en": "",
    "lat": 33.239353,
    "lng": 130.28232,
    "category": "museum",
    "prefecture": "saga",
    "osm_id": 1423799749,
    "spot_type": "data_spot",
    "data_source": "osm"
  },
  {
    "name": "佐賀県立九州陶磁文化館",
    "name_en": "",
    "lat": 33.179011,
    "lng": 129.880574,
    "category": "museum",
    "prefecture": "saga",
    "osm_id": 1423799812,
    "spot_type": "data_spot",
    "data_source": "osm"
  },
  {
    "name": "佐賀県立名護屋城博物館",
    "name_en": "Saga Prefectural Museum of Nagoya Castle",
    "lat": 33.5276739,
    "lng": 129.8702292,
    "category": "museum",
    "prefecture": "saga",
    "osm_id": 1423799816,
    "spot_type": "data_spot",
    "data_source": "osm"
  },
  {
    "name": "唐津曳山展示場",
    "name_en": "",
    "lat": 33.4518676,
    "lng": 129.9688981,
    "category": "museum",
    "prefecture": "saga",
    "osm_id": 1423801020,
    "spot_type": "data_spot",
    "data_source": "osm"
  },
  {
    "name": "多久市郷土資料館",
    "name_en": "",
    "lat": 33.271521,
    "lng": 130.10109,
    "category": "museum",
    "prefecture": "saga",
    "osm_id": 1423801713,
    "spot_type": "data_spot",
    "data_source": "osm"
  },
  {
    "name": "太良町歴史民俗資料館",
    "name_en": "",
    "lat": 33.0198446,
    "lng": 130.1796999,
    "category": "museum",
    "prefecture": "saga",
    "osm_id": 1423802109,
    "spot_type": "data_spot",
    "data_source": "osm"
  },
  {
    "name": "小城市立歴史資料館",
    "name_en": "Ogi City Historical Museum",
    "lat": 33.2885426,
    "lng": 130.1984983,
    "category": "museum",
    "prefecture": "saga",
    "osm_id": 1423802427,
    "spot_type": "data_spot",
    "data_source": "osm"
  },
  {
    "name": "小笠原記念館",
    "name_en": "",
    "lat": 33.449893,
    "lng": 129.965843,
    "category": "museum",
    "prefecture": "saga",
    "osm_id": 1423802536,
    "spot_type": "data_spot",
    "data_source": "osm"
  },
  {
    "name": "徐福長寿館",
    "name_en": "",
    "lat": 33.329917,
    "lng": 130.308151,
    "category": "museum",
    "prefecture": "saga",
    "osm_id": 1423804458,
    "spot_type": "data_spot",
    "data_source": "osm"
  },
  {
    "name": "有田ポーセリンパーク",
    "name_en": "",
    "lat": 33.164637,
    "lng": 129.908242,
    "category": "museum",
    "prefecture": "saga",
    "osm_id": 1423805631,
    "spot_type": "data_spot",
    "data_source": "osm"
  },
  {
    "name": "有田町歴史民俗資料館",
    "name_en": "",
    "lat": 33.195076,
    "lng": 129.91104,
    "category": "museum",
    "prefecture": "saga",
    "osm_id": 1423805646,
    "spot_type": "data_spot",
    "data_source": "osm"
  },
  {
    "name": "有田町歴史民族資料館西館",
    "name_en": "",
    "lat": 33.2111295,
    "lng": 129.848565,
    "category": "museum",
    "prefecture": "saga",
    "osm_id": 1423805650,
    "spot_type": "data_spot",
    "data_source": "osm"
  },
  {
    "name": "東彼杵町歴史民俗資料館",
    "name_en": "",
    "lat": 33.035106,
    "lng": 129.919956,
    "category": "museum",
    "prefecture": "saga",
    "osm_id": 1423806156,
    "spot_type": "data_spot",
    "data_source": "osm"
  },
  {
    "name": "松浦市立福島歴史民俗資料館",
    "name_en": "",
    "lat": 33.365243,
    "lng": 129.824706,
    "category": "museum",
    "prefecture": "saga",
    "osm_id": 1423806672,
    "spot_type": "data_spot",
    "data_source": "osm"
  },
  {
    "name": "松浦市立鷹島歴史民俗資料館",
    "name_en": "",
    "lat": 33.436424,
    "lng": 129.762361,
    "category": "museum",
    "prefecture": "saga",
    "osm_id": 1423806680,
    "spot_type": "data_spot",
    "data_source": "osm"
  },
  {
    "name": "江北町郷土資料館",
    "name_en": "",
    "lat": 33.220439,
    "lng": 130.157361,
    "category": "museum",
    "prefecture": "saga",
    "osm_id": 1423807188,
    "spot_type": "data_spot",
    "data_source": "osm"
  },
  {
    "name": "河村美術館",
    "name_en": "",
    "lat": 33.453257,
    "lng": 129.971706,
    "category": "museum",
    "prefecture": "saga",
    "osm_id": 1423807284,
    "spot_type": "data_spot",
    "data_source": "osm"
  },
  {
    "name": "玄海エネルギーパーク",
    "name_en": "",
    "lat": 33.51533,
    "lng": 129.840365,
    "category": "museum",
    "prefecture": "saga",
    "osm_id": 1423809279,
    "spot_type": "data_spot",
    "data_source": "osm"
  },
  {
    "name": "荒尾総合文化センター子ども科学館",
    "name_en": "",
    "lat": 32.984678,
    "lng": 130.463977,
    "category": "museum",
    "prefecture": "saga",
    "osm_id": 1423817378,
    "spot_type": "data_spot",
    "data_source": "osm"
  },
  {
    "name": "長崎バイオパーク",
    "name_en": "Nagasaki Bio Park",
    "lat": 32.988442,
    "lng": 129.78648,
    "category": "zoo",
    "prefecture": "saga",
    "osm_id": 1423820495,
    "spot_type": "data_spot",
    "data_source": "osm"
  },
  {
    "name": "名称不明",
    "name_en": "",
    "lat": 33.585863,
    "lng": 130.4175136,
    "category": "onsen",
    "prefecture": "saga",
    "osm_id": 1626347260,
    "spot_type": "data_spot",
    "data_source": "osm"
  },
  {
    "name": "水田天満宮 Mizuta Shine",
    "name_en": "Mizuta Shine",
    "lat": 33.1986101,
    "lng": 130.4856992,
    "category": "shrine",
    "prefecture": "saga",
    "osm_id": 1662553153,
    "spot_type": "data_spot",
    "data_source": "osm"
  },
  {
    "name": "櫛原天満宮",
    "name_en": "",
    "lat": 33.3229244,
    "lng": 130.5220903,
    "category": "shrine",
    "prefecture": "saga",
    "osm_id": 1718670599,
    "spot_type": "data_spot",
    "data_source": "osm"
  },
  {
    "name": "浄源寺",
    "name_en": "",
    "lat": 33.2051645,
    "lng": 129.8491503,
    "category": "temple",
    "prefecture": "saga",
    "osm_id": 1746704761,
    "spot_type": "data_spot",
    "data_source": "osm"
  },
  {
    "name": "竜泉寺",
    "name_en": "",
    "lat": 33.2200945,
    "lng": 129.8500887,
    "category": "temple",
    "prefecture": "saga",
    "osm_id": 1750454021,
    "spot_type": "data_spot",
    "data_source": "osm"
  },
  {
    "name": "八坂神社",
    "name_en": "",
    "lat": 33.5900602,
    "lng": 130.2204099,
    "category": "shrine",
    "prefecture": "saga",
    "osm_id": 1754877036,
    "spot_type": "data_spot",
    "data_source": "osm"
  },
  {
    "name": "炎の博記念堂",
    "name_en": "",
    "lat": 33.1886498,
    "lng": 129.8559914,
    "category": "museum",
    "prefecture": "saga",
    "osm_id": 1786061145,
    "spot_type": "data_spot",
    "data_source": "osm"
  },
  {
    "name": "八坂神社",
    "name_en": "",
    "lat": 33.2015012,
    "lng": 129.8493911,
    "category": "shrine",
    "prefecture": "saga",
    "osm_id": 1801289234,
    "spot_type": "data_spot",
    "data_source": "osm"
  },
  {
    "name": "天満宮",
    "name_en": "",
    "lat": 33.1927388,
    "lng": 129.9018933,
    "category": "shrine",
    "prefecture": "saga",
    "osm_id": 1850971915,
    "spot_type": "data_spot",
    "data_source": "osm"
  },
  {
    "name": "弘法寺",
    "name_en": "",
    "lat": 33.2621655,
    "lng": 130.2954056,
    "category": "temple",
    "prefecture": "saga",
    "osm_id": 1872315827,
    "spot_type": "data_spot",
    "data_source": "osm"
  },
  {
    "name": "篠山城址",
    "name_en": "Kurume Castle Ruins",
    "lat": 33.3281542,
    "lng": 130.5078037,
    "category": "castle",
    "prefecture": "saga",
    "osm_id": 1928819532,
    "spot_type": "data_spot",
    "data_source": "osm"
  },
  {
    "name": "新鳥栖",
    "name_en": "Shin-Tosu",
    "lat": 33.3697912,
    "lng": 130.4914166,
    "category": "station",
    "prefecture": "saga",
    "osm_id": 2011577951,
    "spot_type": "data_spot",
    "data_source": "osm"
  },
  {
    "name": "寒若寺",
    "name_en": "",
    "lat": 33.2378206,
    "lng": 130.3060364,
    "category": "temple",
    "prefecture": "saga",
    "osm_id": 2024167262,
    "spot_type": "data_spot",
    "data_source": "osm"
  },
  {
    "name": "正教寺",
    "name_en": "",
    "lat": 33.2550287,
    "lng": 130.3127959,
    "category": "temple",
    "prefecture": "saga",
    "osm_id": 2024639263,
    "spot_type": "data_spot",
    "data_source": "osm"
  },
  {
    "name": "長専寺",
    "name_en": "",
    "lat": 33.2548796,
    "lng": 130.3132224,
    "category": "temple",
    "prefecture": "saga",
    "osm_id": 2024640860,
    "spot_type": "data_spot",
    "data_source": "osm"
  },
  {
    "name": "水月禅寺",
    "name_en": "",
    "lat": 33.2463862,
    "lng": 130.2920249,
    "category": "temple",
    "prefecture": "saga",
    "osm_id": 2024650443,
    "spot_type": "data_spot",
    "data_source": "osm"
  },
  {
    "name": "善定寺",
    "name_en": "",
    "lat": 33.2458119,
    "lng": 130.292159,
    "category": "temple",
    "prefecture": "saga",
    "osm_id": 2024650563,
    "spot_type": "data_spot",
    "data_source": "osm"
  },
  {
    "name": "与賀神社",
    "name_en": "",
    "lat": 33.2488679,
    "lng": 130.2948509,
    "category": "shrine",
    "prefecture": "saga",
    "osm_id": 2024652131,
    "spot_type": "data_spot",
    "data_source": "osm"
  },
  {
    "name": "光照寺",
    "name_en": "",
    "lat": 33.2498137,
    "lng": 130.294809,
    "category": "temple",
    "prefecture": "saga",
    "osm_id": 2024652679,
    "spot_type": "data_spot",
    "data_source": "osm"
  },
  {
    "name": "恵徳院",
    "name_en": "",
    "lat": 33.2556934,
    "lng": 130.3062655,
    "category": "temple",
    "prefecture": "saga",
    "osm_id": 2055633695,
    "spot_type": "data_spot",
    "data_source": "osm"
  },
  {
    "name": "長徳禅寺",
    "name_en": "",
    "lat": 33.2549173,
    "lng": 130.310321,
    "category": "temple",
    "prefecture": "saga",
    "osm_id": 2055635552,
    "spot_type": "data_spot",
    "data_source": "osm"
  },
  {
    "name": "浄照寺",
    "name_en": "",
    "lat": 33.2550541,
    "lng": 130.308591,
    "category": "temple",
    "prefecture": "saga",
    "osm_id": 2055635553,
    "spot_type": "data_spot",
    "data_source": "osm"
  },
  {
    "name": "光福寺",
    "name_en": "",
    "lat": 33.2560837,
    "lng": 130.3089048,
    "category": "temple",
    "prefecture": "saga",
    "osm_id": 2055635554,
    "spot_type": "data_spot",
    "data_source": "osm"
  },
  {
    "name": "正蓮寺",
    "name_en": "",
    "lat": 33.255339,
    "lng": 130.309865,
    "category": "temple",
    "prefecture": "saga",
    "osm_id": 2055635555,
    "spot_type": "data_spot",
    "data_source": "osm"
  },
  {
    "name": "本覚院",
    "name_en": "",
    "lat": 33.2558773,
    "lng": 130.3099616,
    "category": "temple",
    "prefecture": "saga",
    "osm_id": 2055635556,
    "spot_type": "data_spot",
    "data_source": "osm"
  },
  {
    "name": "専福寺",
    "name_en": "Senpuku-ji Temple",
    "lat": 33.2544051,
    "lng": 130.307348,
    "category": "temple",
    "prefecture": "saga",
    "osm_id": 2055637098,
    "spot_type": "data_spot",
    "data_source": "osm"
  },
  {
    "name": "安楽寺",
    "name_en": "",
    "lat": 33.2519344,
    "lng": 130.3116488,
    "category": "temple",
    "prefecture": "saga",
    "osm_id": 2055736761,
    "spot_type": "data_spot",
    "data_source": "osm"
  },
  {
    "name": "本経寺",
    "name_en": "",
    "lat": 33.2527441,
    "lng": 130.3102273,
    "category": "temple",
    "prefecture": "saga",
    "osm_id": 2055737493,
    "spot_type": "data_spot",
    "data_source": "osm"
  },
  {
    "name": "日天神社",
    "name_en": "",
    "lat": 33.2529476,
    "lng": 130.3103895,
    "category": "shrine",
    "prefecture": "saga",
    "osm_id": 2055738794,
    "spot_type": "data_spot",
    "data_source": "osm"
  },
  {
    "name": "瑞竜寺",
    "name_en": "",
    "lat": 33.2499313,
    "lng": 130.3146448,
    "category": "temple",
    "prefecture": "saga",
    "osm_id": 2055739631,
    "spot_type": "data_spot",
    "data_source": "osm"
  },
  {
    "name": "正覚寺",
    "name_en": "",
    "lat": 33.2491014,
    "lng": 130.3104767,
    "category": "temple",
    "prefecture": "saga",
    "osm_id": 2055775163,
    "spot_type": "data_spot",
    "data_source": "osm"
  },
  {
    "name": "妙安寺",
    "name_en": "",
    "lat": 33.2502925,
    "lng": 130.293049,
    "category": "temple",
    "prefecture": "saga",
    "osm_id": 2055776387,
    "spot_type": "data_spot",
    "data_source": "osm"
  },
  {
    "name": "東郷平八郎書石碑",
    "name_en": "Togo Heihachiro Stone Monument",
    "lat": 33.5304234,
    "lng": 129.8693085,
    "category": "castle",
    "prefecture": "saga",
    "osm_id": 2460168003,
    "spot_type": "data_spot",
    "data_source": "osm"
  },
  {
    "name": "明善寺",
    "name_en": "",
    "lat": 33.270453,
    "lng": 129.869001,
    "category": "temple",
    "prefecture": "saga",
    "osm_id": 2516185281,
    "spot_type": "data_spot",
    "data_source": "osm"
  },
  {
    "name": "西福寺",
    "name_en": "",
    "lat": 33.3138866,
    "lng": 130.5092598,
    "category": "temple",
    "prefecture": "saga",
    "osm_id": 2516916613,
    "spot_type": "data_spot",
    "data_source": "osm"
  },
  {
    "name": "日吉神社",
    "name_en": "Hiyoshi Shrine",
    "lat": 33.320652,
    "lng": 130.503821,
    "category": "shrine",
    "prefecture": "saga",
    "osm_id": 2516921194,
    "spot_type": "data_spot",
    "data_source": "osm"
  },
  {
    "name": "妙法寺",
    "name_en": "",
    "lat": 33.554976,
    "lng": 130.199182,
    "category": "temple",
    "prefecture": "saga",
    "osm_id": 2517038090,
    "spot_type": "data_spot",
    "data_source": "osm"
  },
  {
    "name": "照光寺",
    "name_en": "",
    "lat": 33.555838,
    "lng": 130.200942,
    "category": "temple",
    "prefecture": "saga",
    "osm_id": 2517038597,
    "spot_type": "data_spot",
    "data_source": "osm"
  },
  {
    "name": "本勝寺",
    "name_en": "",
    "lat": 33.447597,
    "lng": 129.967595,
    "category": "temple",
    "prefecture": "saga",
    "osm_id": 2517054123,
    "spot_type": "data_spot",
    "data_source": "osm"
  },
  {
    "name": "行因寺",
    "name_en": "",
    "lat": 33.4484052,
    "lng": 129.968431,
    "category": "temple",
    "prefecture": "saga",
    "osm_id": 2517056444,
    "spot_type": "data_spot",
    "data_source": "osm"
  },
  {
    "name": "名称不明",
    "name_en": "",
    "lat": 33.442204,
    "lng": 129.984025,
    "category": "temple",
    "prefecture": "saga",
    "osm_id": 2517060308,
    "spot_type": "data_spot",
    "data_source": "osm"
  },
  {
    "name": "五穀神社",
    "name_en": "",
    "lat": 33.3160505,
    "lng": 130.5258951,
    "category": "shrine",
    "prefecture": "saga",
    "osm_id": 2517068206,
    "spot_type": "data_spot",
    "data_source": "osm"
  },
  {
    "name": "風水神社",
    "name_en": "",
    "lat": 33.310614,
    "lng": 130.536938,
    "category": "shrine",
    "prefecture": "saga",
    "osm_id": 2517076424,
    "spot_type": "data_spot",
    "data_source": "osm"
  },
  {
    "name": "高良山下宮社",
    "name_en": "",
    "lat": 33.3053835,
    "lng": 130.5540974,
    "category": "shrine",
    "prefecture": "saga",
    "osm_id": 2614124304,
    "spot_type": "data_spot",
    "data_source": "osm"
  },
  {
    "name": "鹿家",
    "name_en": "",
    "lat": 33.4843844,
    "lng": 130.0474654,
    "category": "station",
    "prefecture": "saga",
    "osm_id": 2733538857,
    "spot_type": "data_spot",
    "data_source": "osm"
  },
  {
    "name": "火山薬師瑠璃光寺",
    "name_en": "",
    "lat": 33.5979442,
    "lng": 130.1670316,
    "category": "temple",
    "prefecture": "saga",
    "osm_id": 2749850752,
    "spot_type": "data_spot",
    "data_source": "osm"
  },
  {
    "name": "妙国寺",
    "name_en": "",
    "lat": 32.9990367,
    "lng": 130.4426902,
    "category": "temple",
    "prefecture": "saga",
    "osm_id": 2769166583,
    "spot_type": "data_spot",
    "data_source": "osm"
  },
  {
    "name": "名称不明",
    "name_en": "",
    "lat": 33.2111607,
    "lng": 130.4387489,
    "category": "shrine",
    "prefecture": "saga",
    "osm_id": 2790320075,
    "spot_type": "data_spot",
    "data_source": "osm"
  },
  {
    "name": "名称不明",
    "name_en": "",
    "lat": 33.275824,
    "lng": 130.4742932,
    "category": "shrine",
    "prefecture": "saga",
    "osm_id": 2793663356,
    "spot_type": "data_spot",
    "data_source": "osm"
  },
  {
    "name": "名称不明",
    "name_en": "",
    "lat": 33.3936846,
    "lng": 130.156899,
    "category": "temple",
    "prefecture": "saga",
    "osm_id": 2854460355,
    "spot_type": "data_spot",
    "data_source": "osm"
  },
  {
    "name": "長崎バイオパーク",
    "name_en": "",
    "lat": 32.9881943,
    "lng": 129.783301,
    "category": "zoo",
    "prefecture": "saga",
    "osm_id": 2905890225,
    "spot_type": "data_spot",
    "data_source": "osm"
  },
  {
    "name": "岬神社",
    "name_en": "",
    "lat": 33.555619,
    "lng": 129.8463148,
    "category": "shrine",
    "prefecture": "saga",
    "osm_id": 2910212502,
    "spot_type": "data_spot",
    "data_source": "osm"
  },
  {
    "name": "波戸岬灯台",
    "name_en": "",
    "lat": 33.5554833,
    "lng": 129.8464199,
    "category": "lighthouse",
    "prefecture": "saga",
    "osm_id": 2910212503,
    "spot_type": "data_spot",
    "data_source": "osm"
  },
  {
    "name": "下内野六地蔵",
    "name_en": "",
    "lat": 33.202574,
    "lng": 129.845355,
    "category": "shrine",
    "prefecture": "saga",
    "osm_id": 2949002533,
    "spot_type": "data_spot",
    "data_source": "osm"
  },
  {
    "name": "若竹神社",
    "name_en": "",
    "lat": 33.2697585,
    "lng": 129.8871866,
    "category": "shrine",
    "prefecture": "saga",
    "osm_id": 2949074433,
    "spot_type": "data_spot",
    "data_source": "osm"
  },
  {
    "name": "石橋美術館 別館",
    "name_en": "",
    "lat": 33.3127552,
    "lng": 130.5304217,
    "category": "museum",
    "prefecture": "saga",
    "osm_id": 3011799969,
    "spot_type": "data_spot",
    "data_source": "osm"
  },
  {
    "name": "足湯",
    "name_en": "Foot Bath",
    "lat": 33.5877983,
    "lng": 130.3995541,
    "category": "onsen",
    "prefecture": "saga",
    "osm_id": 3210240834,
    "spot_type": "data_spot",
    "data_source": "osm"
  },
  {
    "name": "勝立寺",
    "name_en": "Shoryuji Temple",
    "lat": 33.593461,
    "lng": 130.4008729,
    "category": "temple",
    "prefecture": "saga",
    "osm_id": 3210271732,
    "spot_type": "data_spot",
    "data_source": "osm"
  },
  {
    "name": "上杉景勝陣跡",
    "name_en": "",
    "lat": 33.5419119,
    "lng": 129.8540039,
    "category": "castle",
    "prefecture": "saga",
    "osm_id": 3298400760,
    "spot_type": "data_spot",
    "data_source": "osm"
  },
  {
    "name": "九鬼守隆陣跡",
    "name_en": "",
    "lat": 33.5366395,
    "lng": 129.8599513,
    "category": "castle",
    "prefecture": "saga",
    "osm_id": 3298400961,
    "spot_type": "data_spot",
    "data_source": "osm"
  },
  {
    "name": "島津義弘陣跡",
    "name_en": "",
    "lat": 33.5481335,
    "lng": 129.8492871,
    "category": "castle",
    "prefecture": "saga",
    "osm_id": 3298400962,
    "spot_type": "data_spot",
    "data_source": "osm"
  },
  {
    "name": "徳川家康陣跡",
    "name_en": "",
    "lat": 33.5335309,
    "lng": 129.8754909,
    "category": "castle",
    "prefecture": "saga",
    "osm_id": 3298400963,
    "spot_type": "data_spot",
    "data_source": "osm"
  },
  {
    "name": "生駒親正陣跡",
    "name_en": "",
    "lat": 33.5498768,
    "lng": 129.855043,
    "category": "castle",
    "prefecture": "saga",
    "osm_id": 3298400964,
    "spot_type": "data_spot",
    "data_source": "osm"
  },
  {
    "name": "宝琳院",
    "name_en": "",
    "lat": 33.2403412,
    "lng": 130.2972906,
    "category": "temple",
    "prefecture": "saga",
    "osm_id": 3386134078,
    "spot_type": "data_spot",
    "data_source": "osm"
  },
  {
    "name": "現人神社",
    "name_en": "",
    "lat": 33.5063633,
    "lng": 130.424512,
    "category": "shrine",
    "prefecture": "saga",
    "osm_id": 3427650168,
    "spot_type": "data_spot",
    "data_source": "osm"
  },
  {
    "name": "立花家史料館",
    "name_en": "Tachibana Museum",
    "lat": 33.1587783,
    "lng": 130.3971773,
    "category": "museum",
    "prefecture": "saga",
    "osm_id": 3478445254,
    "spot_type": "data_spot",
    "data_source": "osm"
  },
  {
    "name": "唐人神社",
    "name_en": "",
    "lat": 33.2585671,
    "lng": 130.2986486,
    "category": "shrine",
    "prefecture": "saga",
    "osm_id": 3554351788,
    "spot_type": "data_spot",
    "data_source": "osm"
  },
  {
    "name": "厳浄寺",
    "name_en": "",
    "lat": 33.2571855,
    "lng": 130.2999479,
    "category": "temple",
    "prefecture": "saga",
    "osm_id": 3554418827,
    "spot_type": "data_spot",
    "data_source": "osm"
  },
  {
    "name": "博多",
    "name_en": "Hakata",
    "lat": 33.5900436,
    "lng": 130.4203556,
    "category": "station",
    "prefecture": "saga",
    "osm_id": 3637038754,
    "spot_type": "data_spot",
    "data_source": "osm"
  },
  {
    "name": "柳川城天守台阯",
    "name_en": "The site of Yanagawa Castle Donjon foundation",
    "lat": 33.1609793,
    "lng": 130.4011825,
    "category": "castle",
    "prefecture": "saga",
    "osm_id": 3651082798,
    "spot_type": "data_spot",
    "data_source": "osm"
  },
  {
    "name": "水天宮",
    "name_en": "Suitengu Shrine",
    "lat": 33.1587698,
    "lng": 130.3950806,
    "category": "shrine",
    "prefecture": "saga",
    "osm_id": 3652790537,
    "spot_type": "data_spot",
    "data_source": "osm"
  },
  {
    "name": "三柱神社",
    "name_en": "Mihashira Shrine",
    "lat": 33.1578617,
    "lng": 130.3990644,
    "category": "shrine",
    "prefecture": "saga",
    "osm_id": 3653753832,
    "spot_type": "data_spot",
    "data_source": "osm"
  },
  {
    "name": "展望大浴場",
    "name_en": "fine view large public baths",
    "lat": 33.1568937,
    "lng": 130.3994399,
    "category": "onsen",
    "prefecture": "saga",
    "osm_id": 3654797800,
    "spot_type": "data_spot",
    "data_source": "osm"
  },
  {
    "name": "家族風呂",
    "name_en": "family baths",
    "lat": 33.1568513,
    "lng": 130.400275,
    "category": "onsen",
    "prefecture": "saga",
    "osm_id": 3654799329,
    "spot_type": "data_spot",
    "data_source": "osm"
  },
  {
    "name": "やながわ有明海水族館",
    "name_en": "Okinohata Aquarium",
    "lat": 33.1592065,
    "lng": 130.395169,
    "category": "zoo",
    "prefecture": "saga",
    "osm_id": 3655576177,
    "spot_type": "data_spot",
    "data_source": "osm"
  },
  {
    "name": "矢留大神宮",
    "name_en": "Yadomi Grand Shrine",
    "lat": 33.1576221,
    "lng": 130.3945553,
    "category": "shrine",
    "prefecture": "saga",
    "osm_id": 3655576202,
    "spot_type": "data_spot",
    "data_source": "osm"
  },
  {
    "name": "真勝寺",
    "name_en": "Shinsho-ji Temple",
    "lat": 33.162636,
    "lng": 130.4132203,
    "category": "temple",
    "prefecture": "saga",
    "osm_id": 3656615985,
    "spot_type": "data_spot",
    "data_source": "osm"
  },
  {
    "name": "水の資料館",
    "name_en": "Museum of Water",
    "lat": 33.1641216,
    "lng": 130.4088213,
    "category": "museum",
    "prefecture": "saga",
    "osm_id": 3657145681,
    "spot_type": "data_spot",
    "data_source": "osm"
  },
  {
    "name": "三柱神社",
    "name_en": "Mihashira Shrine",
    "lat": 33.1703115,
    "lng": 130.4151859,
    "category": "shrine",
    "prefecture": "saga",
    "osm_id": 3657145745,
    "spot_type": "data_spot",
    "data_source": "osm"
  },
  {
    "name": "八幡神社",
    "name_en": "Hachiman Shrine",
    "lat": 33.1571418,
    "lng": 130.3968916,
    "category": "shrine",
    "prefecture": "saga",
    "osm_id": 3659262258,
    "spot_type": "data_spot",
    "data_source": "osm"
  },
  {
    "name": "観音堂",
    "name_en": "Kannon-do Hall",
    "lat": 33.1578957,
    "lng": 130.3945309,
    "category": "temple",
    "prefecture": "saga",
    "osm_id": 3659262525,
    "spot_type": "data_spot",
    "data_source": "osm"
  },
  {
    "name": "風浪神社",
    "name_en": "Furo Shrine",
    "lat": 33.1604505,
    "lng": 130.4138547,
    "category": "shrine",
    "prefecture": "saga",
    "osm_id": 3661043905,
    "spot_type": "data_spot",
    "data_source": "osm"
  },
  {
    "name": "柳川古文書館",
    "name_en": "Yanagawa Archives",
    "lat": 33.1651557,
    "lng": 130.4135522,
    "category": "museum",
    "prefecture": "saga",
    "osm_id": 3661047699,
    "spot_type": "data_spot",
    "data_source": "osm"
  },
  {
    "name": "西方寺",
    "name_en": "Saiho-ji Temple",
    "lat": 33.1683507,
    "lng": 130.4090375,
    "category": "temple",
    "prefecture": "saga",
    "osm_id": 3661050447,
    "spot_type": "data_spot",
    "data_source": "osm"
  },
  {
    "name": "本光寺",
    "name_en": "Honko-ji Temple",
    "lat": 33.1657441,
    "lng": 130.4103487,
    "category": "temple",
    "prefecture": "saga",
    "osm_id": 3661053491,
    "spot_type": "data_spot",
    "data_source": "osm"
  },
  {
    "name": "浄華寺",
    "name_en": "Joke-ji Temple",
    "lat": 33.1679987,
    "lng": 130.4131023,
    "category": "temple",
    "prefecture": "saga",
    "osm_id": 3661058025,
    "spot_type": "data_spot",
    "data_source": "osm"
  },
  {
    "name": "松月文人館",
    "name_en": "Shogetsu Writers Museum",
    "lat": 33.1671311,
    "lng": 130.4153476,
    "category": "museum",
    "prefecture": "saga",
    "osm_id": 3661058027,
    "spot_type": "data_spot",
    "data_source": "osm"
  },
  {
    "name": "長命寺",
    "name_en": "Chomei-ji Temple",
    "lat": 33.1621671,
    "lng": 130.4095311,
    "category": "temple",
    "prefecture": "saga",
    "osm_id": 3661063902,
    "spot_type": "data_spot",
    "data_source": "osm"
  },
  {
    "name": "日吉神社",
    "name_en": "Hiyoshi Shrine",
    "lat": 33.1633277,
    "lng": 130.4024233,
    "category": "shrine",
    "prefecture": "saga",
    "osm_id": 3661065764,
    "spot_type": "data_spot",
    "data_source": "osm"
  },
  {
    "name": "福厳寺",
    "name_en": "Fukugon-ji Temple",
    "lat": 33.1586924,
    "lng": 130.4054639,
    "category": "temple",
    "prefecture": "saga",
    "osm_id": 3661066428,
    "spot_type": "data_spot",
    "data_source": "osm"
  },
  {
    "name": "天叟寺",
    "name_en": "Tenso-ji Temple",
    "lat": 33.1667921,
    "lng": 130.4039812,
    "category": "temple",
    "prefecture": "saga",
    "osm_id": 3661072795,
    "spot_type": "data_spot",
    "data_source": "osm"
  },
  {
    "name": "瑞松院",
    "name_en": "Zuisho-in Temple",
    "lat": 33.1670869,
    "lng": 130.4050873,
    "category": "temple",
    "prefecture": "saga",
    "osm_id": 3661074828,
    "spot_type": "data_spot",
    "data_source": "osm"
  },
  {
    "name": "良清寺",
    "name_en": "Ryosei-ji Temple",
    "lat": 33.1677472,
    "lng": 130.4050969,
    "category": "temple",
    "prefecture": "saga",
    "osm_id": 3661074829,
    "spot_type": "data_spot",
    "data_source": "osm"
  },
  {
    "name": "光照寺",
    "name_en": "Kosho-ji Temple",
    "lat": 33.1663496,
    "lng": 130.411887,
    "category": "temple",
    "prefecture": "saga",
    "osm_id": 3663416803,
    "spot_type": "data_spot",
    "data_source": "osm"
  },
  {
    "name": "常光寺",
    "name_en": "Joko-ji Temple",
    "lat": 33.1657592,
    "lng": 130.4118527,
    "category": "temple",
    "prefecture": "saga",
    "osm_id": 3663416804,
    "spot_type": "data_spot",
    "data_source": "osm"
  },
  {
    "name": "長栄寺",
    "name_en": "Choei-ji Temple",
    "lat": 33.1666431,
    "lng": 130.4117876,
    "category": "temple",
    "prefecture": "saga",
    "osm_id": 3663416808,
    "spot_type": "data_spot",
    "data_source": "osm"
  },
  {
    "name": "柳川護国神社",
    "name_en": "Yanagawa Gokoku Shrine",
    "lat": 33.1691395,
    "lng": 130.4149956,
    "category": "shrine",
    "prefecture": "saga",
    "osm_id": 3663416818,
    "spot_type": "data_spot",
    "data_source": "osm"
  },
  {
    "name": "玉樹院",
    "name_en": "Gyokuju-in Temple",
    "lat": 33.1703987,
    "lng": 130.4055164,
    "category": "temple",
    "prefecture": "saga",
    "osm_id": 3663416819,
    "spot_type": "data_spot",
    "data_source": "osm"
  },
  {
    "name": "二宮神社",
    "name_en": "Ninomiya Shrine",
    "lat": 33.1608826,
    "lng": 130.3934336,
    "category": "shrine",
    "prefecture": "saga",
    "osm_id": 3663441731,
    "spot_type": "data_spot",
    "data_source": "osm"
  },
  {
    "name": "八剣神社",
    "name_en": "Yatsurugi Shrine",
    "lat": 33.1691127,
    "lng": 130.4083008,
    "category": "shrine",
    "prefecture": "saga",
    "osm_id": 3666912715,
    "spot_type": "data_spot",
    "data_source": "osm"
  },
  {
    "name": "台照院",
    "name_en": "Taisho-in Temple",
    "lat": 33.1689107,
    "lng": 130.4053535,
    "category": "temple",
    "prefecture": "saga",
    "osm_id": 3669337138,
    "spot_type": "data_spot",
    "data_source": "osm"
  },
  {
    "name": "報恩寺",
    "name_en": "Houon-ji Temple",
    "lat": 33.1683237,
    "lng": 130.4051507,
    "category": "temple",
    "prefecture": "saga",
    "osm_id": 3669337145,
    "spot_type": "data_spot",
    "data_source": "osm"
  },
  {
    "name": "聖寿寺",
    "name_en": "Shoju-ji Temple",
    "lat": 33.1686551,
    "lng": 130.404928,
    "category": "temple",
    "prefecture": "saga",
    "osm_id": 3669337146,
    "spot_type": "data_spot",
    "data_source": "osm"
  },
  {
    "name": "妙経寺",
    "name_en": "Myokyo-ji Temple",
    "lat": 33.170309,
    "lng": 130.4050517,
    "category": "temple",
    "prefecture": "saga",
    "osm_id": 3669337161,
    "spot_type": "data_spot",
    "data_source": "osm"
  },
  {
    "name": "光樹寺",
    "name_en": "Koju-ji Temple",
    "lat": 33.1676228,
    "lng": 130.4043625,
    "category": "temple",
    "prefecture": "saga",
    "osm_id": 3669337162,
    "spot_type": "data_spot",
    "data_source": "osm"
  },
  {
    "name": "西光寺",
    "name_en": "Saiko-ji Temple",
    "lat": 33.1688266,
    "lng": 130.4035446,
    "category": "temple",
    "prefecture": "saga",
    "osm_id": 3669337165,
    "spot_type": "data_spot",
    "data_source": "osm"
  },
  {
    "name": "常楽庵",
    "name_en": "Remains of Joraku-en Temple",
    "lat": 33.1679814,
    "lng": 130.4036054,
    "category": "temple",
    "prefecture": "saga",
    "osm_id": 3669337169,
    "spot_type": "data_spot",
    "data_source": "osm"
  },
  {
    "name": "西琳寺",
    "name_en": "Sairin-ji Temple",
    "lat": 33.1702947,
    "lng": 130.4027679,
    "category": "temple",
    "prefecture": "saga",
    "osm_id": 3669337173,
    "spot_type": "data_spot",
    "data_source": "osm"
  },
  {
    "name": "明尊寺",
    "name_en": "Myoson-ji Temple",
    "lat": 33.1705751,
    "lng": 130.4065444,
    "category": "temple",
    "prefecture": "saga",
    "osm_id": 3669337176,
    "spot_type": "data_spot",
    "data_source": "osm"
  },
  {
    "name": "西覚寺",
    "name_en": "Saikaku-ji Temple",
    "lat": 33.170808,
    "lng": 130.4105948,
    "category": "temple",
    "prefecture": "saga",
    "osm_id": 3669584827,
    "spot_type": "data_spot",
    "data_source": "osm"
  },
  {
    "name": "光國寺",
    "name_en": "Kokoku-ji Temple",
    "lat": 33.1589574,
    "lng": 130.3962539,
    "category": "temple",
    "prefecture": "saga",
    "osm_id": 3669631581,
    "spot_type": "data_spot",
    "data_source": "osm"
  },
  {
    "name": "西福寺",
    "name_en": "Saifuku-ji Temple",
    "lat": 33.1583476,
    "lng": 130.3953359,
    "category": "temple",
    "prefecture": "saga",
    "osm_id": 3669631584,
    "spot_type": "data_spot",
    "data_source": "osm"
  },
  {
    "name": "順光寺",
    "name_en": "Junko-ji Temple",
    "lat": 33.1685027,
    "lng": 130.4101155,
    "category": "temple",
    "prefecture": "saga",
    "osm_id": 3670442739,
    "spot_type": "data_spot",
    "data_source": "osm"
  },
  {
    "name": "宮地嶽神社",
    "name_en": "Miyajidake Shrine",
    "lat": 33.1706962,
    "lng": 130.4138132,
    "category": "shrine",
    "prefecture": "saga",
    "osm_id": 3671105236,
    "spot_type": "data_spot",
    "data_source": "osm"
  },
  {
    "name": "厳島神社（弁財天）",
    "name_en": "Itsukushima Shrine (Benzaiten)",
    "lat": 33.1706068,
    "lng": 130.4140326,
    "category": "shrine",
    "prefecture": "saga",
    "osm_id": 3671105237,
    "spot_type": "data_spot",
    "data_source": "osm"
  },
  {
    "name": "地福寺",
    "name_en": "Jifuku-ji Temple",
    "lat": 33.1682439,
    "lng": 130.4176741,
    "category": "temple",
    "prefecture": "saga",
    "osm_id": 3674812525,
    "spot_type": "data_spot",
    "data_source": "osm"
  },
  {
    "name": "淡島神社",
    "name_en": "Awashima Shrine",
    "lat": 33.1650587,
    "lng": 130.4133508,
    "category": "shrine",
    "prefecture": "saga",
    "osm_id": 3676213573,
    "spot_type": "data_spot",
    "data_source": "osm"
  },
  {
    "name": "天満神社",
    "name_en": "Tenman Shrine",
    "lat": 33.1610758,
    "lng": 130.4107874,
    "category": "shrine",
    "prefecture": "saga",
    "osm_id": 3676246582,
    "spot_type": "data_spot",
    "data_source": "osm"
  },
  {
    "name": "大神宮",
    "name_en": "Daijingu (Grand Shrine)",
    "lat": 33.1656409,
    "lng": 130.41127,
    "category": "shrine",
    "prefecture": "saga",
    "osm_id": 3676345482,
    "spot_type": "data_spot",
    "data_source": "osm"
  },
  {
    "name": "若宮神社",
    "name_en": "Wakamiya Shrine",
    "lat": 33.1686635,
    "lng": 130.401345,
    "category": "shrine",
    "prefecture": "saga",
    "osm_id": 3679619025,
    "spot_type": "data_spot",
    "data_source": "osm"
  },
  {
    "name": "志賀神社",
    "name_en": "Shika Shrine",
    "lat": 33.1614576,
    "lng": 130.3923945,
    "category": "shrine",
    "prefecture": "saga",
    "osm_id": 3679638633,
    "spot_type": "data_spot",
    "data_source": "osm"
  },
  {
    "name": "太郎稲荷神社",
    "name_en": "Taro Inari Shrine",
    "lat": 33.1632467,
    "lng": 130.4034255,
    "category": "shrine",
    "prefecture": "saga",
    "osm_id": 3679661694,
    "spot_type": "data_spot",
    "data_source": "osm"
  },
  {
    "name": "稲荷神社",
    "name_en": "Inari Shrine",
    "lat": 33.1705445,
    "lng": 130.4070279,
    "category": "shrine",
    "prefecture": "saga",
    "osm_id": 3679845223,
    "spot_type": "data_spot",
    "data_source": "osm"
  },
  {
    "name": "稲生神社",
    "name_en": "Inari Shrine",
    "lat": 33.1685335,
    "lng": 130.404336,
    "category": "shrine",
    "prefecture": "saga",
    "osm_id": 3679952965,
    "spot_type": "data_spot",
    "data_source": "osm"
  },
  {
    "name": "一杯地蔵",
    "name_en": "Ippai Jizo Hall",
    "lat": 33.1654057,
    "lng": 130.4093447,
    "category": "temple",
    "prefecture": "saga",
    "osm_id": 3681386556,
    "spot_type": "data_spot",
    "data_source": "osm"
  },
  {
    "name": "風浪神社",
    "name_en": "Furo Shrine",
    "lat": 33.163362,
    "lng": 130.4136182,
    "category": "shrine",
    "prefecture": "saga",
    "osm_id": 3682008550,
    "spot_type": "data_spot",
    "data_source": "osm"
  },
  {
    "name": "正応寺",
    "name_en": "Shoo-ji Temple",
    "lat": 33.1624941,
    "lng": 130.4124613,
    "category": "temple",
    "prefecture": "saga",
    "osm_id": 3682008551,
    "spot_type": "data_spot",
    "data_source": "osm"
  },
  {
    "name": "光善寺",
    "name_en": "Kozen-ji Temple",
    "lat": 33.1624584,
    "lng": 130.4118371,
    "category": "temple",
    "prefecture": "saga",
    "osm_id": 3682008552,
    "spot_type": "data_spot",
    "data_source": "osm"
  },
  {
    "name": "浄勝寺",
    "name_en": "Josho-ji Temple",
    "lat": 33.1624114,
    "lng": 130.4114693,
    "category": "temple",
    "prefecture": "saga",
    "osm_id": 3682008553,
    "spot_type": "data_spot",
    "data_source": "osm"
  },
  {
    "name": "観音堂",
    "name_en": "Kannon",
    "lat": 33.1682416,
    "lng": 130.4117505,
    "category": "temple",
    "prefecture": "saga",
    "osm_id": 3682236603,
    "spot_type": "data_spot",
    "data_source": "osm"
  },
  {
    "name": "専念寺",
    "name_en": "Sennen-ji Temple",
    "lat": 33.1679417,
    "lng": 130.409338,
    "category": "temple",
    "prefecture": "saga",
    "osm_id": 3682236604,
    "spot_type": "data_spot",
    "data_source": "osm"
  },
  {
    "name": "善定寺",
    "name_en": "Zentei-ji Temple",
    "lat": 33.1680688,
    "lng": 130.408892,
    "category": "temple",
    "prefecture": "saga",
    "osm_id": 3682236607,
    "spot_type": "data_spot",
    "data_source": "osm"
  },
  {
    "name": "天満神社",
    "name_en": "Tenman Shrine",
    "lat": 33.1721076,
    "lng": 130.4028685,
    "category": "shrine",
    "prefecture": "saga",
    "osm_id": 3682504964,
    "spot_type": "data_spot",
    "data_source": "osm"
  },
  {
    "name": "観音堂",
    "name_en": "Kannon-do Hall",
    "lat": 33.1720642,
    "lng": 130.4028509,
    "category": "temple",
    "prefecture": "saga",
    "osm_id": 3682504965,
    "spot_type": "data_spot",
    "data_source": "osm"
  },
  {
    "name": "長善寺",
    "name_en": "Chozen-ji Temple",
    "lat": 33.1599477,
    "lng": 130.3920593,
    "category": "temple",
    "prefecture": "saga",
    "osm_id": 3682504969,
    "spot_type": "data_spot",
    "data_source": "osm"
  },
  {
    "name": "等応寺",
    "name_en": "Too-ji Temple",
    "lat": 33.164207,
    "lng": 130.393194,
    "category": "temple",
    "prefecture": "saga",
    "osm_id": 3682504972,
    "spot_type": "data_spot",
    "data_source": "osm"
  },
  {
    "name": "九社神社",
    "name_en": "Kusha (9 shrines) Shrine",
    "lat": 33.1662874,
    "lng": 130.3941914,
    "category": "shrine",
    "prefecture": "saga",
    "osm_id": 3682505276,
    "spot_type": "data_spot",
    "data_source": "osm"
  },
  {
    "name": "龍神宮",
    "name_en": "Ryu (dragon) Shrine",
    "lat": 33.1587929,
    "lng": 130.3909029,
    "category": "shrine",
    "prefecture": "saga",
    "osm_id": 3682554336,
    "spot_type": "data_spot",
    "data_source": "osm"
  },
  {
    "name": "常願寺",
    "name_en": "Jogan-ji Temple",
    "lat": 33.1582115,
    "lng": 130.3919205,
    "category": "temple",
    "prefecture": "saga",
    "osm_id": 3682554341,
    "spot_type": "data_spot",
    "data_source": "osm"
  },
  {
    "name": "龍神宮",
    "name_en": "Ryu (dragon) Shrine",
    "lat": 33.1513945,
    "lng": 130.3868773,
    "category": "shrine",
    "prefecture": "saga",
    "osm_id": 3682554350,
    "spot_type": "data_spot",
    "data_source": "osm"
  },
  {
    "name": "専念寺",
    "name_en": "Sennen-ji Temple",
    "lat": 33.1573161,
    "lng": 130.3958894,
    "category": "temple",
    "prefecture": "saga",
    "osm_id": 3682872205,
    "spot_type": "data_spot",
    "data_source": "osm"
  },
  {
    "name": "多福寺",
    "name_en": "Tafuku-ji Temple",
    "lat": 33.1560158,
    "lng": 130.3958989,
    "category": "temple",
    "prefecture": "saga",
    "osm_id": 3682988092,
    "spot_type": "data_spot",
    "data_source": "osm"
  },
  {
    "name": "日吉神社",
    "name_en": "Hie Shrine",
    "lat": 33.1543991,
    "lng": 130.3986925,
    "category": "shrine",
    "prefecture": "saga",
    "osm_id": 3682988111,
    "spot_type": "data_spot",
    "data_source": "osm"
  },
  {
    "name": "玉垂神社",
    "name_en": "Tamatare Shrine",
    "lat": 33.1538709,
    "lng": 130.3990414,
    "category": "shrine",
    "prefecture": "saga",
    "osm_id": 3682988120,
    "spot_type": "data_spot",
    "data_source": "osm"
  },
  {
    "name": "感應院",
    "name_en": "Kanno-in Temple",
    "lat": 33.1535784,
    "lng": 130.3989853,
    "category": "temple",
    "prefecture": "saga",
    "osm_id": 3682989325,
    "spot_type": "data_spot",
    "data_source": "osm"
  },
  {
    "name": "金台寺",
    "name_en": "Kondai-ji Temple",
    "lat": 33.1541713,
    "lng": 130.398694,
    "category": "temple",
    "prefecture": "saga",
    "osm_id": 3682989330,
    "spot_type": "data_spot",
    "data_source": "osm"
  },
  {
    "name": "不動堂",
    "name_en": "Fudo-do Hall",
    "lat": 33.1609172,
    "lng": 130.3933313,
    "category": "temple",
    "prefecture": "saga",
    "osm_id": 3683282325,
    "spot_type": "data_spot",
    "data_source": "osm"
  },
  {
    "name": "十一面観音堂",
    "name_en": "Hall of Eleven-faced Kannon",
    "lat": 33.1603524,
    "lng": 130.3920673,
    "category": "temple",
    "prefecture": "saga",
    "osm_id": 3683422908,
    "spot_type": "data_spot",
    "data_source": "osm"
  },
  {
    "name": "耳塚地蔵",
    "name_en": "Mimizuka Jizo",
    "lat": 33.1568999,
    "lng": 130.3916482,
    "category": "temple",
    "prefecture": "saga",
    "osm_id": 3683602942,
    "spot_type": "data_spot",
    "data_source": "osm"
  },
  {
    "name": "照明寺",
    "name_en": "Shomyo-ji Temple",
    "lat": 33.1604868,
    "lng": 130.3969612,
    "category": "temple",
    "prefecture": "saga",
    "osm_id": 3684892408,
    "spot_type": "data_spot",
    "data_source": "osm"
  },
  {
    "name": "恵比寿神社",
    "name_en": "Ebisu Shrine",
    "lat": 33.158271,
    "lng": 130.3901346,
    "category": "shrine",
    "prefecture": "saga",
    "osm_id": 3685389145,
    "spot_type": "data_spot",
    "data_source": "osm"
  },
  {
    "name": "観音堂",
    "name_en": "Kannon-do Hall",
    "lat": 33.1701905,
    "lng": 130.4057104,
    "category": "temple",
    "prefecture": "saga",
    "osm_id": 3693534612,
    "spot_type": "data_spot",
    "data_source": "osm"
  },
  {
    "name": "天満神社",
    "name_en": "Tenman Shrine",
    "lat": 33.1702994,
    "lng": 130.4058243,
    "category": "shrine",
    "prefecture": "saga",
    "osm_id": 3693534613,
    "spot_type": "data_spot",
    "data_source": "osm"
  },
  {
    "name": "願照寺",
    "name_en": "Gansho-ji Temple",
    "lat": 33.157693,
    "lng": 130.3958664,
    "category": "temple",
    "prefecture": "saga",
    "osm_id": 3696199829,
    "spot_type": "data_spot",
    "data_source": "osm"
  },
  {
    "name": "金刀比羅神社",
    "name_en": "Kotohira Shrine",
    "lat": 33.1634488,
    "lng": 130.4028627,
    "category": "shrine",
    "prefecture": "saga",
    "osm_id": 3699551654,
    "spot_type": "data_spot",
    "data_source": "osm"
  },
  {
    "name": "諸神祇社",
    "name_en": "Shrine for gods of heaven and earth",
    "lat": 33.1631442,
    "lng": 130.4021472,
    "category": "shrine",
    "prefecture": "saga",
    "osm_id": 3699551655,
    "spot_type": "data_spot",
    "data_source": "osm"
  },
  {
    "name": "観音堂",
    "name_en": "Kannon-do Hall",
    "lat": 33.1699122,
    "lng": 130.4085379,
    "category": "temple",
    "prefecture": "saga",
    "osm_id": 3699628571,
    "spot_type": "data_spot",
    "data_source": "osm"
  },
  {
    "name": "一光稲荷神社",
    "name_en": "Ikko Inari Shrine",
    "lat": 33.1701268,
    "lng": 130.4057728,
    "category": "shrine",
    "prefecture": "saga",
    "osm_id": 3699628581,
    "spot_type": "data_spot",
    "data_source": "osm"
  },
  {
    "name": "棚倉稲荷神社",
    "name_en": "Tanakura Inari Shrine",
    "lat": 33.1681656,
    "lng": 130.4055126,
    "category": "shrine",
    "prefecture": "saga",
    "osm_id": 3699628604,
    "spot_type": "data_spot",
    "data_source": "osm"
  },
  {
    "name": "名称不明",
    "name_en": "",
    "lat": 33.1646901,
    "lng": 130.4129228,
    "category": "shrine",
    "prefecture": "saga",
    "osm_id": 3700454188,
    "spot_type": "data_spot",
    "data_source": "osm"
  },
  {
    "name": "玄碩社",
    "name_en": "Genseki Hall",
    "lat": 33.1667849,
    "lng": 130.4104469,
    "category": "temple",
    "prefecture": "saga",
    "osm_id": 3700455828,
    "spot_type": "data_spot",
    "data_source": "osm"
  },
  {
    "name": "天満神社",
    "name_en": "Tenman Shrine",
    "lat": 33.1552769,
    "lng": 130.4017743,
    "category": "shrine",
    "prefecture": "saga",
    "osm_id": 3704425938,
    "spot_type": "data_spot",
    "data_source": "osm"
  },
  {
    "name": "稲荷神社",
    "name_en": "Inari Shrine",
    "lat": 33.1543166,
    "lng": 130.401587,
    "category": "shrine",
    "prefecture": "saga",
    "osm_id": 3704425941,
    "spot_type": "data_spot",
    "data_source": "osm"
  },
  {
    "name": "観音堂",
    "name_en": "Kannon-do Hall",
    "lat": 33.153801,
    "lng": 130.4015876,
    "category": "temple",
    "prefecture": "saga",
    "osm_id": 3704425945,
    "spot_type": "data_spot",
    "data_source": "osm"
  },
  {
    "name": "十一面観音堂",
    "name_en": "Hall of Eleven-faced Kannon",
    "lat": 33.1536472,
    "lng": 130.3991078,
    "category": "temple",
    "prefecture": "saga",
    "osm_id": 3704739031,
    "spot_type": "data_spot",
    "data_source": "osm"
  },
  {
    "name": "太郎稲荷神社",
    "name_en": "Taro-inari Shrine",
    "lat": 33.1692897,
    "lng": 130.4083551,
    "category": "shrine",
    "prefecture": "saga",
    "osm_id": 3710060498,
    "spot_type": "data_spot",
    "data_source": "osm"
  },
  {
    "name": "天満神社",
    "name_en": "Tenman Shrine",
    "lat": 33.1538699,
    "lng": 130.3992407,
    "category": "shrine",
    "prefecture": "saga",
    "osm_id": 3710097440,
    "spot_type": "data_spot",
    "data_source": "osm"
  },
  {
    "name": "伏見稲荷神社",
    "name_en": "Fushimi-inari Shrine",
    "lat": 33.1603673,
    "lng": 130.3967059,
    "category": "shrine",
    "prefecture": "saga",
    "osm_id": 3710097448,
    "spot_type": "data_spot",
    "data_source": "osm"
  },
  {
    "name": "観音堂",
    "name_en": "Kannon-do Hall",
    "lat": 33.1604552,
    "lng": 130.4150126,
    "category": "temple",
    "prefecture": "saga",
    "osm_id": 3712994572,
    "spot_type": "data_spot",
    "data_source": "osm"
  },
  {
    "name": "名称不明",
    "name_en": "",
    "lat": 33.1751736,
    "lng": 130.4047774,
    "category": "temple",
    "prefecture": "saga",
    "osm_id": 3714263024,
    "spot_type": "data_spot",
    "data_source": "osm"
  },
  {
    "name": "八坂神社",
    "name_en": "Yasaka Shrine",
    "lat": 33.1783071,
    "lng": 130.4108557,
    "category": "shrine",
    "prefecture": "saga",
    "osm_id": 3714263426,
    "spot_type": "data_spot",
    "data_source": "osm"
  },
  {
    "name": "三嶋神社",
    "name_en": "Mishima Shrine",
    "lat": 33.1855359,
    "lng": 130.4020032,
    "category": "shrine",
    "prefecture": "saga",
    "osm_id": 3714358544,
    "spot_type": "data_spot",
    "data_source": "osm"
  },
  {
    "name": "崇久寺",
    "name_en": "Sokyu-ji Temple",
    "lat": 33.1852773,
    "lng": 130.4053194,
    "category": "temple",
    "prefecture": "saga",
    "osm_id": 3714435583,
    "spot_type": "data_spot",
    "data_source": "osm"
  },
  {
    "name": "鷹尾神社",
    "name_en": "Takao Shrine",
    "lat": 33.1297998,
    "lng": 130.441521,
    "category": "shrine",
    "prefecture": "saga",
    "osm_id": 3714435588,
    "spot_type": "data_spot",
    "data_source": "osm"
  },
  {
    "name": "日子山神社",
    "name_en": "Hikosan Shrine",
    "lat": 33.1604792,
    "lng": 130.3898243,
    "category": "shrine",
    "prefecture": "saga",
    "osm_id": 3720375324,
    "spot_type": "data_spot",
    "data_source": "osm"
  },
  {
    "name": "実才寺",
    "name_en": "Jissai-ji Temple",
    "lat": 33.160578,
    "lng": 130.3899795,
    "category": "temple",
    "prefecture": "saga",
    "osm_id": 3720377539,
    "spot_type": "data_spot",
    "data_source": "osm"
  },
  {
    "name": "若宮神社",
    "name_en": "Wakamiya Shrine",
    "lat": 33.1682788,
    "lng": 130.3924291,
    "category": "shrine",
    "prefecture": "saga",
    "osm_id": 3720377547,
    "spot_type": "data_spot",
    "data_source": "osm"
  },
  {
    "name": "三嶋神社",
    "name_en": "Mishima Shrine",
    "lat": 33.176151,
    "lng": 130.3965649,
    "category": "shrine",
    "prefecture": "saga",
    "osm_id": 3720438469,
    "spot_type": "data_spot",
    "data_source": "osm"
  },
  {
    "name": "最照院",
    "name_en": "Saisho-in Temple",
    "lat": 33.1676651,
    "lng": 130.4192005,
    "category": "temple",
    "prefecture": "saga",
    "osm_id": 3720438517,
    "spot_type": "data_spot",
    "data_source": "osm"
  },
  {
    "name": "天満神社",
    "name_en": "Tenman Shrine",
    "lat": 33.1682784,
    "lng": 130.4175116,
    "category": "shrine",
    "prefecture": "saga",
    "osm_id": 3721156191,
    "spot_type": "data_spot",
    "data_source": "osm"
  },
  {
    "name": "王太夫神社",
    "name_en": "Odayu Shrine",
    "lat": 33.1681739,
    "lng": 130.4182486,
    "category": "shrine",
    "prefecture": "saga",
    "osm_id": 3721156646,
    "spot_type": "data_spot",
    "data_source": "osm"
  },
  {
    "name": "恵比寿神社",
    "name_en": "Ebisu Shrine",
    "lat": 33.169196,
    "lng": 130.4075066,
    "category": "shrine",
    "prefecture": "saga",
    "osm_id": 3724092099,
    "spot_type": "data_spot",
    "data_source": "osm"
  },
  {
    "name": "大神宮",
    "name_en": "Daijingu (Grand Shrine)",
    "lat": 33.1705419,
    "lng": 130.4070942,
    "category": "shrine",
    "prefecture": "saga",
    "osm_id": 3724092107,
    "spot_type": "data_spot",
    "data_source": "osm"
  },
  {
    "name": "恵比寿神社",
    "name_en": "Ebisu Shrine",
    "lat": 33.1705341,
    "lng": 130.4070547,
    "category": "shrine",
    "prefecture": "saga",
    "osm_id": 3724092110,
    "spot_type": "data_spot",
    "data_source": "osm"
  },
  {
    "name": "観音堂",
    "name_en": "Kannon-do Hall",
    "lat": 33.170956,
    "lng": 130.4086254,
    "category": "temple",
    "prefecture": "saga",
    "osm_id": 3724262421,
    "spot_type": "data_spot",
    "data_source": "osm"
  },
  {
    "name": "天満神社",
    "name_en": "Tenman Shrine",
    "lat": 33.1722118,
    "lng": 130.4082851,
    "category": "shrine",
    "prefecture": "saga",
    "osm_id": 3724313766,
    "spot_type": "data_spot",
    "data_source": "osm"
  },
  {
    "name": "観音堂",
    "name_en": "Kannon-do Hall",
    "lat": 33.1721014,
    "lng": 130.4082382,
    "category": "temple",
    "prefecture": "saga",
    "osm_id": 3724313767,
    "spot_type": "data_spot",
    "data_source": "osm"
  },
  {
    "name": "橋本大神宮",
    "name_en": "Hashimoto Daijingu (Grand Shrine)",
    "lat": 33.1735101,
    "lng": 130.4080024,
    "category": "shrine",
    "prefecture": "saga",
    "osm_id": 3724313774,
    "spot_type": "data_spot",
    "data_source": "osm"
  },
  {
    "name": "因福寺",
    "name_en": "Inpuku-ji Temple",
    "lat": 33.1292212,
    "lng": 130.4425111,
    "category": "temple",
    "prefecture": "saga",
    "osm_id": 3728311826,
    "spot_type": "data_spot",
    "data_source": "osm"
  },
  {
    "name": "熊野神社",
    "name_en": "Kumano Shrine",
    "lat": 33.165737,
    "lng": 130.4295705,
    "category": "shrine",
    "prefecture": "saga",
    "osm_id": 3728560431,
    "spot_type": "data_spot",
    "data_source": "osm"
  },
  {
    "name": "玉の湯",
    "name_en": "Tama-no-yu",
    "lat": 33.1670979,
    "lng": 130.4069153,
    "category": "onsen",
    "prefecture": "saga",
    "osm_id": 3730375839,
    "spot_type": "data_spot",
    "data_source": "osm"
  },
  {
    "name": "名称不明",
    "name_en": "",
    "lat": 33.1656721,
    "lng": 130.4110724,
    "category": "temple",
    "prefecture": "saga",
    "osm_id": 3730580245,
    "spot_type": "data_spot",
    "data_source": "osm"
  },
  {
    "name": "道了神社",
    "name_en": "Michiryo Shrine",
    "lat": 33.1703983,
    "lng": 130.4158522,
    "category": "shrine",
    "prefecture": "saga",
    "osm_id": 3731180572,
    "spot_type": "data_spot",
    "data_source": "osm"
  },
  {
    "name": "名称不明",
    "name_en": "",
    "lat": 33.1705071,
    "lng": 130.4148822,
    "category": "shrine",
    "prefecture": "saga",
    "osm_id": 3731446527,
    "spot_type": "data_spot",
    "data_source": "osm"
  },
  {
    "name": "天満神社",
    "name_en": "Tenman Shrine",
    "lat": 33.1603001,
    "lng": 130.4134937,
    "category": "shrine",
    "prefecture": "saga",
    "osm_id": 3733106491,
    "spot_type": "data_spot",
    "data_source": "osm"
  },
  {
    "name": "天満神社・出の神宮",
    "name_en": "Tenman Shrine",
    "lat": 33.1521138,
    "lng": 130.4103877,
    "category": "shrine",
    "prefecture": "saga",
    "osm_id": 3736279994,
    "spot_type": "data_spot",
    "data_source": "osm"
  },
  {
    "name": "観音堂",
    "name_en": "Kannon-do Hall",
    "lat": 33.1521303,
    "lng": 130.4106417,
    "category": "temple",
    "prefecture": "saga",
    "osm_id": 3736279995,
    "spot_type": "data_spot",
    "data_source": "osm"
  },
  {
    "name": "稲荷神社",
    "name_en": "Inari Shrine",
    "lat": 33.1580467,
    "lng": 130.3945017,
    "category": "shrine",
    "prefecture": "saga",
    "osm_id": 3736816398,
    "spot_type": "data_spot",
    "data_source": "osm"
  },
  {
    "name": "水天宮",
    "name_en": "Suiten-gu Shrine",
    "lat": 33.1788936,
    "lng": 130.3950935,
    "category": "shrine",
    "prefecture": "saga",
    "osm_id": 3749214918,
    "spot_type": "data_spot",
    "data_source": "osm"
  },
  {
    "name": "手掘神社",
    "name_en": "Tebori Shrine",
    "lat": 33.181456,
    "lng": 130.3764619,
    "category": "shrine",
    "prefecture": "saga",
    "osm_id": 3749727736,
    "spot_type": "data_spot",
    "data_source": "osm"
  },
  {
    "name": "島田天満宮",
    "name_en": "Shimada Tenman Shrine",
    "lat": 33.1634401,
    "lng": 130.4378855,
    "category": "shrine",
    "prefecture": "saga",
    "osm_id": 3751013485,
    "spot_type": "data_spot",
    "data_source": "osm"
  },
  {
    "name": "八坂神社",
    "name_en": "Yasaka Shrine",
    "lat": 33.1634913,
    "lng": 130.4379623,
    "category": "shrine",
    "prefecture": "saga",
    "osm_id": 3751013491,
    "spot_type": "data_spot",
    "data_source": "osm"
  },
  {
    "name": "東林寺",
    "name_en": "",
    "lat": 33.587142,
    "lng": 130.416115,
    "category": "temple",
    "prefecture": "saga",
    "osm_id": 3751263925,
    "spot_type": "data_spot",
    "data_source": "osm"
  },
  {
    "name": "松林堂",
    "name_en": "Shorin-do Hall",
    "lat": 33.1700386,
    "lng": 130.4045681,
    "category": "temple",
    "prefecture": "saga",
    "osm_id": 3753533429,
    "spot_type": "data_spot",
    "data_source": "osm"
  },
  {
    "name": "事代主神社",
    "name_en": "Kotoshironushi Shrine",
    "lat": 33.1710394,
    "lng": 130.4060841,
    "category": "shrine",
    "prefecture": "saga",
    "osm_id": 3753533430,
    "spot_type": "data_spot",
    "data_source": "osm"
  },
  {
    "name": "有田陶磁美術館",
    "name_en": "",
    "lat": 33.1904701,
    "lng": 129.8987623,
    "category": "museum",
    "prefecture": "saga",
    "osm_id": 3755776811,
    "spot_type": "data_spot",
    "data_source": "osm"
  },
  {
    "name": "陶山神社",
    "name_en": "",
    "lat": 33.1889412,
    "lng": 129.8992894,
    "category": "shrine",
    "prefecture": "saga",
    "osm_id": 3755901803,
    "spot_type": "data_spot",
    "data_source": "osm"
  },
  {
    "name": "心源寺",
    "name_en": "Shingen-ji Temple",
    "lat": 33.1586568,
    "lng": 130.4330689,
    "category": "temple",
    "prefecture": "saga",
    "osm_id": 3764689288,
    "spot_type": "data_spot",
    "data_source": "osm"
  },
  {
    "name": "玉ノ宮",
    "name_en": "Tamanomiya Shrine",
    "lat": 33.169119,
    "lng": 130.4071418,
    "category": "shrine",
    "prefecture": "saga",
    "osm_id": 3766554617,
    "spot_type": "data_spot",
    "data_source": "osm"
  },
  {
    "name": "妙見堂",
    "name_en": "Myoken-do Hall",
    "lat": 33.1691542,
    "lng": 130.4058628,
    "category": "temple",
    "prefecture": "saga",
    "osm_id": 3766554631,
    "spot_type": "data_spot",
    "data_source": "osm"
  },
  {
    "name": "稲荷神社",
    "name_en": "Inari Shrine",
    "lat": 33.167644,
    "lng": 130.4142407,
    "category": "shrine",
    "prefecture": "saga",
    "osm_id": 3771287705,
    "spot_type": "data_spot",
    "data_source": "osm"
  },
  {
    "name": "八剣神社",
    "name_en": "Yatsurugi Shrine",
    "lat": 33.1226663,
    "lng": 130.4391889,
    "category": "shrine",
    "prefecture": "saga",
    "osm_id": 3777576305,
    "spot_type": "data_spot",
    "data_source": "osm"
  },
  {
    "name": "天満神社",
    "name_en": "Tenman Shrine",
    "lat": 33.1757982,
    "lng": 130.4129948,
    "category": "shrine",
    "prefecture": "saga",
    "osm_id": 3784067364,
    "spot_type": "data_spot",
    "data_source": "osm"
  },
  {
    "name": "若宮神社",
    "name_en": "Wakamiya Shrine",
    "lat": 33.1757898,
    "lng": 130.4132693,
    "category": "shrine",
    "prefecture": "saga",
    "osm_id": 3784067365,
    "spot_type": "data_spot",
    "data_source": "osm"
  },
  {
    "name": "宇賀稲荷神社",
    "name_en": "Uka-inari Shrine",
    "lat": 33.1758597,
    "lng": 130.4131521,
    "category": "shrine",
    "prefecture": "saga",
    "osm_id": 3784067366,
    "spot_type": "data_spot",
    "data_source": "osm"
  },
  {
    "name": "名称不明",
    "name_en": "",
    "lat": 33.1757268,
    "lng": 130.4133357,
    "category": "temple",
    "prefecture": "saga",
    "osm_id": 3784067400,
    "spot_type": "data_spot",
    "data_source": "osm"
  },
  {
    "name": "薬師堂",
    "name_en": "Yakushi-do Hall",
    "lat": 33.1753726,
    "lng": 130.4131908,
    "category": "temple",
    "prefecture": "saga",
    "osm_id": 3784067401,
    "spot_type": "data_spot",
    "data_source": "osm"
  },
  {
    "name": "龍宮寺",
    "name_en": "Ryuguji Temple",
    "lat": 33.5945042,
    "lng": 130.4134048,
    "category": "temple",
    "prefecture": "saga",
    "osm_id": 3957980515,
    "spot_type": "data_spot",
    "data_source": "osm"
  },
  {
    "name": "西光寺",
    "name_en": "",
    "lat": 33.1923535,
    "lng": 129.9024044,
    "category": "temple",
    "prefecture": "saga",
    "osm_id": 3960916250,
    "spot_type": "data_spot",
    "data_source": "osm"
  },
  {
    "name": "三島神社",
    "name_en": "",
    "lat": 33.4721164,
    "lng": 129.8492905,
    "category": "shrine",
    "prefecture": "saga",
    "osm_id": 3970053132,
    "spot_type": "data_spot",
    "data_source": "osm"
  },
  {
    "name": "原田",
    "name_en": "Haruda",
    "lat": 33.4515527,
    "lng": 130.5393084,
    "category": "station",
    "prefecture": "saga",
    "osm_id": 4026759505,
    "spot_type": "data_spot",
    "data_source": "osm"
  },
  {
    "name": "けやき台",
    "name_en": "Keyaki-dai",
    "lat": 33.4343882,
    "lng": 130.5333383,
    "category": "station",
    "prefecture": "saga",
    "osm_id": 4026759506,
    "spot_type": "data_spot",
    "data_source": "osm"
  },
  {
    "name": "基山",
    "name_en": "Kiyama",
    "lat": 33.4209927,
    "lng": 130.5324138,
    "category": "station",
    "prefecture": "saga",
    "osm_id": 4026759507,
    "spot_type": "data_spot",
    "data_source": "osm"
  },
  {
    "name": "南福岡",
    "name_en": "Minami Fukuoka",
    "lat": 33.5418928,
    "lng": 130.4604162,
    "category": "station",
    "prefecture": "saga",
    "osm_id": 4026867098,
    "spot_type": "data_spot",
    "data_source": "osm"
  },
  {
    "name": "笹原",
    "name_en": "Sasabaru",
    "lat": 33.5529163,
    "lng": 130.4489182,
    "category": "station",
    "prefecture": "saga",
    "osm_id": 4026867150,
    "spot_type": "data_spot",
    "data_source": "osm"
  },
  {
    "name": "竹下",
    "name_en": "Takeshita",
    "lat": 33.5686455,
    "lng": 130.4314652,
    "category": "station",
    "prefecture": "saga",
    "osm_id": 4026867151,
    "spot_type": "data_spot",
    "data_source": "osm"
  },
  {
    "name": "円光寺",
    "name_en": "",
    "lat": 33.2020277,
    "lng": 130.2942787,
    "category": "temple",
    "prefecture": "saga",
    "osm_id": 4126329164,
    "spot_type": "data_spot",
    "data_source": "osm"
  },
  {
    "name": "博多町家鄉土館",
    "name_en": "Hakata Machiya Folk Museum",
    "lat": 33.5936544,
    "lng": 130.4115066,
    "category": "museum",
    "prefecture": "saga",
    "osm_id": 4293172389,
    "spot_type": "data_spot",
    "data_source": "osm"
  },
  {
    "name": "弁財天",
    "name_en": "",
    "lat": 33.2251125,
    "lng": 130.3749933,
    "category": "shrine",
    "prefecture": "saga",
    "osm_id": 4351088829,
    "spot_type": "data_spot",
    "data_source": "osm"
  },
  {
    "name": "宝満宮神社",
    "name_en": "",
    "lat": 33.5410426,
    "lng": 130.478794,
    "category": "shrine",
    "prefecture": "saga",
    "osm_id": 4381039922,
    "spot_type": "data_spot",
    "data_source": "osm"
  },
  {
    "name": "中山神社",
    "name_en": "",
    "lat": 32.9940924,
    "lng": 129.7925773,
    "category": "shrine",
    "prefecture": "saga",
    "osm_id": 4448597489,
    "spot_type": "data_spot",
    "data_source": "osm"
  },
  {
    "name": "白岳神社",
    "name_en": "",
    "lat": 33.1496762,
    "lng": 129.7553277,
    "category": "shrine",
    "prefecture": "saga",
    "osm_id": 4459798390,
    "spot_type": "data_spot",
    "data_source": "osm"
  },
  {
    "name": "長福寺",
    "name_en": "",
    "lat": 33.257424,
    "lng": 130.469425,
    "category": "temple",
    "prefecture": "saga",
    "osm_id": 4571270895,
    "spot_type": "data_spot",
    "data_source": "osm"
  },
  {
    "name": "名称不明",
    "name_en": "",
    "lat": 33.261707,
    "lng": 130.469967,
    "category": "shrine",
    "prefecture": "saga",
    "osm_id": 4571334396,
    "spot_type": "data_spot",
    "data_source": "osm"
  },
  {
    "name": "法敬寺",
    "name_en": "",
    "lat": 33.260066,
    "lng": 130.470043,
    "category": "temple",
    "prefecture": "saga",
    "osm_id": 4571338891,
    "spot_type": "data_spot",
    "data_source": "osm"
  },
  {
    "name": "志登神社",
    "name_en": "Shito shrine",
    "lat": 33.5741926,
    "lng": 130.2221981,
    "category": "shrine",
    "prefecture": "saga",
    "osm_id": 4578768489,
    "spot_type": "data_spot",
    "data_source": "osm"
  },
  {
    "name": "高樹神社",
    "name_en": "",
    "lat": 33.303284,
    "lng": 130.557894,
    "category": "shrine",
    "prefecture": "saga",
    "osm_id": 4658611090,
    "spot_type": "data_spot",
    "data_source": "osm"
  },
  {
    "name": "名称不明",
    "name_en": "Game Museum/ free with passport",
    "lat": 33.082369,
    "lng": 129.7854104,
    "category": "museum",
    "prefecture": "saga",
    "osm_id": 4693016790,
    "spot_type": "data_spot",
    "data_source": "osm"
  },
  {
    "name": "名称不明",
    "name_en": "Porcelain Museum free with passport",
    "lat": 33.0813767,
    "lng": 129.7853119,
    "category": "museum",
    "prefecture": "saga",
    "osm_id": 4693036989,
    "spot_type": "data_spot",
    "data_source": "osm"
  },
  {
    "name": "名称不明",
    "name_en": "Museum of glass",
    "lat": 33.0840276,
    "lng": 129.7875416,
    "category": "museum",
    "prefecture": "saga",
    "osm_id": 4693105390,
    "spot_type": "data_spot",
    "data_source": "osm"
  },
  {
    "name": "名称不明",
    "name_en": "Teddy Bear Kingdom",
    "lat": 33.0888505,
    "lng": 129.7905952,
    "category": "museum",
    "prefecture": "saga",
    "osm_id": 4693105405,
    "spot_type": "data_spot",
    "data_source": "osm"
  },
  {
    "name": "名称不明",
    "name_en": "",
    "lat": 33.5860041,
    "lng": 129.8604861,
    "category": "lighthouse",
    "prefecture": "saga",
    "osm_id": 4695518698,
    "spot_type": "data_spot",
    "data_source": "osm"
  },
  {
    "name": "名称不明",
    "name_en": "",
    "lat": 33.5874174,
    "lng": 129.8621692,
    "category": "shrine",
    "prefecture": "saga",
    "osm_id": 4695518699,
    "spot_type": "data_spot",
    "data_source": "osm"
  },
  {
    "name": "名称不明",
    "name_en": "",
    "lat": 33.5899467,
    "lng": 129.8622067,
    "category": "shrine",
    "prefecture": "saga",
    "osm_id": 4695518700,
    "spot_type": "data_spot",
    "data_source": "osm"
  },
  {
    "name": "名称不明",
    "name_en": "",
    "lat": 33.5905634,
    "lng": 129.8630221,
    "category": "shrine",
    "prefecture": "saga",
    "osm_id": 4695518701,
    "spot_type": "data_spot",
    "data_source": "osm"
  },
  {
    "name": "名称不明",
    "name_en": "",
    "lat": 33.5911443,
    "lng": 129.8608227,
    "category": "shrine",
    "prefecture": "saga",
    "osm_id": 4695518702,
    "spot_type": "data_spot",
    "data_source": "osm"
  },
  {
    "name": "安養寺",
    "name_en": "",
    "lat": 33.30765,
    "lng": 130.553845,
    "category": "temple",
    "prefecture": "saga",
    "osm_id": 4715890291,
    "spot_type": "data_spot",
    "data_source": "osm"
  },
  {
    "name": "永福寺",
    "name_en": "",
    "lat": 33.307334,
    "lng": 130.553525,
    "category": "temple",
    "prefecture": "saga",
    "osm_id": 4715910489,
    "spot_type": "data_spot",
    "data_source": "osm"
  },
  {
    "name": "菅原神社",
    "name_en": "",
    "lat": 33.1522781,
    "lng": 129.7411191,
    "category": "shrine",
    "prefecture": "saga",
    "osm_id": 4728737292,
    "spot_type": "data_spot",
    "data_source": "osm"
  },
  {
    "name": "お地蔵さん",
    "name_en": "",
    "lat": 33.3727615,
    "lng": 130.517847,
    "category": "temple",
    "prefecture": "saga",
    "osm_id": 4730136302,
    "spot_type": "data_spot",
    "data_source": "osm"
  },
  {
    "name": "八幡産宮",
    "name_en": "",
    "lat": 33.5649804,
    "lng": 130.5000814,
    "category": "shrine",
    "prefecture": "saga",
    "osm_id": 4753750596,
    "spot_type": "data_spot",
    "data_source": "osm"
  },
  {
    "name": "夜灯鼻灯台",
    "name_en": "",
    "lat": 32.9568459,
    "lng": 130.2245159,
    "category": "lighthouse",
    "prefecture": "saga",
    "osm_id": 4770835174,
    "spot_type": "data_spot",
    "data_source": "osm"
  },
  {
    "name": "弥生が丘",
    "name_en": "Yayoigaoka",
    "lat": 33.4025169,
    "lng": 130.5286097,
    "category": "station",
    "prefecture": "saga",
    "osm_id": 4837980299,
    "spot_type": "data_spot",
    "data_source": "osm"
  },
  {
    "name": "田代",
    "name_en": "Tashiro",
    "lat": 33.3841138,
    "lng": 130.5247036,
    "category": "station",
    "prefecture": "saga",
    "osm_id": 4837983624,
    "spot_type": "data_spot",
    "data_source": "osm"
  },
  {
    "name": "武雄温泉",
    "name_en": "Takeo Onsen",
    "lat": 33.1964792,
    "lng": 130.0230661,
    "category": "station",
    "prefecture": "saga",
    "osm_id": 4837988927,
    "spot_type": "data_spot",
    "data_source": "osm"
  },
  {
    "name": "鍋島",
    "name_en": "Nabeshima",
    "lat": 33.2590622,
    "lng": 130.2657589,
    "category": "station",
    "prefecture": "saga",
    "osm_id": 4837990009,
    "spot_type": "data_spot",
    "data_source": "osm"
  },
  {
    "name": "名称不明",
    "name_en": "",
    "lat": 33.5672863,
    "lng": 130.4231393,
    "category": "shrine",
    "prefecture": "saga",
    "osm_id": 4841189266,
    "spot_type": "data_spot",
    "data_source": "osm"
  },
  {
    "name": "枝光天満宮",
    "name_en": "",
    "lat": 33.3178555,
    "lng": 130.5400227,
    "category": "shrine",
    "prefecture": "saga",
    "osm_id": 4894654622,
    "spot_type": "data_spot",
    "data_source": "osm"
  },
  {
    "name": "穴観音 (興宗寺)",
    "name_en": "The Cave Kannon (Koshuji temple)",
    "lat": 33.557391,
    "lng": 130.4017232,
    "category": "temple",
    "prefecture": "saga",
    "osm_id": 4898641798,
    "spot_type": "data_spot",
    "data_source": "osm"
  },
  {
    "name": "名称不明",
    "name_en": "",
    "lat": 33.4760372,
    "lng": 129.9880457,
    "category": "shrine",
    "prefecture": "saga",
    "osm_id": 4930708826,
    "spot_type": "data_spot",
    "data_source": "osm"
  },
  {
    "name": "名称不明",
    "name_en": "",
    "lat": 33.4721286,
    "lng": 129.9859348,
    "category": "lighthouse",
    "prefecture": "saga",
    "osm_id": 4930708839,
    "spot_type": "data_spot",
    "data_source": "osm"
  },
  {
    "name": "名称不明",
    "name_en": "",
    "lat": 33.4740863,
    "lng": 129.9881852,
    "category": "shrine",
    "prefecture": "saga",
    "osm_id": 4930708840,
    "spot_type": "data_spot",
    "data_source": "osm"
  },
  {
    "name": "名称不明",
    "name_en": "",
    "lat": 33.4686405,
    "lng": 129.9746346,
    "category": "lighthouse",
    "prefecture": "saga",
    "osm_id": 4930748650,
    "spot_type": "data_spot",
    "data_source": "osm"
  },
  {
    "name": "名称不明",
    "name_en": "",
    "lat": 33.4701597,
    "lng": 129.9732104,
    "category": "lighthouse",
    "prefecture": "saga",
    "osm_id": 4930748651,
    "spot_type": "data_spot",
    "data_source": "osm"
  },
  {
    "name": "笹原八幡神社",
    "name_en": "",
    "lat": 33.5507261,
    "lng": 130.4516576,
    "category": "shrine",
    "prefecture": "saga",
    "osm_id": 4931774456,
    "spot_type": "data_spot",
    "data_source": "osm"
  },
  {
    "name": "羽黒神社",
    "name_en": "",
    "lat": 33.5281889,
    "lng": 130.3899402,
    "category": "shrine",
    "prefecture": "saga",
    "osm_id": 5037418351,
    "spot_type": "data_spot",
    "data_source": "osm"
  },
  {
    "name": "大円寺",
    "name_en": "",
    "lat": 33.5869517,
    "lng": 130.4570141,
    "category": "temple",
    "prefecture": "saga",
    "osm_id": 5102725097,
    "spot_type": "data_spot",
    "data_source": "osm"
  },
  {
    "name": "牛頭天王八幡宮",
    "name_en": "",
    "lat": 33.5869739,
    "lng": 130.4583004,
    "category": "shrine",
    "prefecture": "saga",
    "osm_id": 5102727051,
    "spot_type": "data_spot",
    "data_source": "osm"
  },
  {
    "name": "老松神社",
    "name_en": "",
    "lat": 33.5951917,
    "lng": 130.4528644,
    "category": "shrine",
    "prefecture": "saga",
    "osm_id": 5102727125,
    "spot_type": "data_spot",
    "data_source": "osm"
  },
  {
    "name": "寳滿宮",
    "name_en": "",
    "lat": 33.5943689,
    "lng": 130.4526867,
    "category": "shrine",
    "prefecture": "saga",
    "osm_id": 5102727135,
    "spot_type": "data_spot",
    "data_source": "osm"
  },
  {
    "name": "月読神社",
    "name_en": "",
    "lat": 33.1967568,
    "lng": 130.486163,
    "category": "shrine",
    "prefecture": "saga",
    "osm_id": 5141649592,
    "spot_type": "data_spot",
    "data_source": "osm"
  },
  {
    "name": "筑後市 郷土資料館",
    "name_en": "",
    "lat": 33.1987128,
    "lng": 130.4862553,
    "category": "museum",
    "prefecture": "saga",
    "osm_id": 5141653474,
    "spot_type": "data_spot",
    "data_source": "osm"
  },
  {
    "name": "大神宮",
    "name_en": "",
    "lat": 33.1989446,
    "lng": 130.4842281,
    "category": "shrine",
    "prefecture": "saga",
    "osm_id": 5141653497,
    "spot_type": "data_spot",
    "data_source": "osm"
  },
  {
    "name": "藤森稲荷神社",
    "name_en": "",
    "lat": 33.1987594,
    "lng": 130.4851466,
    "category": "shrine",
    "prefecture": "saga",
    "osm_id": 5141653499,
    "spot_type": "data_spot",
    "data_source": "osm"
  },
  {
    "name": "恋木神社",
    "name_en": "",
    "lat": 33.1988335,
    "lng": 130.4858386,
    "category": "shrine",
    "prefecture": "saga",
    "osm_id": 5141653500,
    "spot_type": "data_spot",
    "data_source": "osm"
  },
  {
    "name": "日吉神社",
    "name_en": "",
    "lat": 33.3290837,
    "lng": 130.3852534,
    "category": "shrine",
    "prefecture": "saga",
    "osm_id": 5154564222,
    "spot_type": "data_spot",
    "data_source": "osm"
  },
  {
    "name": "名称不明",
    "name_en": "",
    "lat": 33.5669593,
    "lng": 130.0494844,
    "category": "shrine",
    "prefecture": "saga",
    "osm_id": 5167019108,
    "spot_type": "data_spot",
    "data_source": "osm"
  },
  {
    "name": "名称不明",
    "name_en": "",
    "lat": 33.5658664,
    "lng": 130.0531724,
    "category": "lighthouse",
    "prefecture": "saga",
    "osm_id": 5167047025,
    "spot_type": "data_spot",
    "data_source": "osm"
  },
  {
    "name": "姪浜",
    "name_en": "Meinohama",
    "lat": 33.5837095,
    "lng": 130.3251041,
    "category": "station",
    "prefecture": "saga",
    "osm_id": 5206461801,
    "spot_type": "data_spot",
    "data_source": "osm"
  },
  {
    "name": "中洲川端",
    "name_en": "Nakasu-Kawabata",
    "lat": 33.5947319,
    "lng": 130.406413,
    "category": "station",
    "prefecture": "saga",
    "osm_id": 5206461802,
    "spot_type": "data_spot",
    "data_source": "osm"
  },
  {
    "name": "西鉄福岡（天神）",
    "name_en": "Fukuoka (Tenjin)",
    "lat": 33.5892548,
    "lng": 130.3994222,
    "category": "station",
    "prefecture": "saga",
    "osm_id": 5206461805,
    "spot_type": "data_spot",
    "data_source": "osm"
  },
  {
    "name": "佐賀バルーンミュージアム",
    "name_en": "",
    "lat": 33.2524694,
    "lng": 130.3003905,
    "category": "museum",
    "prefecture": "saga",
    "osm_id": 5211905043,
    "spot_type": "data_spot",
    "data_source": "osm"
  },
  {
    "name": "薬院",
    "name_en": "Yakuin",
    "lat": 33.5824351,
    "lng": 130.401673,
    "category": "station",
    "prefecture": "saga",
    "osm_id": 5213896821,
    "spot_type": "data_spot",
    "data_source": "osm"
  },
  {
    "name": "つきほし歴史館",
    "name_en": "",
    "lat": 33.3137243,
    "lng": 130.5048585,
    "category": "museum",
    "prefecture": "saga",
    "osm_id": 5218907423,
    "spot_type": "data_spot",
    "data_source": "osm"
  },
  {
    "name": "武雄温泉新館",
    "name_en": "Takeo Onsen Shinkan",
    "lat": 33.1965837,
    "lng": 130.014294,
    "category": "museum",
    "prefecture": "saga",
    "osm_id": 5228408622,
    "spot_type": "data_spot",
    "data_source": "osm"
  },
  {
    "name": "天然温泉 ばってんの湯",
    "name_en": "",
    "lat": 33.0930039,
    "lng": 129.7970774,
    "category": "onsen",
    "prefecture": "saga",
    "osm_id": 5256788696,
    "spot_type": "data_spot",
    "data_source": "osm"
  },
  {
    "name": "光圓寺",
    "name_en": "",
    "lat": 33.2754579,
    "lng": 130.3365807,
    "category": "temple",
    "prefecture": "saga",
    "osm_id": 5257807347,
    "spot_type": "data_spot",
    "data_source": "osm"
  },
  {
    "name": "普光寺",
    "name_en": "",
    "lat": 33.0321516,
    "lng": 130.496954,
    "category": "temple",
    "prefecture": "saga",
    "osm_id": 5258165960,
    "spot_type": "data_spot",
    "data_source": "osm"
  },
  {
    "name": "乙宮神社",
    "name_en": "",
    "lat": 33.0328891,
    "lng": 130.4867617,
    "category": "shrine",
    "prefecture": "saga",
    "osm_id": 5258165961,
    "spot_type": "data_spot",
    "data_source": "osm"
  },
  {
    "name": "権常寺天満宮",
    "name_en": "",
    "lat": 33.1311607,
    "lng": 129.8072001,
    "category": "shrine",
    "prefecture": "saga",
    "osm_id": 5260174510,
    "spot_type": "data_spot",
    "data_source": "osm"
  },
  {
    "name": "早岐神社",
    "name_en": "",
    "lat": 33.1395271,
    "lng": 129.7966028,
    "category": "shrine",
    "prefecture": "saga",
    "osm_id": 5264780517,
    "spot_type": "data_spot",
    "data_source": "osm"
  },
  {
    "name": "名称不明",
    "name_en": "",
    "lat": 33.5728476,
    "lng": 130.3733945,
    "category": "shrine",
    "prefecture": "saga",
    "osm_id": 5264940227,
    "spot_type": "data_spot",
    "data_source": "osm"
  },
  {
    "name": "福岡市科学館",
    "name_en": "Fukuoka City Science Museum",
    "lat": 33.5773528,
    "lng": 130.3779288,
    "category": "museum",
    "prefecture": "saga",
    "osm_id": 5264951969,
    "spot_type": "data_spot",
    "data_source": "osm"
  },
  {
    "name": "住吉神社",
    "name_en": "",
    "lat": 33.127658,
    "lng": 129.7975761,
    "category": "shrine",
    "prefecture": "saga",
    "osm_id": 5268072102,
    "spot_type": "data_spot",
    "data_source": "osm"
  },
  {
    "name": "淀姫神社",
    "name_en": "",
    "lat": 33.2115111,
    "lng": 129.7403498,
    "category": "shrine",
    "prefecture": "saga",
    "osm_id": 5304667725,
    "spot_type": "data_spot",
    "data_source": "osm"
  },
  {
    "name": "Hasami Hot Spring 波佐見温泉",
    "name_en": "",
    "lat": 33.1150998,
    "lng": 129.8690633,
    "category": "onsen",
    "prefecture": "saga",
    "osm_id": 5305922625,
    "spot_type": "data_spot",
    "data_source": "osm"
  },
  {
    "name": "住吉神社",
    "name_en": "",
    "lat": 33.1160605,
    "lng": 130.4270465,
    "category": "shrine",
    "prefecture": "saga",
    "osm_id": 5306456970,
    "spot_type": "data_spot",
    "data_source": "osm"
  },
  {
    "name": "松枝神社",
    "name_en": "",
    "lat": 33.1826019,
    "lng": 130.3458947,
    "category": "shrine",
    "prefecture": "saga",
    "osm_id": 5330642513,
    "spot_type": "data_spot",
    "data_source": "osm"
  },
  {
    "name": "天満宮",
    "name_en": "",
    "lat": 33.1403505,
    "lng": 129.8172349,
    "category": "shrine",
    "prefecture": "saga",
    "osm_id": 5360325018,
    "spot_type": "data_spot",
    "data_source": "osm"
  },
  {
    "name": "浄漸寺",
    "name_en": "",
    "lat": 33.1498196,
    "lng": 129.8102993,
    "category": "temple",
    "prefecture": "saga",
    "osm_id": 5360397838,
    "spot_type": "data_spot",
    "data_source": "osm"
  },
  {
    "name": "松枝神社 下の宮",
    "name_en": "",
    "lat": 33.1811509,
    "lng": 130.3439597,
    "category": "shrine",
    "prefecture": "saga",
    "osm_id": 5367379166,
    "spot_type": "data_spot",
    "data_source": "osm"
  },
  {
    "name": "源正寺",
    "name_en": "",
    "lat": 33.304171,
    "lng": 130.552254,
    "category": "temple",
    "prefecture": "saga",
    "osm_id": 5376918608,
    "spot_type": "data_spot",
    "data_source": "osm"
  },
  {
    "name": "伯楽天殿",
    "name_en": "",
    "lat": 33.3261279,
    "lng": 130.5544986,
    "category": "shrine",
    "prefecture": "saga",
    "osm_id": 5380017932,
    "spot_type": "data_spot",
    "data_source": "osm"
  },
  {
    "name": "道祖神社",
    "name_en": "",
    "lat": 33.3166638,
    "lng": 130.5567302,
    "category": "shrine",
    "prefecture": "saga",
    "osm_id": 5380017943,
    "spot_type": "data_spot",
    "data_source": "osm"
  },
  {
    "name": "久我美術館",
    "name_en": "",
    "lat": 33.5961816,
    "lng": 130.5176095,
    "category": "museum",
    "prefecture": "saga",
    "osm_id": 5382711504,
    "spot_type": "data_spot",
    "data_source": "osm"
  },
  {
    "name": "味水御井神社",
    "name_en": "",
    "lat": 33.3112096,
    "lng": 130.5487059,
    "category": "shrine",
    "prefecture": "saga",
    "osm_id": 5394847120,
    "spot_type": "data_spot",
    "data_source": "osm"
  },
  {
    "name": "熊の川温泉郷",
    "name_en": "",
    "lat": 33.3656623,
    "lng": 130.2405173,
    "category": "onsen",
    "prefecture": "saga",
    "osm_id": 5406948197,
    "spot_type": "data_spot",
    "data_source": "osm"
  },
  {
    "name": "古湯温泉郷",
    "name_en": "",
    "lat": 33.371769,
    "lng": 130.2079794,
    "category": "onsen",
    "prefecture": "saga",
    "osm_id": 5406948204,
    "spot_type": "data_spot",
    "data_source": "osm"
  },
  {
    "name": "須賀神社",
    "name_en": "",
    "lat": 33.5915825,
    "lng": 130.5152538,
    "category": "shrine",
    "prefecture": "saga",
    "osm_id": 5417153355,
    "spot_type": "data_spot",
    "data_source": "osm"
  },
  {
    "name": "住吉神社",
    "name_en": "",
    "lat": 33.0784061,
    "lng": 129.7824116,
    "category": "shrine",
    "prefecture": "saga",
    "osm_id": 5435760004,
    "spot_type": "data_spot",
    "data_source": "osm"
  },
  {
    "name": "昭徳稲荷神社",
    "name_en": "",
    "lat": 33.0896398,
    "lng": 129.7984536,
    "category": "shrine",
    "prefecture": "saga",
    "osm_id": 5435760005,
    "spot_type": "data_spot",
    "data_source": "osm"
  },
  {
    "name": "戎神社",
    "name_en": "",
    "lat": 33.0972574,
    "lng": 129.7908639,
    "category": "shrine",
    "prefecture": "saga",
    "osm_id": 5435760036,
    "spot_type": "data_spot",
    "data_source": "osm"
  },
  {
    "name": "貴船神社",
    "name_en": "",
    "lat": 33.0871722,
    "lng": 129.8021023,
    "category": "shrine",
    "prefecture": "saga",
    "osm_id": 5435768937,
    "spot_type": "data_spot",
    "data_source": "osm"
  },
  {
    "name": "沖ノ神瀬灯標",
    "name_en": "",
    "lat": 33.0639172,
    "lng": 130.226024,
    "category": "lighthouse",
    "prefecture": "saga",
    "osm_id": 5436895313,
    "spot_type": "data_spot",
    "data_source": "osm"
  },
  {
    "name": "名称不明",
    "name_en": "",
    "lat": 33.2028708,
    "lng": 130.3222393,
    "category": "shrine",
    "prefecture": "saga",
    "osm_id": 5443134487,
    "spot_type": "data_spot",
    "data_source": "osm"
  },
  {
    "name": "名称不明",
    "name_en": "",
    "lat": 33.2073929,
    "lng": 130.3195034,
    "category": "shrine",
    "prefecture": "saga",
    "osm_id": 5443134540,
    "spot_type": "data_spot",
    "data_source": "osm"
  },
  {
    "name": "名称不明",
    "name_en": "",
    "lat": 33.5909043,
    "lng": 130.505382,
    "category": "shrine",
    "prefecture": "saga",
    "osm_id": 5458777078,
    "spot_type": "data_spot",
    "data_source": "osm"
  },
  {
    "name": "名称不明",
    "name_en": "",
    "lat": 33.5853504,
    "lng": 130.4838672,
    "category": "shrine",
    "prefecture": "saga",
    "osm_id": 5460836018,
    "spot_type": "data_spot",
    "data_source": "osm"
  },
  {
    "name": "名称不明",
    "name_en": "",
    "lat": 33.5757351,
    "lng": 130.5377796,
    "category": "shrine",
    "prefecture": "saga",
    "osm_id": 5471895226,
    "spot_type": "data_spot",
    "data_source": "osm"
  },
  {
    "name": "名称不明",
    "name_en": "",
    "lat": 33.5603297,
    "lng": 130.5114663,
    "category": "shrine",
    "prefecture": "saga",
    "osm_id": 5478309908,
    "spot_type": "data_spot",
    "data_source": "osm"
  },
  {
    "name": "名称不明",
    "name_en": "",
    "lat": 33.5525172,
    "lng": 130.4888799,
    "category": "shrine",
    "prefecture": "saga",
    "osm_id": 5495254802,
    "spot_type": "data_spot",
    "data_source": "osm"
  },
  {
    "name": "名称不明",
    "name_en": "",
    "lat": 33.5938286,
    "lng": 130.4685685,
    "category": "shrine",
    "prefecture": "saga",
    "osm_id": 5504325477,
    "spot_type": "data_spot",
    "data_source": "osm"
  },
  {
    "name": "伊勢神社",
    "name_en": "",
    "lat": 33.2524611,
    "lng": 130.2898578,
    "category": "shrine",
    "prefecture": "saga",
    "osm_id": 5522895796,
    "spot_type": "data_spot",
    "data_source": "osm"
  },
  {
    "name": "本願院",
    "name_en": "",
    "lat": 33.2520159,
    "lng": 130.2896033,
    "category": "temple",
    "prefecture": "saga",
    "osm_id": 5522895799,
    "spot_type": "data_spot",
    "data_source": "osm"
  },
  {
    "name": "真覚寺",
    "name_en": "",
    "lat": 33.2520327,
    "lng": 130.2878287,
    "category": "temple",
    "prefecture": "saga",
    "osm_id": 5522895800,
    "spot_type": "data_spot",
    "data_source": "osm"
  },
  {
    "name": "天徳寺",
    "name_en": "",
    "lat": 33.2513271,
    "lng": 130.2879694,
    "category": "temple",
    "prefecture": "saga",
    "osm_id": 5522895801,
    "spot_type": "data_spot",
    "data_source": "osm"
  },