[
  {
    "name": "日暮里",
    "name_en": "Nippori",
    "lat": 35.7283798,
    "lng": 139.7709817,
    "category": "station",
    "prefecture": "tokyo",
    "osm_id": 172670767,
    "spot_type": "data_spot",
    "data_source": "osm"
  },
  {
    "name": "御徒町",
    "name_en": "Okachimachi",
    "lat": 35.7069531,
    "lng": 139.7746303,
    "category": "station",
    "prefecture": "tokyo",
    "osm_id": 236578383,
    "spot_type": "data_spot",
    "data_source": "osm"
  },
  {
    "name": "上野",
    "name_en": "Ueno",
    "lat": 35.7134128,
    "lng": 139.7765418,
    "category": "station",
    "prefecture": "tokyo",
    "osm_id": 236578444,
    "spot_type": "data_spot",
    "data_source": "osm"
  },
  {
    "name": "鶯谷",
    "name_en": "Uguisudani",
    "lat": 35.7217035,
    "lng": 139.7779166,
    "category": "station",
    "prefecture": "tokyo",
    "osm_id": 236578577,
    "spot_type": "data_spot",
    "data_source": "osm"
  },
  {
    "name": "日暮里",
    "name_en": "Nippori",
    "lat": 35.7281495,
    "lng": 139.7706579,
    "category": "station",
    "prefecture": "tokyo",
    "osm_id": 236578667,
    "spot_type": "data_spot",
    "data_source": "osm"
  },
  {
    "name": "西日暮里",
    "name_en": "Nishi-Nippori",
    "lat": 35.7322021,
    "lng": 139.7666684,
    "category": "station",
    "prefecture": "tokyo",
    "osm_id": 236578741,
    "spot_type": "data_spot",
    "data_source": "osm"
  },
  {
    "name": "田端",
    "name_en": "Tabata",
    "lat": 35.7373723,
    "lng": 139.761707,
    "category": "station",
    "prefecture": "tokyo",
    "osm_id": 236578838,
    "spot_type": "data_spot",
    "data_source": "osm"
  },
  {
    "name": "駒込",
    "name_en": "Komagome",
    "lat": 35.7365848,
    "lng": 139.7472412,
    "category": "station",
    "prefecture": "tokyo",
    "osm_id": 236579053,
    "spot_type": "data_spot",
    "data_source": "osm"
  },
  {
    "name": "巣鴨",
    "name_en": "Sugamo",
    "lat": 35.7334119,
    "lng": 139.7394273,
    "category": "station",
    "prefecture": "tokyo",
    "osm_id": 236579126,
    "spot_type": "data_spot",
    "data_source": "osm"
  },
  {
    "name": "大塚",
    "name_en": "Otsuka",
    "lat": 35.7316851,
    "lng": 139.7285879,
    "category": "station",
    "prefecture": "tokyo",
    "osm_id": 236579274,
    "spot_type": "data_spot",
    "data_source": "osm"
  },
  {
    "name": "新大久保",
    "name_en": "Shin-Ōkubo",
    "lat": 35.7013007,
    "lng": 139.7002421,
    "category": "station",
    "prefecture": "tokyo",
    "osm_id": 236579696,
    "spot_type": "data_spot",
    "data_source": "osm"
  },
  {
    "name": "三河島",
    "name_en": "Mikawashima",
    "lat": 35.7332922,
    "lng": 139.7777743,
    "category": "station",
    "prefecture": "tokyo",
    "osm_id": 240510683,
    "spot_type": "data_spot",
    "data_source": "osm"
  },
  {
    "name": "大崎",
    "name_en": "Osaki",
    "lat": 35.6193903,
    "lng": 139.7284866,
    "category": "station",
    "prefecture": "tokyo",
    "osm_id": 241815384,
    "spot_type": "data_spot",
    "data_source": "osm"
  },
  {
    "name": "渋谷",
    "name_en": "Shibuya",
    "lat": 35.65808,
    "lng": 139.7017647,
    "category": "station",
    "prefecture": "tokyo",
    "osm_id": 241896099,
    "spot_type": "data_spot",
    "data_source": "osm"
  },
  {
    "name": "朝霞",
    "name_en": "Asaka",
    "lat": 35.79703,
    "lng": 139.6002238,
    "category": "station",
    "prefecture": "tokyo",
    "osm_id": 243887260,
    "spot_type": "data_spot",
    "data_source": "osm"
  },
  {
    "name": "中目黒",
    "name_en": "Naka-meguro",
    "lat": 35.6441395,
    "lng": 139.6988317,
    "category": "station",
    "prefecture": "tokyo",
    "osm_id": 243887391,
    "spot_type": "data_spot",
    "data_source": "osm"
  },
  {
    "name": "蕨",
    "name_en": "Warabi",
    "lat": 35.8281232,
    "lng": 139.6903799,
    "category": "station",
    "prefecture": "tokyo",
    "osm_id": 244878145,
    "spot_type": "data_spot",
    "data_source": "osm"
  },
  {
    "name": "北浦和",
    "name_en": "Kita-Urawa",
    "lat": 35.8721554,
    "lng": 139.6461059,
    "category": "station",
    "prefecture": "tokyo",
    "osm_id": 244878189,
    "spot_type": "data_spot",
    "data_source": "osm"
  },
  {
    "name": "与野",
    "name_en": "Yono",
    "lat": 35.8843981,
    "lng": 139.6391522,
    "category": "station",
    "prefecture": "tokyo",
    "osm_id": 244878195,
    "spot_type": "data_spot",
    "data_source": "osm"
  },
  {
    "name": "さいたま新都心",
    "name_en": "Saitama-Shintoshin",
    "lat": 35.8936374,
    "lng": 139.6339481,
    "category": "station",
    "prefecture": "tokyo",
    "osm_id": 244878198,
    "spot_type": "data_spot",
    "data_source": "osm"
  },
  {
    "name": "アーティゾン美術館",
    "name_en": "Artizon Museum",
    "lat": 35.678749,
    "lng": 139.7721285,
    "category": "museum",
    "prefecture": "tokyo",
    "osm_id": 250668618,
    "spot_type": "data_spot",
    "data_source": "osm"
  },
  {
    "name": "東京都写真美術館",
    "name_en": "Tokyo Photographic Art Museum",
    "lat": 35.641543,
    "lng": 139.7133962,
    "category": "museum",
    "prefecture": "tokyo",
    "osm_id": 250668627,
    "spot_type": "data_spot",
    "data_source": "osm"
  },
  {
    "name": "伝統工芸 青山スクエア",
    "name_en": "Japan Traditional Crafts Centre",
    "lat": 35.7288374,
    "lng": 139.7093019,
    "category": "museum",
    "prefecture": "tokyo",
    "osm_id": 251055430,
    "spot_type": "data_spot",
    "data_source": "osm"
  },
  {
    "name": "門前仲町",
    "name_en": "Monzen-nakacho",
    "lat": 35.6722878,
    "lng": 139.7950674,
    "category": "station",
    "prefecture": "tokyo",
    "osm_id": 251465504,
    "spot_type": "data_spot",
    "data_source": "osm"
  },
  {
    "name": "烏森神社",
    "name_en": "Karasumori Shrine",
    "lat": 35.6667952,
    "lng": 139.7568175,
    "category": "shrine",
    "prefecture": "tokyo",
    "osm_id": 260408025,
    "spot_type": "data_spot",
    "data_source": "osm"
  },
  {
    "name": "恵比寿",
    "name_en": "Ebisu",
    "lat": 35.6469738,
    "lng": 139.7086461,
    "category": "station",
    "prefecture": "tokyo",
    "osm_id": 262449251,
    "spot_type": "data_spot",
    "data_source": "osm"
  },
  {
    "name": "相模大野",
    "name_en": "Sagami-Ono",
    "lat": 35.5321708,
    "lng": 139.4378867,
    "category": "station",
    "prefecture": "tokyo",
    "osm_id": 264240113,
    "spot_type": "data_spot",
    "data_source": "osm"
  },
  {
    "name": "西国立",
    "name_en": "Nishi-Kunitachi",
    "lat": 35.6934726,
    "lng": 139.4240559,
    "category": "station",
    "prefecture": "tokyo",
    "osm_id": 264813299,
    "spot_type": "data_spot",
    "data_source": "osm"
  },
  {
    "name": "登戸",
    "name_en": "Noborito",
    "lat": 35.6208193,
    "lng": 139.570006,
    "category": "station",
    "prefecture": "tokyo",
    "osm_id": 264813889,
    "spot_type": "data_spot",
    "data_source": "osm"
  },
  {
    "name": "府中本町",
    "name_en": "Fuchu-Hommachi",
    "lat": 35.6661053,
    "lng": 139.4771038,
    "category": "station",
    "prefecture": "tokyo",
    "osm_id": 264813956,
    "spot_type": "data_spot",
    "data_source": "osm"
  },
  {
    "name": "川崎新町",
    "name_en": "Kawasaki-Shimmachi",
    "lat": 35.5182574,
    "lng": 139.6991819,
    "category": "station",
    "prefecture": "tokyo",
    "osm_id": 264814064,
    "spot_type": "data_spot",
    "data_source": "osm"
  },
  {
    "name": "浜川崎",
    "name_en": "Hama-Kawasaki",
    "lat": 35.5103253,
    "lng": 139.7137564,
    "category": "station",
    "prefecture": "tokyo",
    "osm_id": 264814072,
    "spot_type": "data_spot",
    "data_source": "osm"
  },
  {
    "name": "青葉台",
    "name_en": "Aobadai",
    "lat": 35.5428783,
    "lng": 139.5172312,
    "category": "station",
    "prefecture": "tokyo",
    "osm_id": 266084129,
    "spot_type": "data_spot",
    "data_source": "osm"
  },
  {
    "name": "梶が谷",
    "name_en": "Kajigaya",
    "lat": 35.5936505,
    "lng": 139.6054789,
    "category": "station",
    "prefecture": "tokyo",
    "osm_id": 266084310,
    "spot_type": "data_spot",
    "data_source": "osm"
  },
  {
    "name": "江田",
    "name_en": "Eda",
    "lat": 35.5585746,
    "lng": 139.5514544,
    "category": "station",
    "prefecture": "tokyo",
    "osm_id": 266084537,
    "spot_type": "data_spot",
    "data_source": "osm"
  },
  {
    "name": "溝の口",
    "name_en": "Mizonokuchi",
    "lat": 35.5999254,
    "lng": 139.6105114,
    "category": "station",
    "prefecture": "tokyo",
    "osm_id": 266084776,
    "spot_type": "data_spot",
    "data_source": "osm"
  },
  {
    "name": "中央林間",
    "name_en": "Chuo-rinkan",
    "lat": 35.5075814,
    "lng": 139.4445901,
    "category": "station",
    "prefecture": "tokyo",
    "osm_id": 266084909,
    "spot_type": "data_spot",
    "data_source": "osm"
  },
  {
    "name": "つきみ野",
    "name_en": "Tsukimino",
    "lat": 35.5103897,
    "lng": 139.4582718,
    "category": "station",
    "prefecture": "tokyo",
    "osm_id": 266085013,
    "spot_type": "data_spot",
    "data_source": "osm"
  },
  {
    "name": "目黒",
    "name_en": "Meguro",
    "lat": 35.6325078,
    "lng": 139.7157717,
    "category": "station",
    "prefecture": "tokyo",
    "osm_id": 266085875,
    "spot_type": "data_spot",
    "data_source": "osm"
  },
  {
    "name": "鴨居",
    "name_en": "Kamoi",
    "lat": 35.510947,
    "lng": 139.5670538,
    "category": "station",
    "prefecture": "tokyo",
    "osm_id": 280474787,
    "spot_type": "data_spot",
    "data_source": "osm"
  },
  {
    "name": "中山",
    "name_en": "Nakayama",
    "lat": 35.5146971,
    "lng": 139.5395328,
    "category": "station",
    "prefecture": "tokyo",
    "osm_id": 280474931,
    "spot_type": "data_spot",
    "data_source": "osm"
  },
  {
    "name": "十日市場",
    "name_en": "Tokaichiba",
    "lat": 35.5263056,
    "lng": 139.5165915,
    "category": "station",
    "prefecture": "tokyo",
    "osm_id": 280475163,
    "spot_type": "data_spot",
    "data_source": "osm"
  },
  {
    "name": "小机",
    "name_en": "Kozukue",
    "lat": 35.5086932,
    "lng": 139.5997176,
    "category": "station",
    "prefecture": "tokyo",
    "osm_id": 280475974,
    "spot_type": "data_spot",
    "data_source": "osm"
  },
  {
    "name": "京王永山",
    "name_en": "Keio-Nagayama",
    "lat": 35.6302581,
    "lng": 139.4483564,
    "category": "station",
    "prefecture": "tokyo",
    "osm_id": 280623187,
    "spot_type": "data_spot",
    "data_source": "osm"
  },
  {
    "name": "調布",
    "name_en": "Chofu",
    "lat": 35.6517768,
    "lng": 139.5448061,
    "category": "station",
    "prefecture": "tokyo",
    "osm_id": 280623691,
    "spot_type": "data_spot",
    "data_source": "osm"
  },
  {
    "name": "玉川上水",
    "name_en": "Tamagawa-Josui",
    "lat": 35.7322373,
    "lng": 139.4178727,
    "category": "station",
    "prefecture": "tokyo",
    "osm_id": 280630323,
    "spot_type": "data_spot",
    "data_source": "osm"
  },
  {
    "name": "高幡不動",
    "name_en": "Takahatafudo",
    "lat": 35.66128,
    "lng": 139.4151494,
    "category": "station",
    "prefecture": "tokyo",
    "osm_id": 280630702,
    "spot_type": "data_spot",
    "data_source": "osm"
  },
  {
    "name": "立川北",
    "name_en": "Tachikawa-Kita",
    "lat": 35.6994167,
    "lng": 139.4124953,
    "category": "station",
    "prefecture": "tokyo",
    "osm_id": 280630995,
    "spot_type": "data_spot",
    "data_source": "osm"
  },
  {
    "name": "唐木田",
    "name_en": "Karakida",
    "lat": 35.6158467,
    "lng": 139.4111316,
    "category": "station",
    "prefecture": "tokyo",
    "osm_id": 280653191,
    "spot_type": "data_spot",
    "data_source": "osm"
  },
  {
    "name": "成城学園前",
    "name_en": "Seijogakuen-mae",
    "lat": 35.6399444,
    "lng": 139.5984426,
    "category": "station",
    "prefecture": "tokyo",
    "osm_id": 281365074,
    "spot_type": "data_spot",
    "data_source": "osm"
  },
  {
    "name": "生田",
    "name_en": "Ikuta",
    "lat": 35.6149907,
    "lng": 139.5419324,
    "category": "station",
    "prefecture": "tokyo",
    "osm_id": 281365135,
    "spot_type": "data_spot",
    "data_source": "osm"
  },
  {
    "name": "鶴川",
    "name_en": "Tsurukawa",
    "lat": 35.5831049,
    "lng": 139.4816019,
    "category": "station",
    "prefecture": "tokyo",
    "osm_id": 281365138,
    "spot_type": "data_spot",
    "data_source": "osm"
  },
  {
    "name": "百合ヶ丘",
    "name_en": "Yurigaoka",
    "lat": 35.6090225,
    "lng": 139.5160744,
    "category": "station",
    "prefecture": "tokyo",
    "osm_id": 281365143,
    "spot_type": "data_spot",
    "data_source": "osm"
  },
  {
    "name": "柿生",
    "name_en": "Kakio",
    "lat": 35.5896107,
    "lng": 139.4975838,
    "category": "station",
    "prefecture": "tokyo",
    "osm_id": 281365561,
    "spot_type": "data_spot",
    "data_source": "osm"
  },
  {
    "name": "玉川学園前",
    "name_en": "Tamagawagakuen-mae",
    "lat": 35.5636494,
    "lng": 139.4635266,
    "category": "station",
    "prefecture": "tokyo",
    "osm_id": 281366404,
    "spot_type": "data_spot",
    "data_source": "osm"
  },
  {
    "name": "梅ヶ丘",
    "name_en": "Umegaoka",
    "lat": 35.6561754,
    "lng": 139.6541274,
    "category": "station",
    "prefecture": "tokyo",
    "osm_id": 281366410,
    "spot_type": "data_spot",
    "data_source": "osm"
  },
  {
    "name": "祖師ヶ谷大蔵",
    "name_en": "Soshigaya-Okura",
    "lat": 35.6432802,
    "lng": 139.6097472,
    "category": "station",
    "prefecture": "tokyo",
    "osm_id": 281366428,
    "spot_type": "data_spot",
    "data_source": "osm"
  },
  {
    "name": "読売ランド前",
    "name_en": "Yomiuriland-mae",
    "lat": 35.6147779,
    "lng": 139.5278883,
    "category": "station",
    "prefecture": "tokyo",
    "osm_id": 281366436,
    "spot_type": "data_spot",
    "data_source": "osm"
  },
  {
    "name": "代々木八幡",
    "name_en": "Yoyogi-Hachiman",
    "lat": 35.6696211,
    "lng": 139.6888398,
    "category": "station",
    "prefecture": "tokyo",
    "osm_id": 281366568,
    "spot_type": "data_spot",
    "data_source": "osm"
  },
  {
    "name": "経堂",
    "name_en": "Kyodo",
    "lat": 35.6512791,
    "lng": 139.636679,
    "category": "station",
    "prefecture": "tokyo",
    "osm_id": 281366584,
    "spot_type": "data_spot",
    "data_source": "osm"
  },
  {
    "name": "千歳船橋",
    "name_en": "Chitose-Funabashi",
    "lat": 35.6473986,
    "lng": 139.6238215,
    "category": "station",
    "prefecture": "tokyo",
    "osm_id": 281366586,
    "spot_type": "data_spot",
    "data_source": "osm"
  },
  {
    "name": "狛江",
    "name_en": "Komae",
    "lat": 35.632315,
    "lng": 139.5774238,
    "category": "station",
    "prefecture": "tokyo",
    "osm_id": 281366638,
    "spot_type": "data_spot",
    "data_source": "osm"
  },
  {
    "name": "向ヶ丘遊園",
    "name_en": "Mukogaoka-Yuen",
    "lat": 35.6172082,
    "lng": 139.5645472,
    "category": "station",
    "prefecture": "tokyo",
    "osm_id": 281366650,
    "spot_type": "data_spot",
    "data_source": "osm"
  },
  {
    "name": "代々木上原",
    "name_en": "Yoyogi-Uehara",
    "lat": 35.6690082,
    "lng": 139.6797884,
    "category": "station",
    "prefecture": "tokyo",
    "osm_id": 281366963,
    "spot_type": "data_spot",
    "data_source": "osm"
  },
  {
    "name": "豪徳寺",
    "name_en": "Gotokuji",
    "lat": 35.6535429,
    "lng": 139.6468507,
    "category": "station",
    "prefecture": "tokyo",
    "osm_id": 281366971,
    "spot_type": "data_spot",
    "data_source": "osm"
  },
  {
    "name": "西調布",
    "name_en": "Nishi-chofu",
    "lat": 35.6570625,
    "lng": 139.530194,
    "category": "station",
    "prefecture": "tokyo",
    "osm_id": 281417535,
    "spot_type": "data_spot",
    "data_source": "osm"
  },
  {
    "name": "新線新宿",
    "name_en": "Shinsen-Shinjuku",
    "lat": 35.6886028,
    "lng": 139.699177,
    "category": "station",
    "prefecture": "tokyo",
    "osm_id": 281417661,
    "spot_type": "data_spot",
    "data_source": "osm"
  },
  {
    "name": "武蔵野台",
    "name_en": "Musashinodai",
    "lat": 35.6642284,
    "lng": 139.5109606,
    "category": "station",
    "prefecture": "tokyo",
    "osm_id": 281417843,
    "spot_type": "data_spot",
    "data_source": "osm"
  },
  {
    "name": "飛田給",
    "name_en": "Tobitakyu",
    "lat": 35.6602521,
    "lng": 139.5232311,
    "category": "station",
    "prefecture": "tokyo",
    "osm_id": 281417962,
    "spot_type": "data_spot",
    "data_source": "osm"
  },
  {
    "name": "妙福寺",
    "name_en": "Myofuku Ji",
    "lat": 35.6011445,
    "lng": 139.6920211,
    "category": "temple",
    "prefecture": "tokyo",
    "osm_id": 304422978,
    "spot_type": "data_spot",
    "data_source": "osm"
  },
  {
    "name": "恩田",
    "name_en": "Onda",
    "lat": 35.5455896,
    "lng": 139.4921288,
    "category": "station",
    "prefecture": "tokyo",
    "osm_id": 307882453,
    "spot_type": "data_spot",
    "data_source": "osm"
  },
  {
    "name": "新越谷",
    "name_en": "Shin-koshigaya",
    "lat": 35.8754965,
    "lng": 139.7898394,
    "category": "station",
    "prefecture": "tokyo",
    "osm_id": 308839580,
    "spot_type": "data_spot",
    "data_source": "osm"
  },
  {
    "name": "谷塚",
    "name_en": "Yatsuka",
    "lat": 35.8142116,
    "lng": 139.8011329,
    "category": "station",
    "prefecture": "tokyo",
    "osm_id": 308839760,
    "spot_type": "data_spot",
    "data_source": "osm"
  },
  {
    "name": "牛田",
    "name_en": "Ushida",
    "lat": 35.7446629,
    "lng": 139.8121358,
    "category": "station",
    "prefecture": "tokyo",
    "osm_id": 308840568,
    "spot_type": "data_spot",
    "data_source": "osm"
  },
  {
    "name": "多摩センター",
    "name_en": "Tama Center",
    "lat": 35.6239385,
    "lng": 139.4228734,
    "category": "station",
    "prefecture": "tokyo",
    "osm_id": 311094336,
    "spot_type": "data_spot",
    "data_source": "osm"
  },
  {
    "name": "青木葉天満宮",
    "name_en": "",
    "lat": 35.6162754,
    "lng": 139.4270387,
    "category": "shrine",
    "prefecture": "tokyo",
    "osm_id": 314340099,
    "spot_type": "data_spot",
    "data_source": "osm"
  },
  {
    "name": "青木山東福寺",
    "name_en": "",
    "lat": 35.6215201,
    "lng": 139.4285536,
    "category": "temple",
    "prefecture": "tokyo",
    "osm_id": 317167741,
    "spot_type": "data_spot",
    "data_source": "osm"
  },
  {
    "name": "天照皇大神",
    "name_en": "",
    "lat": 35.5504333,
    "lng": 139.663706,
    "category": "shrine",
    "prefecture": "tokyo",
    "osm_id": 334167696,
    "spot_type": "data_spot",
    "data_source": "osm"
  },
  {
    "name": "浅間神社",
    "name_en": "",
    "lat": 35.5501783,
    "lng": 139.6645881,
    "category": "shrine",
    "prefecture": "tokyo",
    "osm_id": 334232017,
    "spot_type": "data_spot",
    "data_source": "osm"
  },
  {
    "name": "Inari Jinja",
    "name_en": "",
    "lat": 35.822775,
    "lng": 139.8999779,
    "category": "shrine",
    "prefecture": "tokyo",
    "osm_id": 335853461,
    "spot_type": "data_spot",
    "data_source": "osm"
  },
  {
    "name": "高幡不動",
    "name_en": "Takahatafudo",
    "lat": 35.6621725,
    "lng": 139.4133069,
    "category": "station",
    "prefecture": "tokyo",
    "osm_id": 339082698,
    "spot_type": "data_spot",
    "data_source": "osm"
  },
  {
    "name": "恵比寿神社",
    "name_en": "Ebisu Shrine",
    "lat": 35.6472232,
    "lng": 139.7077849,
    "category": "shrine",
    "prefecture": "tokyo",
    "osm_id": 340381542,
    "spot_type": "data_spot",
    "data_source": "osm"
  },
  {
    "name": "清水湯",
    "name_en": "Shimizu-yu",
    "lat": 35.6494664,
    "lng": 139.6676693,
    "category": "onsen",
    "prefecture": "tokyo",
    "osm_id": 349080480,
    "spot_type": "data_spot",
    "data_source": "osm"
  },
  {
    "name": "十二神社",
    "name_en": "Juni-jinja Shrine",
    "lat": 35.6059631,
    "lng": 139.5076568,
    "category": "shrine",
    "prefecture": "tokyo",
    "osm_id": 371159132,
    "spot_type": "data_spot",
    "data_source": "osm"
  },
  {
    "name": "妙像寺",
    "name_en": "Myozoji Temple",
    "lat": 35.6657457,
    "lng": 139.7354859,
    "category": "temple",
    "prefecture": "tokyo",
    "osm_id": 389635180,
    "spot_type": "data_spot",
    "data_source": "osm"
  },
  {
    "name": "川通稲荷神社",
    "name_en": "",
    "lat": 35.8166931,
    "lng": 139.9026569,
    "category": "shrine",
    "prefecture": "tokyo",
    "osm_id": 390657439,
    "spot_type": "data_spot",
    "data_source": "osm"
  },
  {
    "name": "日本サッカーミュージアム",
    "name_en": "Japan Football Museum",
    "lat": 35.7042546,
    "lng": 139.7639427,
    "category": "museum",
    "prefecture": "tokyo",
    "osm_id": 410166105,
    "spot_type": "data_spot",
    "data_source": "osm"
  },
  {
    "name": "是政",
    "name_en": "Koremasa",
    "lat": 35.656312,
    "lng": 139.4893214,
    "category": "station",
    "prefecture": "tokyo",
    "osm_id": 412187550,
    "spot_type": "data_spot",
    "data_source": "osm"
  },
  {
    "name": "中近東文化センター",
    "name_en": "",
    "lat": 35.688788,
    "lng": 139.5345824,
    "category": "museum",
    "prefecture": "tokyo",
    "osm_id": 416517262,
    "spot_type": "data_spot",
    "data_source": "osm"
  },
  {
    "name": "神楽坂若宮八幡宮",
    "name_en": "",
    "lat": 35.6997288,
    "lng": 139.7401145,
    "category": "shrine",
    "prefecture": "tokyo",
    "osm_id": 417434075,
    "spot_type": "data_spot",
    "data_source": "osm"
  },
  {
    "name": "芝東照宮",
    "name_en": "Shiba Toshogu",
    "lat": 35.6550961,
    "lng": 139.7486263,
    "category": "shrine",
    "prefecture": "tokyo",
    "osm_id": 427893000,
    "spot_type": "data_spot",
    "data_source": "osm"
  },
  {
    "name": "五反田",
    "name_en": "Gotanda",
    "lat": 35.6262562,
    "lng": 139.7236303,
    "category": "station",
    "prefecture": "tokyo",
    "osm_id": 427973657,
    "spot_type": "data_spot",
    "data_source": "osm"
  },
  {
    "name": "鹿島神社",
    "name_en": "",
    "lat": 35.5391735,
    "lng": 139.4441875,
    "category": "shrine",
    "prefecture": "tokyo",
    "osm_id": 430150149,
    "spot_type": "data_spot",
    "data_source": "osm"
  },
  {
    "name": "南大谷 天神社",
    "name_en": "",
    "lat": 35.5551572,
    "lng": 139.4602487,
    "category": "shrine",
    "prefecture": "tokyo",
    "osm_id": 433664946,
    "spot_type": "data_spot",
    "data_source": "osm"
  },
  {
    "name": "白山神社",
    "name_en": "",
    "lat": 35.6869591,
    "lng": 139.6371745,
    "category": "shrine",
    "prefecture": "tokyo",
    "osm_id": 440069983,
    "spot_type": "data_spot",
    "data_source": "osm"
  },
  {
    "name": "上野の森美術館",
    "name_en": "The Ueno Royal Museum",
    "lat": 35.7128522,
    "lng": 139.7747663,
    "category": "museum",
    "prefecture": "tokyo",
    "osm_id": 441655802,
    "spot_type": "data_spot",
    "data_source": "osm"
  },
  {
    "name": "永福寺",
    "name_en": "",
    "lat": 35.6722482,
    "lng": 139.6441076,
    "category": "temple",
    "prefecture": "tokyo",
    "osm_id": 443387293,
    "spot_type": "data_spot",
    "data_source": "osm"
  },
  {
    "name": "八幡神社",
    "name_en": "",
    "lat": 35.6752302,
    "lng": 139.6304234,
    "category": "shrine",
    "prefecture": "tokyo",
    "osm_id": 443397545,
    "spot_type": "data_spot",
    "data_source": "osm"
  },
  {
    "name": "松林寺",
    "name_en": "",
    "lat": 35.6863829,
    "lng": 139.6208533,
    "category": "temple",
    "prefecture": "tokyo",
    "osm_id": 443698249,
    "spot_type": "data_spot",
    "data_source": "osm"
  },
  {
    "name": "伏見山 正法寺",
    "name_en": "",
    "lat": 35.6643884,
    "lng": 139.6517175,
    "category": "temple",
    "prefecture": "tokyo",
    "osm_id": 448138884,
    "spot_type": "data_spot",
    "data_source": "osm"
  },
  {
    "name": "勝林寺",
    "name_en": "",
    "lat": 35.6639113,
    "lng": 139.6518863,
    "category": "temple",
    "prefecture": "tokyo",
    "osm_id": 448140871,
    "spot_type": "data_spot",
    "data_source": "osm"
  },
  {
    "name": "浄徳寺",
    "name_en": "",
    "lat": 35.6632582,
    "lng": 139.6518698,
    "category": "temple",
    "prefecture": "tokyo",
    "osm_id": 448141327,
    "spot_type": "data_spot",
    "data_source": "osm"
  },
  {
    "name": "延重寺",
    "name_en": "",
    "lat": 35.6637858,
    "lng": 139.6521181,
    "category": "temple",
    "prefecture": "tokyo",
    "osm_id": 448141514,
    "spot_type": "data_spot",
    "data_source": "osm"
  },
  {
    "name": "妙正寺",
    "name_en": "Myoshoji Temple",
    "lat": 35.7159485,
    "lng": 139.617619,
    "category": "temple",
    "prefecture": "tokyo",
    "osm_id": 449554138,
    "spot_type": "data_spot",
    "data_source": "osm"
  },
  {
    "name": "松庵稲荷神社 (Shoan-Inarijinja)",
    "name_en": "Shoan-Inarijinja",
    "lat": 35.6994917,
    "lng": 139.5958193,
    "category": "shrine",
    "prefecture": "tokyo",
    "osm_id": 452559429,
    "spot_type": "data_spot",
    "data_source": "osm"
  },
  {
    "name": "羽根木神社",
    "name_en": "",
    "lat": 35.6682406,
    "lng": 139.6576868,
    "category": "shrine",
    "prefecture": "tokyo",
    "osm_id": 473535391,
    "spot_type": "data_spot",
    "data_source": "osm"
  },
  {
    "name": "若松河田",
    "name_en": "Wakamatsu-kawada",
    "lat": 35.6992849,
    "lng": 139.7184084,
    "category": "station",
    "prefecture": "tokyo",
    "osm_id": 475369200,
    "spot_type": "data_spot",
    "data_source": "osm"
  },
  {
    "name": "名称不明",
    "name_en": "",
    "lat": 35.6134998,
    "lng": 139.6239814,
    "category": "shrine",
    "prefecture": "tokyo",
    "osm_id": 477498733,
    "spot_type": "data_spot",
    "data_source": "osm"
  },
  {
    "name": "永福稲荷神社",
    "name_en": "",
    "lat": 35.6725708,
    "lng": 139.6428235,
    "category": "shrine",
    "prefecture": "tokyo",
    "osm_id": 480835382,
    "spot_type": "data_spot",
    "data_source": "osm"
  },
  {
    "name": "梅松院念仏寺",
    "name_en": "Baishoin  Nenbutsuji Temple",
    "lat": 35.7997841,
    "lng": 139.9435601,
    "category": "temple",
    "prefecture": "tokyo",
    "osm_id": 485550716,
    "spot_type": "data_spot",
    "data_source": "osm"
  },
  {
    "name": "法華宗 理性寺",
    "name_en": "",
    "lat": 35.6793544,
    "lng": 139.6357336,
    "category": "temple",
    "prefecture": "tokyo",
    "osm_id": 485686610,
    "spot_type": "data_spot",
    "data_source": "osm"
  },
  {
    "name": "雷神宮天満宮",
    "name_en": "",
    "lat": 35.7859545,
    "lng": 139.9180099,
    "category": "shrine",
    "prefecture": "tokyo",
    "osm_id": 501613811,
    "spot_type": "data_spot",
    "data_source": "osm"
  },
  {
    "name": "青林山 東覚院",
    "name_en": "",
    "lat": 35.6562648,
    "lng": 139.6136035,
    "category": "temple",
    "prefecture": "tokyo",
    "osm_id": 502954545,
    "spot_type": "data_spot",
    "data_source": "osm"
  },
  {
    "name": "清光寺",
    "name_en": "Seikoji Temple",
    "lat": 35.7721285,
    "lng": 139.900736,
    "category": "temple",
    "prefecture": "tokyo",
    "osm_id": 502955189,
    "spot_type": "data_spot",
    "data_source": "osm"
  },
  {
    "name": "山頂駅",
    "name_en": "Sanchō",
    "lat": 35.7524438,
    "lng": 139.7367734,
    "category": "station",
    "prefecture": "tokyo",
    "osm_id": 502964478,
    "spot_type": "data_spot",
    "data_source": "osm"
  },
  {
    "name": "公園入口駅",
    "name_en": "Kōen-iriguchi",
    "lat": 35.7527009,
    "lng": 139.7370704,
    "category": "station",
    "prefecture": "tokyo",
    "osm_id": 502964481,
    "spot_type": "data_spot",
    "data_source": "osm"
  },
  {
    "name": "観音院",
    "name_en": "",
    "lat": 35.6495653,
    "lng": 139.610513,
    "category": "temple",
    "prefecture": "tokyo",
    "osm_id": 502981313,
    "spot_type": "data_spot",
    "data_source": "osm"
  },
  {
    "name": "願行寺",
    "name_en": "Gangyo-ji",
    "lat": 35.7181766,
    "lng": 139.7588188,
    "category": "temple",
    "prefecture": "tokyo",
    "osm_id": 506125531,
    "spot_type": "data_spot",
    "data_source": "osm"
  },
  {
    "name": "西教寺",
    "name_en": "Saikyo-ji",
    "lat": 35.7172124,
    "lng": 139.7590029,
    "category": "temple",
    "prefecture": "tokyo",
    "osm_id": 506176366,
    "spot_type": "data_spot",
    "data_source": "osm"
  },
  {
    "name": "真島稲荷神社",
    "name_en": "Maijima Inari Shrine",
    "lat": 35.7210493,
    "lng": 139.7659237,
    "category": "shrine",
    "prefecture": "tokyo",
    "osm_id": 506214950,
    "spot_type": "data_spot",
    "data_source": "osm"
  },
  {
    "name": "梅の湯",
    "name_en": "ume-no-yu",
    "lat": 35.7557268,
    "lng": 139.7109319,
    "category": "onsen",
    "prefecture": "tokyo",
    "osm_id": 508048695,
    "spot_type": "data_spot",
    "data_source": "osm"
  },
  {
    "name": "松龍寺",
    "name_en": "",
    "lat": 35.7793078,
    "lng": 139.8983843,
    "category": "temple",
    "prefecture": "tokyo",
    "osm_id": 518477615,
    "spot_type": "data_spot",
    "data_source": "osm"
  },
  {
    "name": "松先稲荷神社",
    "name_en": "Massaki Inari Shrine",
    "lat": 35.7816883,
    "lng": 139.8982578,
    "category": "shrine",
    "prefecture": "tokyo",
    "osm_id": 518477628,
    "spot_type": "data_spot",
    "data_source": "osm"
  },
  {
    "name": "水神宮",
    "name_en": "Suishingu",
    "lat": 35.7757118,
    "lng": 139.912659,
    "category": "shrine",
    "prefecture": "tokyo",
    "osm_id": 520090484,
    "spot_type": "data_spot",
    "data_source": "osm"
  },
  {
    "name": "春日神社",
    "name_en": "Kasuga Shrine",
    "lat": 35.7899428,
    "lng": 139.9132222,
    "category": "shrine",
    "prefecture": "tokyo",
    "osm_id": 525360707,
    "spot_type": "data_spot",
    "data_source": "osm"
  },
  {
    "name": "みのり神社",
    "name_en": "Minori Shrine",
    "lat": 35.7865385,
    "lng": 139.9341451,
    "category": "shrine",
    "prefecture": "tokyo",
    "osm_id": 527820626,
    "spot_type": "data_spot",
    "data_source": "osm"
  },
  {
    "name": "熊野神社",
    "name_en": "Kumano Shrine",
    "lat": 35.7840902,
    "lng": 139.9415889,
    "category": "shrine",
    "prefecture": "tokyo",
    "osm_id": 527820628,
    "spot_type": "data_spot",
    "data_source": "osm"
  },
  {
    "name": "天台宗 知行院",
    "name_en": "",
    "lat": 35.6276603,
    "lng": 139.5991349,
    "category": "temple",
    "prefecture": "tokyo",
    "osm_id": 529428251,
    "spot_type": "data_spot",
    "data_source": "osm"
  },
  {
    "name": "名称不明",
    "name_en": "",
    "lat": 35.6226842,
    "lng": 139.6185907,
    "category": "shrine",
    "prefecture": "tokyo",
    "osm_id": 534088248,
    "spot_type": "data_spot",
    "data_source": "osm"
  },
  {
    "name": "三輪里稲荷神社 （こんにゃく稲荷）",
    "name_en": "",
    "lat": 35.7204468,
    "lng": 139.8263812,
    "category": "shrine",
    "prefecture": "tokyo",
    "osm_id": 552697551,
    "spot_type": "data_spot",
    "data_source": "osm"
  },
  {
    "name": "正覚寺",
    "name_en": "",
    "lat": 35.720175,
    "lng": 139.8261248,
    "category": "temple",
    "prefecture": "tokyo",
    "osm_id": 552697557,
    "spot_type": "data_spot",
    "data_source": "osm"
  },
  {
    "name": "小根本神明神社",
    "name_en": "Shinmei Shrine",
    "lat": 35.7866357,
    "lng": 139.9029126,
    "category": "shrine",
    "prefecture": "tokyo",
    "osm_id": 558753158,
    "spot_type": "data_spot",
    "data_source": "osm"
  },
  {
    "name": "大正寺",
    "name_en": "",
    "lat": 35.7802281,
    "lng": 139.8998253,
    "category": "temple",
    "prefecture": "tokyo",
    "osm_id": 559393646,
    "spot_type": "data_spot",
    "data_source": "osm"
  },
  {
    "name": "すくもづか稲荷神社",
    "name_en": "Sukumoduka Inari Shrine",
    "lat": 35.7838843,
    "lng": 139.8982186,
    "category": "shrine",
    "prefecture": "tokyo",
    "osm_id": 559398471,
    "spot_type": "data_spot",
    "data_source": "osm"
  },
  {
    "name": "多田神社",
    "name_en": "",
    "lat": 35.6832633,
    "lng": 139.6637755,
    "category": "shrine",
    "prefecture": "tokyo",
    "osm_id": 563674244,
    "spot_type": "data_spot",
    "data_source": "osm"
  },
  {
    "name": "寳福寺",
    "name_en": "",
    "lat": 35.6835944,
    "lng": 139.663754,
    "category": "temple",
    "prefecture": "tokyo",
    "osm_id": 563674394,
    "spot_type": "data_spot",
    "data_source": "osm"
  },
  {
    "name": "名称不明",
    "name_en": "",
    "lat": 35.6952275,
    "lng": 139.5348071,
    "category": "onsen",
    "prefecture": "tokyo",
    "osm_id": 567878684,
    "spot_type": "data_spot",
    "data_source": "osm"
  },
  {
    "name": "福昌寺",
    "name_en": "",
    "lat": 35.6505183,
    "lng": 139.6362377,
    "category": "temple",
    "prefecture": "tokyo",
    "osm_id": 579662653,
    "spot_type": "data_spot",
    "data_source": "osm"
  },
  {
    "name": "池上本門寺",
    "name_en": "Ikegami Honmonji",
    "lat": 35.5789017,
    "lng": 139.7051955,
    "category": "temple",
    "prefecture": "tokyo",
    "osm_id": 593986658,
    "spot_type": "data_spot",
    "data_source": "osm"
  },
  {
    "name": "名称不明",
    "name_en": "",
    "lat": 35.69452,
    "lng": 139.6540088,
    "category": "temple",
    "prefecture": "tokyo",
    "osm_id": 597376890,
    "spot_type": "data_spot",
    "data_source": "osm"
  },
  {
    "name": "宗延寺",
    "name_en": "",
    "lat": 35.6940103,
    "lng": 139.6538479,
    "category": "temple",
    "prefecture": "tokyo",
    "osm_id": 597377002,
    "spot_type": "data_spot",
    "data_source": "osm"
  },
  {
    "name": "本仏寺",
    "name_en": "",
    "lat": 35.6949208,
    "lng": 139.6523459,
    "category": "temple",
    "prefecture": "tokyo",
    "osm_id": 597378090,
    "spot_type": "data_spot",
    "data_source": "osm"
  },
  {
    "name": "修行寺",
    "name_en": "",
    "lat": 35.6947565,
    "lng": 139.6513585,
    "category": "temple",
    "prefecture": "tokyo",
    "osm_id": 597378609,
    "spot_type": "data_spot",
    "data_source": "osm"
  },
  {
    "name": "日蓮宗 妙祝寺",
    "name_en": "",
    "lat": 35.695141,
    "lng": 139.6518978,
    "category": "temple",
    "prefecture": "tokyo",
    "osm_id": 597378728,
    "spot_type": "data_spot",
    "data_source": "osm"
  },
  {
    "name": "下鶴間ふるさと館",
    "name_en": "",
    "lat": 35.5008836,
    "lng": 139.4642727,
    "category": "museum",
    "prefecture": "tokyo",
    "osm_id": 597698437,
    "spot_type": "data_spot",
    "data_source": "osm"
  },
  {
    "name": "尾崎熊野神社",
    "name_en": "",
    "lat": 35.6936042,
    "lng": 139.631288,
    "category": "shrine",
    "prefecture": "tokyo",
    "osm_id": 598176845,
    "spot_type": "data_spot",
    "data_source": "osm"
  },
  {
    "name": "乗泉寺 世田谷別院",
    "name_en": "",
    "lat": 35.6508153,
    "lng": 139.6450875,
    "category": "temple",
    "prefecture": "tokyo",
    "osm_id": 599238930,
    "spot_type": "data_spot",
    "data_source": "osm"
  },
  {
    "name": "文殊院",
    "name_en": "Monjuin",
    "lat": 35.7559487,
    "lng": 139.7096385,
    "category": "temple",
    "prefecture": "tokyo",
    "osm_id": 599497900,
    "spot_type": "data_spot",
    "data_source": "osm"
  },
  {
    "name": "飯守神社",
    "name_en": "",
    "lat": 35.6024837,
    "lng": 139.460041,
    "category": "shrine",
    "prefecture": "tokyo",
    "osm_id": 600683956,
    "spot_type": "data_spot",
    "data_source": "osm"
  },
  {
    "name": "多摩川水神",
    "name_en": "",
    "lat": 35.6114335,
    "lng": 139.6244096,
    "category": "shrine",
    "prefecture": "tokyo",
    "osm_id": 603152867,
    "spot_type": "data_spot",
    "data_source": "osm"
  },
  {
    "name": "應慶寺",
    "name_en": "",
    "lat": 35.6704431,
    "lng": 139.6859318,
    "category": "temple",
    "prefecture": "tokyo",
    "osm_id": 603920702,
    "spot_type": "data_spot",
    "data_source": "osm"
  },
  {
    "name": "五島美術館別館",
    "name_en": "Gotoh Museum Annex",
    "lat": 35.6119856,
    "lng": 139.6358686,
    "category": "museum",
    "prefecture": "tokyo",
    "osm_id": 604349728,
    "spot_type": "data_spot",
    "data_source": "osm"
  },
  {
    "name": "千駄堀天神 (Sendabori Tenjin Shrine)",
    "name_en": "",
    "lat": 35.8014298,
    "lng": 139.9338537,
    "category": "shrine",
    "prefecture": "tokyo",
    "osm_id": 610798490,
    "spot_type": "data_spot",
    "data_source": "osm"
  },
  {
    "name": "観音寺",
    "name_en": "",
    "lat": 35.6236207,
    "lng": 139.6016303,
    "category": "temple",
    "prefecture": "tokyo",
    "osm_id": 610939786,
    "spot_type": "data_spot",
    "data_source": "osm"
  },
  {
    "name": "清流寺",
    "name_en": "",
    "lat": 35.6499672,
    "lng": 139.7087366,
    "category": "temple",
    "prefecture": "tokyo",
    "osm_id": 617028945,
    "spot_type": "data_spot",
    "data_source": "osm"
  },
  {
    "name": "医王寺",
    "name_en": "",
    "lat": 35.6740277,
    "lng": 139.6119292,
    "category": "temple",
    "prefecture": "tokyo",
    "osm_id": 618611485,
    "spot_type": "data_spot",
    "data_source": "osm"
  },
  {
    "name": "汁守神社",
    "name_en": "",
    "lat": 35.6133639,
    "lng": 139.4668505,
    "category": "shrine",
    "prefecture": "tokyo",
    "osm_id": 623976744,
    "spot_type": "data_spot",
    "data_source": "osm"
  },
  {
    "name": "聖徳寺",
    "name_en": "",
    "lat": 35.6576972,
    "lng": 139.6849266,
    "category": "temple",
    "prefecture": "tokyo",
    "osm_id": 625646968,
    "spot_type": "data_spot",
    "data_source": "osm"
  },
  {
    "name": "正覚寺",
    "name_en": "Shogaku-ji",
    "lat": 35.6352788,
    "lng": 139.7374543,
    "category": "temple",
    "prefecture": "tokyo",
    "osm_id": 631424533,
    "spot_type": "data_spot",
    "data_source": "osm"
  },
  {
    "name": "打越天神北野神社",
    "name_en": "Kitano Shrine",
    "lat": 35.7072241,
    "lng": 139.6719239,
    "category": "shrine",
    "prefecture": "tokyo",
    "osm_id": 633212807,
    "spot_type": "data_spot",
    "data_source": "osm"
  },
  {
    "name": "柴崎稲荷神社",
    "name_en": "",
    "lat": 35.6606785,
    "lng": 139.5651395,
    "category": "shrine",
    "prefecture": "tokyo",
    "osm_id": 638210315,
    "spot_type": "data_spot",
    "data_source": "osm"
  },
  {
    "name": "延浄寺",
    "name_en": "",
    "lat": 35.6634218,
    "lng": 139.5705916,
    "category": "temple",
    "prefecture": "tokyo",
    "osm_id": 638217271,
    "spot_type": "data_spot",
    "data_source": "osm"
  },
  {
    "name": "昌翁寺",
    "name_en": "",
    "lat": 35.664072,
    "lng": 139.5849535,
    "category": "temple",
    "prefecture": "tokyo",
    "osm_id": 638960286,
    "spot_type": "data_spot",
    "data_source": "osm"
  },
  {
    "name": "久我寺",
    "name_en": "",
    "lat": 35.6917064,
    "lng": 139.6019609,
    "category": "temple",
    "prefecture": "tokyo",
    "osm_id": 644878886,
    "spot_type": "data_spot",
    "data_source": "osm"
  },
  {
    "name": "世田谷美術館分館 清川泰次記念ギャラリー",
    "name_en": "Setagaya Museum of Art Annex Kiyokawa Taiji Memorial Gallery",
    "lat": 35.6385768,
    "lng": 139.6008373,
    "category": "museum",
    "prefecture": "tokyo",
    "osm_id": 651573302,
    "spot_type": "data_spot",
    "data_source": "osm"
  },
  {
    "name": "秋津",
    "name_en": "Akitsu",
    "lat": 35.7785324,
    "lng": 139.496609,
    "category": "station",
    "prefecture": "tokyo",
    "osm_id": 664579528,
    "spot_type": "data_spot",
    "data_source": "osm"
  },
  {
    "name": "石神井公園",
    "name_en": "Shakujii-kōen Station",
    "lat": 35.7438271,
    "lng": 139.6061566,
    "category": "station",
    "prefecture": "tokyo",
    "osm_id": 664579530,
    "spot_type": "data_spot",
    "data_source": "osm"
  },
  {
    "name": "富士見台",
    "name_en": "Fujimidai",
    "lat": 35.7359523,
    "lng": 139.6300042,
    "category": "station",
    "prefecture": "tokyo",
    "osm_id": 664579533,
    "spot_type": "data_spot",
    "data_source": "osm"
  },
  {
    "name": "練馬高野台",
    "name_en": "Nerima-Takanodai",
    "lat": 35.7409213,
    "lng": 139.6163048,
    "category": "station",
    "prefecture": "tokyo",
    "osm_id": 664579534,
    "spot_type": "data_spot",
    "data_source": "osm"
  },
  {
    "name": "椎名町",
    "name_en": "Shiinamachi",
    "lat": 35.7264476,
    "lng": 139.6948922,
    "category": "station",
    "prefecture": "tokyo",
    "osm_id": 664579553,
    "spot_type": "data_spot",
    "data_source": "osm"
  },
  {
    "name": "池袋",
    "name_en": "Ikebukuro",
    "lat": 35.7280917,
    "lng": 139.7110372,
    "category": "station",
    "prefecture": "tokyo",
    "osm_id": 664579562,
    "spot_type": "data_spot",
    "data_source": "osm"
  },
  {
    "name": "浄元寺",
    "name_en": "",
    "lat": 35.6062027,
    "lng": 139.6061704,
    "category": "temple",
    "prefecture": "tokyo",
    "osm_id": 665211609,
    "spot_type": "data_spot",
    "data_source": "osm"
  },
  {
    "name": "氷川神社",
    "name_en": "Hikawa Shrine",
    "lat": 35.6187792,
    "lng": 139.6710749,
    "category": "shrine",
    "prefecture": "tokyo",
    "osm_id": 665718732,
    "spot_type": "data_spot",
    "data_source": "osm"
  },
  {
    "name": "二宮神社",
    "name_en": "",
    "lat": 35.5174709,
    "lng": 139.4222109,
    "category": "shrine",
    "prefecture": "tokyo",
    "osm_id": 665888868,
    "spot_type": "data_spot",
    "data_source": "osm"
  },
  {
    "name": "小田急相模原",
    "name_en": "Odakyu-Sagamihara",
    "lat": 35.5151962,
    "lng": 139.422646,
    "category": "station",
    "prefecture": "tokyo",
    "osm_id": 666928567,
    "spot_type": "data_spot",
    "data_source": "osm"
  },
  {
    "name": "浄土真宗 了然寺",
    "name_en": "",
    "lat": 35.718242,
    "lng": 139.6690453,
    "category": "temple",
    "prefecture": "tokyo",
    "osm_id": 675843895,
    "spot_type": "data_spot",
    "data_source": "osm"
  },
  {
    "name": "毛塚",
    "name_en": "Seki-jinja Shrine (Hair Mound)",
    "lat": 35.7534662,
    "lng": 139.7352902,
    "category": "shrine",
    "prefecture": "tokyo",
    "osm_id": 676419678,
    "spot_type": "data_spot",
    "data_source": "osm"
  },
  {
    "name": "十日森稲荷神社",
    "name_en": "",
    "lat": 35.6332877,
    "lng": 139.688902,
    "category": "shrine",
    "prefecture": "tokyo",
    "osm_id": 679058537,
    "spot_type": "data_spot",
    "data_source": "osm"
  },
  {
    "name": "東京門跡別院 満足院",
    "name_en": "",
    "lat": 35.6541761,
    "lng": 139.6516857,
    "category": "temple",
    "prefecture": "tokyo",
    "osm_id": 683071138,
    "spot_type": "data_spot",
    "data_source": "osm"
  },
  {
    "name": "杓子稲荷神社",
    "name_en": "",
    "lat": 35.6533522,
    "lng": 139.651514,
    "category": "shrine",
    "prefecture": "tokyo",
    "osm_id": 683071188,
    "spot_type": "data_spot",
    "data_source": "osm"
  },
  {
    "name": "圓福寺",
    "name_en": "",
    "lat": 35.7021478,
    "lng": 139.735085,
    "category": "temple",
    "prefecture": "tokyo",
    "osm_id": 691320555,
    "spot_type": "data_spot",
    "data_source": "osm"
  },
  {
    "name": "法正寺",
    "name_en": "",
    "lat": 35.7018353,
    "lng": 139.7362866,
    "category": "temple",
    "prefecture": "tokyo",
    "osm_id": 691320609,
    "spot_type": "data_spot",
    "data_source": "osm"
  },
  {
    "name": "市谷亀岡八幡宮",
    "name_en": "Ichigaya-Kamegaoka-Hachiman-gū",
    "lat": 35.6927381,
    "lng": 139.733724,
    "category": "shrine",
    "prefecture": "tokyo",
    "osm_id": 691471427,
    "spot_type": "data_spot",
    "data_source": "osm"
  },
  {
    "name": "国府台天満宮",
    "name_en": "Konodai Tenmangu Shrine",
    "lat": 35.7491684,
    "lng": 139.8989251,
    "category": "shrine",
    "prefecture": "tokyo",
    "osm_id": 693046941,
    "spot_type": "data_spot",
    "data_source": "osm"
  },
  {
    "name": "愛宕神社",
    "name_en": "",
    "lat": 35.7591722,
    "lng": 139.9034151,
    "category": "shrine",
    "prefecture": "tokyo",
    "osm_id": 693190003,
    "spot_type": "data_spot",
    "data_source": "osm"
  },
  {
    "name": "大倉山",
    "name_en": "Okurayama",
    "lat": 35.52186,
    "lng": 139.6298585,
    "category": "station",
    "prefecture": "tokyo",
    "osm_id": 694234836,
    "spot_type": "data_spot",
    "data_source": "osm"
  },
  {
    "name": "鈴木稲荷神社",
    "name_en": "Suzuki Inari Jinja",
    "lat": 35.7222289,
    "lng": 139.4952061,
    "category": "shrine",
    "prefecture": "tokyo",
    "osm_id": 695228511,
    "spot_type": "data_spot",
    "data_source": "osm"
  },
  {
    "name": "天祖神社",
    "name_en": "",
    "lat": 35.7226338,
    "lng": 139.8670683,
    "category": "shrine",
    "prefecture": "tokyo",
    "osm_id": 701720727,
    "spot_type": "data_spot",
    "data_source": "osm"
  },
  {
    "name": "神社",
    "name_en": "",
    "lat": 35.7132309,
    "lng": 139.5204913,
    "category": "shrine",
    "prefecture": "tokyo",
    "osm_id": 701730397,
    "spot_type": "data_spot",
    "data_source": "osm"
  },
  {
    "name": "荻窪八幡神社",
    "name_en": "Ogikubo Hachiman",
    "lat": 35.7106212,
    "lng": 139.6063292,
    "category": "shrine",
    "prefecture": "tokyo",
    "osm_id": 701854488,
    "spot_type": "data_spot",
    "data_source": "osm"
  },
  {
    "name": "伏見三宝稲荷神社",
    "name_en": "Fushimi Sambo Inari-jinja Shrine",
    "lat": 35.6542344,
    "lng": 139.7453916,
    "category": "shrine",
    "prefecture": "tokyo",
    "osm_id": 703040018,
    "spot_type": "data_spot",
    "data_source": "osm"
  },
  {
    "name": "妙定院",
    "name_en": "Myojo-in Temple",
    "lat": 35.6545022,
    "lng": 139.7461635,
    "category": "temple",
    "prefecture": "tokyo",
    "osm_id": 703042172,
    "spot_type": "data_spot",
    "data_source": "osm"
  },
  {
    "name": "當麻山 泉蔵院",
    "name_en": "",
    "lat": 35.7375178,
    "lng": 139.5025165,
    "category": "temple",
    "prefecture": "tokyo",
    "osm_id": 704989674,
    "spot_type": "data_spot",
    "data_source": "osm"
  },
  {
    "name": "願泉寺",
    "name_en": "",
    "lat": 35.7039724,
    "lng": 139.6122215,
    "category": "temple",
    "prefecture": "tokyo",
    "osm_id": 705006535,
    "spot_type": "data_spot",
    "data_source": "osm"
  },
  {
    "name": "三界寺",
    "name_en": "",
    "lat": 35.6586271,
    "lng": 139.6438024,
    "category": "temple",
    "prefecture": "tokyo",
    "osm_id": 705142753,
    "spot_type": "data_spot",
    "data_source": "osm"
  },
  {
    "name": "安養寺",
    "name_en": "",
    "lat": 35.7125103,
    "lng": 139.8426167,
    "category": "temple",
    "prefecture": "tokyo",
    "osm_id": 712908281,
    "spot_type": "data_spot",
    "data_source": "osm"
  },
  {
    "name": "杉山神社",
    "name_en": "",
    "lat": 35.5486891,
    "lng": 139.5730156,
    "category": "shrine",
    "prefecture": "tokyo",
    "osm_id": 721674448,
    "spot_type": "data_spot",
    "data_source": "osm"
  },
  {
    "name": "見沼代親水公園",
    "name_en": "Minumadai-shinsuikoen",
    "lat": 35.814493,
    "lng": 139.7707277,
    "category": "station",
    "prefecture": "tokyo",
    "osm_id": 722149242,
    "spot_type": "data_spot",
    "data_source": "osm"
  },
  {
    "name": "白髭神社",
    "name_en": "",
    "lat": 35.7328433,
    "lng": 139.8403003,
    "category": "shrine",
    "prefecture": "tokyo",
    "osm_id": 724639010,
    "spot_type": "data_spot",
    "data_source": "osm"
  },
  {
    "name": "日枝神社",
    "name_en": "",
    "lat": 35.7269643,
    "lng": 139.8300785,
    "category": "shrine",
    "prefecture": "tokyo",
    "osm_id": 724732016,
    "spot_type": "data_spot",
    "data_source": "osm"
  },
  {
    "name": "寶蔵寺",
    "name_en": "",
    "lat": 35.7275805,
    "lng": 139.82678,
    "category": "temple",
    "prefecture": "tokyo",
    "osm_id": 724828653,
    "spot_type": "data_spot",
    "data_source": "osm"
  },
  {
    "name": "光照寺",
    "name_en": "",
    "lat": 35.6561752,
    "lng": 139.561738,
    "category": "temple",
    "prefecture": "tokyo",
    "osm_id": 725876350,
    "spot_type": "data_spot",
    "data_source": "osm"
  },
  {
    "name": "熊野神社",
    "name_en": "",
    "lat": 35.758333,
    "lng": 139.4010216,
    "category": "shrine",
    "prefecture": "tokyo",
    "osm_id": 726495744,
    "spot_type": "data_spot",
    "data_source": "osm"
  },
  {
    "name": "慈眼院",
    "name_en": "",
    "lat": 35.7399006,
    "lng": 139.8337185,
    "category": "temple",
    "prefecture": "tokyo",
    "osm_id": 730163360,
    "spot_type": "data_spot",
    "data_source": "osm"
  },
  {
    "name": "篠原稲荷神社",
    "name_en": "",
    "lat": 35.7402018,
    "lng": 139.8336825,
    "category": "shrine",
    "prefecture": "tokyo",
    "osm_id": 730163368,
    "spot_type": "data_spot",
    "data_source": "osm"
  },
  {
    "name": "巌嶋神社",
    "name_en": "",
    "lat": 35.6608438,
    "lng": 139.5678877,
    "category": "shrine",
    "prefecture": "tokyo",
    "osm_id": 731805423,
    "spot_type": "data_spot",
    "data_source": "osm"
  },
  {
    "name": "春日神社",
    "name_en": "",
    "lat": 35.5859717,
    "lng": 139.6453398,
    "category": "shrine",
    "prefecture": "tokyo",
    "osm_id": 734921620,
    "spot_type": "data_spot",
    "data_source": "osm"
  },
  {
    "name": "東樹院多聞寺",
    "name_en": "",
    "lat": 35.5921052,
    "lng": 139.6428845,
    "category": "temple",
    "prefecture": "tokyo",
    "osm_id": 734921669,
    "spot_type": "data_spot",
    "data_source": "osm"
  },
  {
    "name": "東小松川香取神社",
    "name_en": "Katori Shrine",
    "lat": 35.7090811,
    "lng": 139.8673857,
    "category": "shrine",
    "prefecture": "tokyo",
    "osm_id": 735982292,
    "spot_type": "data_spot",
    "data_source": "osm"
  },
  {
    "name": "神明神社",
    "name_en": "",
    "lat": 35.5834729,
    "lng": 139.6432305,
    "category": "shrine",
    "prefecture": "tokyo",
    "osm_id": 737222840,
    "spot_type": "data_spot",
    "data_source": "osm"
  },
  {
    "name": "杉山神社",
    "name_en": "",
    "lat": 35.5462085,
    "lng": 139.608173,
    "category": "shrine",
    "prefecture": "tokyo",
    "osm_id": 739474111,
    "spot_type": "data_spot",
    "data_source": "osm"
  },
  {
    "name": "圓福寺",
    "name_en": "",
    "lat": 35.6952097,
    "lng": 139.8790842,
    "category": "temple",
    "prefecture": "tokyo",
    "osm_id": 740246039,
    "spot_type": "data_spot",
    "data_source": "osm"
  },
  {
    "name": "名称不明",
    "name_en": "",
    "lat": 35.5821453,
    "lng": 139.6445087,
    "category": "temple",
    "prefecture": "tokyo",
    "osm_id": 740707096,
    "spot_type": "data_spot",
    "data_source": "osm"
  },
  {
    "name": "惟神會本部",
    "name_en": "Yuishinkai Headquarters",
    "lat": 35.6555774,
    "lng": 139.697984,
    "category": "shrine",
    "prefecture": "tokyo",
    "osm_id": 741609972,
    "spot_type": "data_spot",
    "data_source": "osm"
  },
  {
    "name": "青龍神社",
    "name_en": "",
    "lat": 35.7516054,
    "lng": 139.861906,
    "category": "shrine",
    "prefecture": "tokyo",
    "osm_id": 752170375,
    "spot_type": "data_spot",
    "data_source": "osm"
  },
  {
    "name": "湯パーク",
    "name_en": "",
    "lat": 35.6462596,
    "lng": 139.6135351,
    "category": "onsen",
    "prefecture": "tokyo",
    "osm_id": 759354840,
    "spot_type": "data_spot",
    "data_source": "osm"
  },
  {
    "name": "北千住",
    "name_en": "Kita-Senju",
    "lat": 35.7495401,
    "lng": 139.8050915,
    "category": "station",
    "prefecture": "tokyo",
    "osm_id": 760985649,
    "spot_type": "data_spot",
    "data_source": "osm"
  },
  {
    "name": "稲荷神社",
    "name_en": "",
    "lat": 35.7903464,
    "lng": 139.9247031,
    "category": "shrine",
    "prefecture": "tokyo",
    "osm_id": 765043648,
    "spot_type": "data_spot",
    "data_source": "osm"
  },
  {
    "name": "根本天満宮",
    "name_en": "",
    "lat": 35.7877632,
    "lng": 139.8993628,
    "category": "shrine",
    "prefecture": "tokyo",
    "osm_id": 765043649,
    "spot_type": "data_spot",
    "data_source": "osm"
  },
  {
    "name": "鵜森稲荷神社",
    "name_en": "Umori Inari Shrine",
    "lat": 35.7951707,
    "lng": 139.8935171,
    "category": "shrine",
    "prefecture": "tokyo",
    "osm_id": 765055788,
    "spot_type": "data_spot",
    "data_source": "osm"
  },
  {
    "name": "京成金町",
    "name_en": "Keisei Kanamachi",
    "lat": 35.7686276,
    "lng": 139.8704721,
    "category": "station",
    "prefecture": "tokyo",
    "osm_id": 769422102,
    "spot_type": "data_spot",
    "data_source": "osm"
  },
  {
    "name": "五反田神社",
    "name_en": "",
    "lat": 35.6144369,
    "lng": 139.5437319,
    "category": "shrine",
    "prefecture": "tokyo",
    "osm_id": 771304715,
    "spot_type": "data_spot",
    "data_source": "osm"
  },
  {
    "name": "来迎寺",
    "name_en": "",
    "lat": 35.7866531,
    "lng": 139.8948016,
    "category": "temple",
    "prefecture": "tokyo",
    "osm_id": 771342045,
    "spot_type": "data_spot",
    "data_source": "osm"
  },
  {
    "name": "平潟神社",
    "name_en": "Hirakata Shrine",
    "lat": 35.7866776,
    "lng": 139.8944502,
    "category": "shrine",
    "prefecture": "tokyo",
    "osm_id": 771342053,
    "spot_type": "data_spot",
    "data_source": "osm"
  },
  {
    "name": "宝光院",
    "name_en": "Houkouin Temple",
    "lat": 35.7829433,
    "lng": 139.896368,
    "category": "temple",
    "prefecture": "tokyo",
    "osm_id": 771368327,
    "spot_type": "data_spot",
    "data_source": "osm"
  },
  {
    "name": "善照寺",
    "name_en": "",
    "lat": 35.7834927,
    "lng": 139.8965638,
    "category": "temple",
    "prefecture": "tokyo",
    "osm_id": 771412753,
    "spot_type": "data_spot",
    "data_source": "osm"
  },
  {
    "name": "妙晃寺",
    "name_en": "",
    "lat": 35.7817669,
    "lng": 139.8964686,
    "category": "temple",
    "prefecture": "tokyo",
    "osm_id": 771412755,
    "spot_type": "data_spot",
    "data_source": "osm"
  },
  {
    "name": "西日暮里",
    "name_en": "Nishi-nippori",
    "lat": 35.7337333,
    "lng": 139.7681087,
    "category": "station",
    "prefecture": "tokyo",
    "osm_id": 772364943,
    "spot_type": "data_spot",
    "data_source": "osm"
  },
  {
    "name": "日暮里",
    "name_en": "Nippori",
    "lat": 35.7289204,
    "lng": 139.7713635,
    "category": "station",
    "prefecture": "tokyo",
    "osm_id": 772389775,
    "spot_type": "data_spot",
    "data_source": "osm"
  },
  {
    "name": "神明宮",
    "name_en": "",
    "lat": 35.6954049,
    "lng": 139.5019836,
    "category": "shrine",
    "prefecture": "tokyo",
    "osm_id": 776375919,
    "spot_type": "data_spot",
    "data_source": "osm"
  },
  {
    "name": "興安寺",
    "name_en": "",
    "lat": 35.703775,
    "lng": 139.7579874,
    "category": "temple",
    "prefecture": "tokyo",
    "osm_id": 779020664,
    "spot_type": "data_spot",
    "data_source": "osm"
  },
  {
    "name": "本郷三丁目",
    "name_en": "Hongo-sanchome",
    "lat": 35.7066386,
    "lng": 139.7599627,
    "category": "station",
    "prefecture": "tokyo",
    "osm_id": 789405355,
    "spot_type": "data_spot",
    "data_source": "osm"
  },
  {
    "name": "名称不明",
    "name_en": "",
    "lat": 35.6937231,
    "lng": 139.6611166,
    "category": "temple",
    "prefecture": "tokyo",
    "osm_id": 802134951,
    "spot_type": "data_spot",
    "data_source": "osm"
  },
  {
    "name": "蓮光寺",
    "name_en": "",
    "lat": 35.6956549,
    "lng": 139.65491,
    "category": "temple",
    "prefecture": "tokyo",
    "osm_id": 810749319,
    "spot_type": "data_spot",
    "data_source": "osm"
  },
  {
    "name": "土と農の交流園",
    "name_en": "Farming Garden for Citizen",
    "lat": 35.6590377,
    "lng": 139.6279406,
    "category": "museum",
    "prefecture": "tokyo",
    "osm_id": 811208933,
    "spot_type": "data_spot",
    "data_source": "osm"
  },
  {
    "name": "西蓮寺",
    "name_en": "Seirenji Temple",
    "lat": 35.7842242,
    "lng": 139.8967275,
    "category": "temple",
    "prefecture": "tokyo",
    "osm_id": 816406914,
    "spot_type": "data_spot",
    "data_source": "osm"
  },
  {
    "name": "成田不動",
    "name_en": "",
    "lat": 35.786509,
    "lng": 139.9009087,
    "category": "temple",
    "prefecture": "tokyo",
    "osm_id": 817034467,
    "spot_type": "data_spot",
    "data_source": "osm"
  },
  {
    "name": "大松寺",
    "name_en": "Daishoji",
    "lat": 35.6475246,
    "lng": 139.7411317,
    "category": "temple",
    "prefecture": "tokyo",
    "osm_id": 820360466,
    "spot_type": "data_spot",
    "data_source": "osm"
  },
  {
    "name": "宝生院",
    "name_en": "Hoshoin",
    "lat": 35.6467098,
    "lng": 139.7405773,
    "category": "temple",
    "prefecture": "tokyo",
    "osm_id": 820360469,
    "spot_type": "data_spot",
    "data_source": "osm"
  },
  {
    "name": "長延寺",
    "name_en": "Choenji",
    "lat": 35.6470135,
    "lng": 139.7406229,
    "category": "temple",
    "prefecture": "tokyo",
    "osm_id": 820360471,
    "spot_type": "data_spot",
    "data_source": "osm"
  },
  {
    "name": "西藏院",
    "name_en": "Saizoin",
    "lat": 35.6472336,
    "lng": 139.740909,
    "category": "temple",
    "prefecture": "tokyo",
    "osm_id": 820360478,
    "spot_type": "data_spot",
    "data_source": "osm"
  },
  {
    "name": "旧新橋停車場鉄道歴史展示室",
    "name_en": "Old Shimbashi Station Railway History Exhibition Hall",
    "lat": 35.6659465,
    "lng": 139.7616202,
    "category": "museum",
    "prefecture": "tokyo",
    "osm_id": 820849494,
    "spot_type": "data_spot",
    "data_source": "osm"
  },
  {
    "name": "常照庵",
    "name_en": "",
    "lat": 35.7844231,
    "lng": 139.9170034,
    "category": "temple",
    "prefecture": "tokyo",
    "osm_id": 822411129,
    "spot_type": "data_spot",
    "data_source": "osm"
  },
  {
    "name": "名称不明",
    "name_en": "",
    "lat": 35.7822294,
    "lng": 139.8978546,
    "category": "shrine",
    "prefecture": "tokyo",
    "osm_id": 822452388,
    "spot_type": "data_spot",
    "data_source": "osm"
  },
  {
    "name": "名称不明",
    "name_en": "",
    "lat": 35.6914318,
    "lng": 139.538408,
    "category": "shrine",
    "prefecture": "tokyo",
    "osm_id": 823497219,
    "spot_type": "data_spot",
    "data_source": "osm"
  },
  {
    "name": "禅林寺",
    "name_en": "",
    "lat": 35.6943549,
    "lng": 139.5599009,
    "category": "temple",
    "prefecture": "tokyo",
    "osm_id": 831194625,
    "spot_type": "data_spot",
    "data_source": "osm"
  },
  {
    "name": "目白",
    "name_en": "Mejiro",
    "lat": 35.7211919,
    "lng": 139.7064645,
    "category": "station",
    "prefecture": "tokyo",
    "osm_id": 832289046,
    "spot_type": "data_spot",
    "data_source": "osm"
  },
  {
    "name": "池田弁財天",
    "name_en": "",
    "lat": 35.7877423,
    "lng": 139.9041641,
    "category": "shrine",
    "prefecture": "tokyo",
    "osm_id": 839735411,
    "spot_type": "data_spot",
    "data_source": "osm"
  },
  {
    "name": "岩山稲荷",
    "name_en": "Iwayama Inari Shrine",
    "lat": 35.787006,
    "lng": 139.902008,
    "category": "shrine",
    "prefecture": "tokyo",
    "osm_id": 839756943,
    "spot_type": "data_spot",
    "data_source": "osm"
  },
  {
    "name": "高幡不動尊",
    "name_en": "Takahata Fudoson",
    "lat": 35.6622183,
    "lng": 139.4108786,
    "category": "temple",
    "prefecture": "tokyo",
    "osm_id": 841934372,
    "spot_type": "data_spot",
    "data_source": "osm"
  },
  {
    "name": "圓慶寺",
    "name_en": "",
    "lat": 35.7782189,
    "lng": 139.8965553,
    "category": "temple",
    "prefecture": "tokyo",
    "osm_id": 842101894,
    "spot_type": "data_spot",
    "data_source": "osm"
  },
  {
    "name": "居木神社",
    "name_en": "Irugi Jinja",
    "lat": 35.6198531,
    "lng": 139.7252578,
    "category": "shrine",
    "prefecture": "tokyo",
    "osm_id": 843098167,
    "spot_type": "data_spot",
    "data_source": "osm"
  },
  {
    "name": "六所神社",
    "name_en": "",
    "lat": 35.6585234,
    "lng": 139.6432292,
    "category": "shrine",
    "prefecture": "tokyo",
    "osm_id": 849454032,
    "spot_type": "data_spot",
    "data_source": "osm"
  },
  {
    "name": "即法寺",
    "name_en": "",
    "lat": 35.6577801,
    "lng": 139.6387183,
    "category": "temple",
    "prefecture": "tokyo",
    "osm_id": 849460144,
    "spot_type": "data_spot",
    "data_source": "osm"
  },
  {
    "name": "ウエスタンリバー鉄道",
    "name_en": "",
    "lat": 35.6337187,
    "lng": 139.8823855,
    "category": "station",
    "prefecture": "tokyo",
    "osm_id": 859663338,
    "spot_type": "data_spot",
    "data_source": "osm"
  },
  {
    "name": "ポートディスカバリー・ステーション",
    "name_en": "Port Discovery Station",
    "lat": 35.625393,
    "lng": 139.8830972,
    "category": "station",
    "prefecture": "tokyo",
    "osm_id": 859682633,
    "spot_type": "data_spot",
    "data_source": "osm"
  },
  {
    "name": "アメリカンウォーターフロント・ステーション",
    "name_en": "American Waterfront",
    "lat": 35.6248634,
    "lng": 139.8877946,
    "category": "station",
    "prefecture": "tokyo",
    "osm_id": 859682692,
    "spot_type": "data_spot",
    "data_source": "osm"
  },
  {
    "name": "大安楽寺",
    "name_en": "",
    "lat": 35.6908528,
    "lng": 139.7780335,
    "category": "temple",
    "prefecture": "tokyo",
    "osm_id": 860337530,
    "spot_type": "data_spot",
    "data_source": "osm"
  },
  {
    "name": "常楽寺",
    "name_en": "",
    "lat": 35.5203372,
    "lng": 139.4645952,
    "category": "temple",
    "prefecture": "tokyo",
    "osm_id": 864279754,
    "spot_type": "data_spot",
    "data_source": "osm"
  },
  {
    "name": "八坂神社",
    "name_en": "",
    "lat": 35.5162419,
    "lng": 139.4667343,
    "category": "shrine",
    "prefecture": "tokyo",
    "osm_id": 864279755,
    "spot_type": "data_spot",
    "data_source": "osm"
  },
  {
    "name": "稚児大師御影堂",
    "name_en": "Chigo Daishi Mieidō",
    "lat": 35.6038205,
    "lng": 139.6462502,
    "category": "temple",
    "prefecture": "tokyo",
    "osm_id": 865373124,
    "spot_type": "data_spot",
    "data_source": "osm"
  },
  {
    "name": "名称不明",
    "name_en": "",
    "lat": 35.6036726,
    "lng": 139.6465855,
    "category": "temple",
    "prefecture": "tokyo",
    "osm_id": 865373257,
    "spot_type": "data_spot",
    "data_source": "osm"
  },
  {
    "name": "円乗院",
    "name_en": "",
    "lat": 35.655422,
    "lng": 139.6609171,
    "category": "temple",
    "prefecture": "tokyo",
    "osm_id": 873842087,
    "spot_type": "data_spot",
    "data_source": "osm"
  },
  {
    "name": "正覚寺",
    "name_en": "",
    "lat": 35.6888946,
    "lng": 139.4800381,
    "category": "temple",
    "prefecture": "tokyo",
    "osm_id": 885729293,
    "spot_type": "data_spot",
    "data_source": "osm"
  },
  {
    "name": "大宣寺",
    "name_en": "",
    "lat": 35.6982114,
    "lng": 139.4533756,
    "category": "temple",
    "prefecture": "tokyo",
    "osm_id": 886036543,
    "spot_type": "data_spot",
    "data_source": "osm"
  },
  {
    "name": "千住本氷川神社",
    "name_en": "Senju Honhikawa-jinja Shrine",
    "lat": 35.7525259,
    "lng": 139.8022537,
    "category": "shrine",
    "prefecture": "tokyo",
    "osm_id": 892732726,
    "spot_type": "data_spot",
    "data_source": "osm"
  },
  {
    "name": "正光寺",
    "name_en": "",
    "lat": 35.7087968,
    "lng": 139.6484116,
    "category": "temple",
    "prefecture": "tokyo",
    "osm_id": 895752938,
    "spot_type": "data_spot",
    "data_source": "osm"
  },
  {
    "name": "月見湯温泉",
    "name_en": "",
    "lat": 35.6654718,
    "lng": 139.6359584,
    "category": "onsen",
    "prefecture": "tokyo",
    "osm_id": 897445502,
    "spot_type": "data_spot",
    "data_source": "osm"
  },
  {
    "name": "西府",
    "name_en": "Nishifu",
    "lat": 35.6709626,
    "lng": 139.4573995,
    "category": "station",
    "prefecture": "tokyo",
    "osm_id": 906705739,
    "spot_type": "data_spot",
    "data_source": "osm"
  },
  {
    "name": "伊豆美神社",
    "name_en": "",
    "lat": 35.6346636,
    "lng": 139.5690795,
    "category": "shrine",
    "prefecture": "tokyo",
    "osm_id": 906797518,
    "spot_type": "data_spot",
    "data_source": "osm"
  },
  {
    "name": "名称不明",
    "name_en": "",
    "lat": 35.5324964,
    "lng": 139.6817075,
    "category": "temple",
    "prefecture": "tokyo",
    "osm_id": 908395388,
    "spot_type": "data_spot",
    "data_source": "osm"
  },
  {
    "name": "良忠寺",
    "name_en": "",
    "lat": 35.5330028,
    "lng": 139.6808062,
    "category": "temple",
    "prefecture": "tokyo",
    "osm_id": 908396753,
    "spot_type": "data_spot",
    "data_source": "osm"
  },
  {
    "name": "海雲寺",
    "name_en": "",
    "lat": 35.6963683,
    "lng": 139.6376204,
    "category": "temple",
    "prefecture": "tokyo",
    "osm_id": 916653859,
    "spot_type": "data_spot",
    "data_source": "osm"
  },
  {
    "name": "天桂寺",
    "name_en": "",
    "lat": 35.697112,
    "lng": 139.6370235,
    "category": "temple",
    "prefecture": "tokyo",
    "osm_id": 916655081,
    "spot_type": "data_spot",
    "data_source": "osm"
  },
  {
    "name": "名称不明",
    "name_en": "",
    "lat": 35.6137315,
    "lng": 139.5774126,
    "category": "temple",
    "prefecture": "tokyo",
    "osm_id": 926574835,
    "spot_type": "data_spot",
    "data_source": "osm"
  },
  {
    "name": "日行庵",
    "name_en": "",
    "lat": 35.7887119,
    "lng": 139.9013889,
    "category": "temple",
    "prefecture": "tokyo",
    "osm_id": 931726165,
    "spot_type": "data_spot",
    "data_source": "osm"
  },
  {
    "name": "光明山 金剛寺",
    "name_en": "",
    "lat": 35.5159074,
    "lng": 139.6813318,
    "category": "temple",
    "prefecture": "tokyo",
    "osm_id": 945984360,
    "spot_type": "data_spot",
    "data_source": "osm"
  },
  {
    "name": "光輪成院",
    "name_en": "",
    "lat": 35.6535643,
    "lng": 139.6339258,
    "category": "temple",
    "prefecture": "tokyo",
    "osm_id": 951386786,
    "spot_type": "data_spot",
    "data_source": "osm"
  },
  {
    "name": "天七岩屋比売神社",
    "name_en": "",
    "lat": 35.6533486,
    "lng": 139.6338078,
    "category": "shrine",
    "prefecture": "tokyo",
    "osm_id": 951387669,
    "spot_type": "data_spot",
    "data_source": "osm"
  },
  {
    "name": "名称不明",
    "name_en": "",
    "lat": 35.6496456,
    "lng": 139.6279959,
    "category": "shrine",
    "prefecture": "tokyo",
    "osm_id": 951395371,
    "spot_type": "data_spot",
    "data_source": "osm"
  },
  {
    "name": "浜川崎",
    "name_en": "Hama-Kawasaki",
    "lat": 35.5099281,
    "lng": 139.7138609,
    "category": "station",
    "prefecture": "tokyo",
    "osm_id": 956052583,
    "spot_type": "data_spot",
    "data_source": "osm"
  },
  {
    "name": "智泉院 経王教会",
    "name_en": "",
    "lat": 35.8510202,
    "lng": 139.4235387,
    "category": "temple",
    "prefecture": "tokyo",
    "osm_id": 975753548,
    "spot_type": "data_spot",
    "data_source": "osm"
  },
  {
    "name": "町田市民文学館ことばらんど",
    "name_en": "",
    "lat": 35.5425627,
    "lng": 139.4515503,
    "category": "museum",
    "prefecture": "tokyo",
    "osm_id": 978844927,
    "spot_type": "data_spot",
    "data_source": "osm"
  },
  {
    "name": "奈良谷戸 山神社",
    "name_en": "",
    "lat": 35.5471806,
    "lng": 139.4784951,
    "category": "shrine",
    "prefecture": "tokyo",
    "osm_id": 979354840,
    "spot_type": "data_spot",
    "data_source": "osm"
  },
  {
    "name": "栄松寺",
    "name_en": "",
    "lat": 35.7918494,
    "lng": 139.911324,
    "category": "temple",
    "prefecture": "tokyo",
    "osm_id": 980057001,
    "spot_type": "data_spot",
    "data_source": "osm"
  },
  {
    "name": "浅間神社",
    "name_en": "Sengen Shrine",
    "lat": 35.7738237,
    "lng": 139.8975676,
    "category": "shrine",
    "prefecture": "tokyo",
    "osm_id": 980090528,
    "spot_type": "data_spot",
    "data_source": "osm"
  },
  {
    "name": "正福寺",
    "name_en": "",
    "lat": 35.7022239,
    "lng": 139.5828856,
    "category": "temple",
    "prefecture": "tokyo",
    "osm_id": 982153132,
    "spot_type": "data_spot",
    "data_source": "osm"
  },
  {
    "name": "吉祥院",
    "name_en": "",
    "lat": 35.6807714,
    "lng": 139.613446,
    "category": "temple",
    "prefecture": "tokyo",
    "osm_id": 988746691,
    "spot_type": "data_spot",
    "data_source": "osm"
  },
  {
    "name": "昭和館",
    "name_en": "National Showa Memorial Museum",
    "lat": 35.6951109,
    "lng": 139.7509066,
    "category": "museum",
    "prefecture": "tokyo",
    "osm_id": 988763541,
    "spot_type": "data_spot",
    "data_source": "osm"
  },
  {
    "name": "福泉寺",
    "name_en": "Fukusenji Temple",
    "lat": 35.6524973,
    "lng": 139.7361114,
    "category": "temple",
    "prefecture": "tokyo",
    "osm_id": 990952265,
    "spot_type": "data_spot",
    "data_source": "osm"
  },
  {
    "name": "延命院",
    "name_en": "",
    "lat": 35.6483063,
    "lng": 139.732876,
    "category": "temple",
    "prefecture": "tokyo",
    "osm_id": 994266787,
    "spot_type": "data_spot",
    "data_source": "osm"
  },
  {
    "name": "若松寺",
    "name_en": "",
    "lat": 35.6491366,
    "lng": 139.7324871,
    "category": "temple",
    "prefecture": "tokyo",
    "osm_id": 994274642,
    "spot_type": "data_spot",
    "data_source": "osm"
  },
  {
    "name": "光林禅寺",
    "name_en": "",
    "lat": 35.6474298,
    "lng": 139.7274751,
    "category": "temple",
    "prefecture": "tokyo",
    "osm_id": 994299891,
    "spot_type": "data_spot",
    "data_source": "osm"
  },
  {
    "name": "白山神社",
    "name_en": "",
    "lat": 35.5886697,
    "lng": 139.5106697,
    "category": "shrine",
    "prefecture": "tokyo",
    "osm_id": 996223651,
    "spot_type": "data_spot",
    "data_source": "osm"
  },
  {
    "name": "宿河原八幡宮",
    "name_en": "",
    "lat": 35.6136335,
    "lng": 139.5786587,
    "category": "shrine",
    "prefecture": "tokyo",
    "osm_id": 1007454611,
    "spot_type": "data_spot",
    "data_source": "osm"
  },
  {
    "name": "赤城神社",
    "name_en": "",
    "lat": 35.599682,
    "lng": 139.5988029,
    "category": "shrine",
    "prefecture": "tokyo",
    "osm_id": 1010459395,
    "spot_type": "data_spot",
    "data_source": "osm"
  },
  {
    "name": "須賀神社",
    "name_en": "",
    "lat": 35.6124877,
    "lng": 139.5352654,
    "category": "shrine",
    "prefecture": "tokyo",
    "osm_id": 1010678644,
    "spot_type": "data_spot",
    "data_source": "osm"
  },
  {
    "name": "宝珠院",
    "name_en": "Hoshuin Temple",
    "lat": 35.656536,
    "lng": 139.74633,
    "category": "temple",
    "prefecture": "tokyo",
    "osm_id": 1015382333,
    "spot_type": "data_spot",
    "data_source": "osm"
  },
  {
    "name": "立教寺",
    "name_en": "",
    "lat": 35.7033097,
    "lng": 139.6261526,
    "category": "temple",
    "prefecture": "tokyo",
    "osm_id": 1019929439,
    "spot_type": "data_spot",
    "data_source": "osm"
  },
  {
    "name": "西蓮寺",
    "name_en": "",
    "lat": 35.7045225,
    "lng": 139.6351854,
    "category": "temple",
    "prefecture": "tokyo",
    "osm_id": 1020438976,
    "spot_type": "data_spot",
    "data_source": "osm"
  },
  {
    "name": "日比谷神社",
    "name_en": "Hibiya-jinja Shrine",
    "lat": 35.6633987,
    "lng": 139.7582964,
    "category": "shrine",
    "prefecture": "tokyo",
    "osm_id": 1025845868,
    "spot_type": "data_spot",
    "data_source": "osm"
  },
  {
    "name": "中道寺",
    "name_en": "",
    "lat": 35.6965344,
    "lng": 139.6194957,
    "category": "temple",
    "prefecture": "tokyo",
    "osm_id": 1026509610,
    "spot_type": "data_spot",
    "data_source": "osm"
  },
  {
    "name": "世田谷山 観音寺",
    "name_en": "",
    "lat": 35.6364335,
    "lng": 139.6769539,
    "category": "temple",
    "prefecture": "tokyo",
    "osm_id": 1031179524,
    "spot_type": "data_spot",
    "data_source": "osm"
  },
  {
    "name": "榧寺",
    "name_en": "Kayadera",
    "lat": 35.7052583,
    "lng": 139.7922683,
    "category": "temple",
    "prefecture": "tokyo",
    "osm_id": 1033221825,
    "spot_type": "data_spot",
    "data_source": "osm"
  },
  {
    "name": "西照寺",
    "name_en": "",
    "lat": 35.6582218,
    "lng": 139.5847916,
    "category": "temple",
    "prefecture": "tokyo",
    "osm_id": 1035484295,
    "spot_type": "data_spot",
    "data_source": "osm"
  },
  {
    "name": "立正佼成会 川崎教会",
    "name_en": "",
    "lat": 35.5898686,
    "lng": 139.6274757,
    "category": "temple",
    "prefecture": "tokyo",
    "osm_id": 1054323554,
    "spot_type": "data_spot",
    "data_source": "osm"
  },
  {
    "name": "安養寺",
    "name_en": "",
    "lat": 35.5905273,
    "lng": 139.629455,
    "category": "temple",
    "prefecture": "tokyo",
    "osm_id": 1054349430,
    "spot_type": "data_spot",
    "data_source": "osm"
  },
  {
    "name": "向井潤吉アトリエ館",
    "name_en": "Junkichi Mukai Atelier Museum",
    "lat": 35.6355896,
    "lng": 139.6556672,
    "category": "museum",
    "prefecture": "tokyo",
    "osm_id": 1056757093,
    "spot_type": "data_spot",
    "data_source": "osm"
  },
  {
    "name": "金山神社",
    "name_en": "",
    "lat": 35.5319948,
    "lng": 139.4512276,
    "category": "shrine",
    "prefecture": "tokyo",
    "osm_id": 1065716468,
    "spot_type": "data_spot",
    "data_source": "osm"
  },
  {
    "name": "今川宝珠殿",
    "name_en": "",
    "lat": 35.7164045,
    "lng": 139.607,
    "category": "museum",
    "prefecture": "tokyo",
    "osm_id": 1069536940,
    "spot_type": "data_spot",
    "data_source": "osm"
  },
  {
    "name": "御嶽神社",
    "name_en": "",
    "lat": 35.757479,
    "lng": 139.6748004,
    "category": "shrine",
    "prefecture": "tokyo",
    "osm_id": 1076647709,
    "spot_type": "data_spot",
    "data_source": "osm"
  },
  {
    "name": "王子神谷",
    "name_en": "Oji-kamiya",
    "lat": 35.7650552,
    "lng": 139.7357178,
    "category": "station",
    "prefecture": "tokyo",
    "osm_id": 1078841212,
    "spot_type": "data_spot",
    "data_source": "osm"
  },
  {
    "name": "青龍山 勝国寺",
    "name_en": "",
    "lat": 35.6479578,
    "lng": 139.6524011,
    "category": "temple",
    "prefecture": "tokyo",
    "osm_id": 1093867110,
    "spot_type": "data_spot",
    "data_source": "osm"
  },
  {
    "name": "念空寺",
    "name_en": "",
    "lat": 35.6491834,
    "lng": 139.653075,
    "category": "temple",
    "prefecture": "tokyo",
    "osm_id": 1093879652,
    "spot_type": "data_spot",
    "data_source": "osm"
  },
  {
    "name": "立正佼成会 新宿教会 渋谷教会",
    "name_en": "",
    "lat": 35.6894523,
    "lng": 139.6637322,
    "category": "temple",
    "prefecture": "tokyo",
    "osm_id": 1119948825,
    "spot_type": "data_spot",
    "data_source": "osm"
  },
  {
    "name": "幸稲荷神社",
    "name_en": "Koinari Shrine",
    "lat": 35.60745,
    "lng": 139.7437657,
    "category": "shrine",
    "prefecture": "tokyo",
    "osm_id": 1130419693,
    "spot_type": "data_spot",
    "data_source": "osm"
  },
  {
    "name": "古淵",
    "name_en": "Kobuchi",
    "lat": 35.5559505,
    "lng": 139.4193144,
    "category": "station",
    "prefecture": "tokyo",
    "osm_id": 1135521236,
    "spot_type": "data_spot",
    "data_source": "osm"
  },
  {
    "name": "光明寺",
    "name_en": "",
    "lat": 35.7103468,
    "lng": 139.7856142,
    "category": "temple",
    "prefecture": "tokyo",
    "osm_id": 1138559743,
    "spot_type": "data_spot",
    "data_source": "osm"
  },
  {
    "name": "真照寺",
    "name_en": "",
    "lat": 35.7121532,
    "lng": 139.7849992,
    "category": "temple",
    "prefecture": "tokyo",
    "osm_id": 1138559752,
    "spot_type": "data_spot",
    "data_source": "osm"
  },
  {
    "name": "誓教寺",
    "name_en": "Seikyōji",
    "lat": 35.7097902,
    "lng": 139.7853264,
    "category": "temple",
    "prefecture": "tokyo",
    "osm_id": 1138559753,
    "spot_type": "data_spot",
    "data_source": "osm"
  },
  {
    "name": "真宗 浄正寺",
    "name_en": "",
    "lat": 35.7122556,
    "lng": 139.7847954,
    "category": "temple",
    "prefecture": "tokyo",
    "osm_id": 1138559755,
    "spot_type": "data_spot",
    "data_source": "osm"
  },
  {
    "name": "浄土宗 源空寺",
    "name_en": "",
    "lat": 35.7144661,
    "lng": 139.7847203,
    "category": "temple",
    "prefecture": "tokyo",
    "osm_id": 1138633146,
    "spot_type": "data_spot",
    "data_source": "osm"
  },
  {
    "name": "曹洞宗 曹源寺",
    "name_en": "Sōgenji",
    "lat": 35.7154003,
    "lng": 139.7864315,
    "category": "temple",
    "prefecture": "tokyo",
    "osm_id": 1138633157,
    "spot_type": "data_spot",
    "data_source": "osm"
  },
  {
    "name": "東本願寺",
    "name_en": "Higashi Honganji",
    "lat": 35.7117233,
    "lng": 139.7895232,
    "category": "temple",
    "prefecture": "tokyo",
    "osm_id": 1139070646,
    "spot_type": "data_spot",
    "data_source": "osm"
  },
  {
    "name": "宗清寺",
    "name_en": "",
    "lat": 35.7062528,
    "lng": 139.7224667,
    "category": "temple",
    "prefecture": "tokyo",
    "osm_id": 1140870596,
    "spot_type": "data_spot",
    "data_source": "osm"
  },
  {
    "name": "亀鶴山 易行院 誓閑寺",
    "name_en": "",
    "lat": 35.7048959,
    "lng": 139.7193553,
    "category": "temple",
    "prefecture": "tokyo",
    "osm_id": 1140870605,
    "spot_type": "data_spot",
    "data_source": "osm"
  },
  {
    "name": "浄土宗 龍原寺",
    "name_en": "Ryugenji Temple",
    "lat": 35.6525408,
    "lng": 139.7397904,
    "category": "temple",
    "prefecture": "tokyo",
    "osm_id": 1145077203,
    "spot_type": "data_spot",
    "data_source": "osm"
  },
  {
    "name": "綱生山 当光寺",
    "name_en": "Tokoji Temple",
    "lat": 35.6526017,
    "lng": 139.7390717,
    "category": "temple",
    "prefecture": "tokyo",
    "osm_id": 1145077215,
    "spot_type": "data_spot",
    "data_source": "osm"
  },
  {
    "name": "常祐山 圓徳寺",
    "name_en": "Entokuji Temple",
    "lat": 35.652885,
    "lng": 139.7374196,
    "category": "temple",
    "prefecture": "tokyo",
    "osm_id": 1145077234,
    "spot_type": "data_spot",
    "data_source": "osm"
  },
  {
    "name": "臨済宗 金地禅院",
    "name_en": "Rinzai sect Kinji Zen-in",
    "lat": 35.6594538,
    "lng": 139.7456915,
    "category": "temple",
    "prefecture": "tokyo",
    "osm_id": 1145149941,
    "spot_type": "data_spot",
    "data_source": "osm"
  },
  {
    "name": "菅生神社",
    "name_en": "",
    "lat": 35.5975112,
    "lng": 139.5539891,
    "category": "shrine",
    "prefecture": "tokyo",
    "osm_id": 1146982606,
    "spot_type": "data_spot",
    "data_source": "osm"
  },
  {
    "name": "浅草ROX;まつり湯",
    "name_en": "Maruri-yu",
    "lat": 35.7128418,
    "lng": 139.7930044,
    "category": "onsen",
    "prefecture": "tokyo",
    "osm_id": 1148820986,
    "spot_type": "data_spot",
    "data_source": "osm"
  },
  {
    "name": "名称不明",
    "name_en": "",
    "lat": 35.6537401,
    "lng": 139.6171584,
    "category": "shrine",
    "prefecture": "tokyo",
    "osm_id": 1149052367,
    "spot_type": "data_spot",
    "data_source": "osm"
  },
  {
    "name": "寳性寺",
    "name_en": "",
    "lat": 35.6542036,
    "lng": 139.6172197,
    "category": "temple",
    "prefecture": "tokyo",
    "osm_id": 1149052369,
    "spot_type": "data_spot",
    "data_source": "osm"
  },
  {
    "name": "亀戸",
    "name_en": "Kameido",
    "lat": 35.6973248,
    "lng": 139.8267172,
    "category": "station",
    "prefecture": "tokyo",
    "osm_id": 1152742616,
    "spot_type": "data_spot",
    "data_source": "osm"
  },
  {
    "name": "善福寺",
    "name_en": "",
    "lat": 35.7182061,
    "lng": 139.5912218,
    "category": "temple",
    "prefecture": "tokyo",
    "osm_id": 1161467723,
    "spot_type": "data_spot",
    "data_source": "osm"
  },
  {
    "name": "最勝寺",
    "name_en": "",
    "lat": 35.7276979,
    "lng": 139.580369,
    "category": "temple",
    "prefecture": "tokyo",
    "osm_id": 1161725559,
    "spot_type": "data_spot",
    "data_source": "osm"
  },
  {
    "name": "名称不明",
    "name_en": "",
    "lat": 35.7300864,
    "lng": 139.5794954,
    "category": "onsen",
    "prefecture": "tokyo",
    "osm_id": 1162638594,
    "spot_type": "data_spot",
    "data_source": "osm"
  },
  {
    "name": "香取神社",
    "name_en": "Katori-jinja Shrine",
    "lat": 35.7044169,
    "lng": 139.8254918,
    "category": "shrine",
    "prefecture": "tokyo",
    "osm_id": 1163038923,
    "spot_type": "data_spot",
    "data_source": "osm"
  },
  {
    "name": "世界真光文明教団 杉並永福道場",
    "name_en": "",
    "lat": 35.6791028,
    "lng": 139.6350658,
    "category": "shrine",
    "prefecture": "tokyo",
    "osm_id": 1166461553,
    "spot_type": "data_spot",
    "data_source": "osm"
  },
  {
    "name": "琴平神社",
    "name_en": "",
    "lat": 35.5819766,
    "lng": 139.5178591,
    "category": "shrine",
    "prefecture": "tokyo",
    "osm_id": 1168245286,
    "spot_type": "data_spot",
    "data_source": "osm"
  },
  {
    "name": "宗源寺",
    "name_en": "",
    "lat": 35.7059207,
    "lng": 139.7253344,
    "category": "temple",
    "prefecture": "tokyo",
    "osm_id": 1177042992,
    "spot_type": "data_spot",
    "data_source": "osm"
  },
  {
    "name": "龍善寺",
    "name_en": "",
    "lat": 35.705753,
    "lng": 139.7234006,
    "category": "temple",
    "prefecture": "tokyo",
    "osm_id": 1177043013,
    "spot_type": "data_spot",
    "data_source": "osm"
  },
  {
    "name": "NHKスタジオパーク",
    "name_en": "NHK Studio Park",
    "lat": 35.6651148,
    "lng": 139.6965929,
    "category": "museum",
    "prefecture": "tokyo",
    "osm_id": 1177156758,
    "spot_type": "data_spot",
    "data_source": "osm"
  },
  {
    "name": "名称不明",
    "name_en": "",
    "lat": 35.7121196,
    "lng": 139.7137113,
    "category": "temple",
    "prefecture": "tokyo",
    "osm_id": 1177182566,
    "spot_type": "data_spot",
    "data_source": "osm"
  },
  {
    "name": "天祖神社",
    "name_en": "Tenso-jinja Shrine",
    "lat": 35.7127424,
    "lng": 139.7135747,
    "category": "shrine",
    "prefecture": "tokyo",
    "osm_id": 1177182569,
    "spot_type": "data_spot",
    "data_source": "osm"
  },
  {
    "name": "立正佼成会 中野教会 杉並教会",
    "name_en": "",
    "lat": 35.6916564,
    "lng": 139.6657315,
    "category": "temple",
    "prefecture": "tokyo",
    "osm_id": 1185889604,
    "spot_type": "data_spot",
    "data_source": "osm"
  },
  {
    "name": "身代り不動尊",
    "name_en": "",
    "lat": 35.5969536,
    "lng": 139.6018308,
    "category": "temple",
    "prefecture": "tokyo",
    "osm_id": 1189334294,
    "spot_type": "data_spot",
    "data_source": "osm"
  },
  {
    "name": "名称不明",
    "name_en": "",
    "lat": 35.600066,
    "lng": 139.5391985,
    "category": "shrine",
    "prefecture": "tokyo",
    "osm_id": 1194187618,
    "spot_type": "data_spot",
    "data_source": "osm"
  },
  {
    "name": "杉山神社",
    "name_en": "",
    "lat": 35.6119588,
    "lng": 139.4861521,
    "category": "shrine",
    "prefecture": "tokyo",
    "osm_id": 1210390234,
    "spot_type": "data_spot",
    "data_source": "osm"
  },
  {
    "name": "善正寺",
    "name_en": "",
    "lat": 35.5962473,
    "lng": 139.4914476,
    "category": "temple",
    "prefecture": "tokyo",
    "osm_id": 1210611050,
    "spot_type": "data_spot",
    "data_source": "osm"
  },
  {
    "name": "名称不明",
    "name_en": "",
    "lat": 35.6120426,
    "lng": 139.8281286,
    "category": "lighthouse",
    "prefecture": "tokyo",
    "osm_id": 1211620954,
    "spot_type": "data_spot",
    "data_source": "osm"
  },
  {
    "name": "境妙寺",
    "name_en": "",
    "lat": 35.7122339,
    "lng": 139.6796194,
    "category": "temple",
    "prefecture": "tokyo",
    "osm_id": 1213571419,
    "spot_type": "data_spot",
    "data_source": "osm"
  },
  {
    "name": "宝泉寺",
    "name_en": "",
    "lat": 35.71195,
    "lng": 139.6788349,
    "category": "temple",
    "prefecture": "tokyo",
    "osm_id": 1213571422,
    "spot_type": "data_spot",
    "data_source": "osm"
  },
  {
    "name": "萬昌院功運寺",
    "name_en": "",
    "lat": 35.7124759,
    "lng": 139.6787211,
    "category": "temple",
    "prefecture": "tokyo",
    "osm_id": 1213571425,
    "spot_type": "data_spot",
    "data_source": "osm"
  },
  {
    "name": "願正寺",
    "name_en": "",
    "lat": 35.7122268,
    "lng": 139.6800864,
    "category": "temple",
    "prefecture": "tokyo",
    "osm_id": 1213571435,
    "spot_type": "data_spot",
    "data_source": "osm"
  },
  {
    "name": "上高田 氷川神社",
    "name_en": "",
    "lat": 35.7148843,
    "lng": 139.6763118,
    "category": "shrine",
    "prefecture": "tokyo",
    "osm_id": 1216112185,
    "spot_type": "data_spot",
    "data_source": "osm"
  },
  {
    "name": "沼袋氷川神社",
    "name_en": "",
    "lat": 35.7195255,
    "lng": 139.6668474,
    "category": "shrine",
    "prefecture": "tokyo",
    "osm_id": 1216145567,
    "spot_type": "data_spot",
    "data_source": "osm"
  },
  {
    "name": "名称不明",
    "name_en": "",
    "lat": 35.6211052,
    "lng": 139.5619811,
    "category": "shrine",
    "prefecture": "tokyo",
    "osm_id": 1219055951,
    "spot_type": "data_spot",
    "data_source": "osm"
  },
  {
    "name": "稲荷山 光明院",
    "name_en": "",
    "lat": 35.6210202,
    "lng": 139.562067,
    "category": "temple",
    "prefecture": "tokyo",
    "osm_id": 1219055954,
    "spot_type": "data_spot",
    "data_source": "osm"
  },
  {
    "name": "登戸稲荷神社",
    "name_en": "",
    "lat": 35.6218198,
    "lng": 139.5634559,
    "category": "shrine",
    "prefecture": "tokyo",
    "osm_id": 1219056000,
    "spot_type": "data_spot",
    "data_source": "osm"
  },
  {
    "name": "大乗院",
    "name_en": "",
    "lat": 35.7559201,
    "lng": 139.5689892,
    "category": "temple",
    "prefecture": "tokyo",
    "osm_id": 1223180531,
    "spot_type": "data_spot",
    "data_source": "osm"
  },
  {
    "name": "信願山 法融寺",
    "name_en": "",
    "lat": 35.7258042,
    "lng": 139.5847826,
    "category": "temple",
    "prefecture": "tokyo",
    "osm_id": 1224322827,
    "spot_type": "data_spot",
    "data_source": "osm"
  },
  {
    "name": "成瀬杉山神社",
    "name_en": "",
    "lat": 35.5422803,
    "lng": 139.4779704,
    "category": "shrine",
    "prefecture": "tokyo",
    "osm_id": 1237302579,
    "spot_type": "data_spot",
    "data_source": "osm"
  },
  {
    "name": "東雲寺",
    "name_en": "",
    "lat": 35.5423954,
    "lng": 139.4787238,
    "category": "temple",
    "prefecture": "tokyo",
    "osm_id": 1237302595,
    "spot_type": "data_spot",
    "data_source": "osm"
  },
  {
    "name": "天王社",
    "name_en": "",
    "lat": 35.5222825,
    "lng": 139.4909983,
    "category": "shrine",
    "prefecture": "tokyo",
    "osm_id": 1237975588,
    "spot_type": "data_spot",
    "data_source": "osm"
  },
  {
    "name": "福泉寺",
    "name_en": "",
    "lat": 35.5259864,
    "lng": 139.4937132,
    "category": "temple",
    "prefecture": "tokyo",
    "osm_id": 1237984937,
    "spot_type": "data_spot",
    "data_source": "osm"
  },
  {
    "name": "長津田 王子神社",
    "name_en": "",
    "lat": 35.5273494,
    "lng": 139.4942966,
    "category": "shrine",
    "prefecture": "tokyo",
    "osm_id": 1237984938,
    "spot_type": "data_spot",
    "data_source": "osm"
  },
  {
    "name": "新清山 壽福寺",
    "name_en": "",
    "lat": 35.6442231,
    "lng": 139.6876326,
    "category": "temple",
    "prefecture": "tokyo",
    "osm_id": 1238695587,
    "spot_type": "data_spot",
    "data_source": "osm"
  },
  {
    "name": "三宿神社",
    "name_en": "Mishuku Shrine",
    "lat": 35.6509033,
    "lng": 139.6742356,
    "category": "shrine",
    "prefecture": "tokyo",
    "osm_id": 1240105704,
    "spot_type": "data_spot",
    "data_source": "osm"
  },
  {
    "name": "富士見湯",
    "name_en": "",
    "lat": 35.6470989,
    "lng": 139.6721354,
    "category": "onsen",
    "prefecture": "tokyo",
    "osm_id": 1240105735,
    "spot_type": "data_spot",
    "data_source": "osm"
  },
  {
    "name": "熊野神社",
    "name_en": "",
    "lat": 35.6762719,
    "lng": 139.6481829,
    "category": "shrine",
    "prefecture": "tokyo",
    "osm_id": 1247836926,
    "spot_type": "data_spot",
    "data_source": "osm"
  },
  {
    "name": "名称不明",
    "name_en": "",
    "lat": 35.675761,
    "lng": 139.6472696,
    "category": "temple",
    "prefecture": "tokyo",
    "osm_id": 1247836927,
    "spot_type": "data_spot",
    "data_source": "osm"
  },
  {
    "name": "Zemaitis Museum",
    "name_en": "",
    "lat": 35.6937575,
    "lng": 139.7716325,
    "category": "museum",
    "prefecture": "tokyo",
    "osm_id": 1248297444,
    "spot_type": "data_spot",
    "data_source": "osm"
  },
  {
    "name": "妙高寺",
    "name_en": "",
    "lat": 35.6756841,
    "lng": 139.5983166,
    "category": "temple",
    "prefecture": "tokyo",
    "osm_id": 1248442028,
    "spot_type": "data_spot",
    "data_source": "osm"
  },
  {
    "name": "光母寺",
    "name_en": "",
    "lat": 35.6749657,
    "lng": 139.5907152,
    "category": "temple",
    "prefecture": "tokyo",
    "osm_id": 1249247847,
    "spot_type": "data_spot",
    "data_source": "osm"
  },
  {
    "name": "名称不明",
    "name_en": "",
    "lat": 35.6706869,
    "lng": 139.5836705,
    "category": "temple",
    "prefecture": "tokyo",
    "osm_id": 1250390757,
    "spot_type": "data_spot",
    "data_source": "osm"
  },
  {
    "name": "二子玉川",
    "name_en": "Futako-tamagawa",
    "lat": 35.6117897,
    "lng": 139.6268002,
    "category": "station",
    "prefecture": "tokyo",
    "osm_id": 1252108021,
    "spot_type": "data_spot",
    "data_source": "osm"
  },
  {
    "name": "熊野神社",
    "name_en": "",
    "lat": 35.6749557,
    "lng": 139.4570804,
    "category": "shrine",
    "prefecture": "tokyo",
    "osm_id": 1264947096,
    "spot_type": "data_spot",
    "data_source": "osm"
  },
  {
    "name": "医王寺",
    "name_en": "",
    "lat": 35.6482852,
    "lng": 139.4876236,
    "category": "temple",
    "prefecture": "tokyo",
    "osm_id": 1271183117,
    "spot_type": "data_spot",
    "data_source": "osm"
  },
  {
    "name": "日蓮宗 大丸教会",
    "name_en": "",
    "lat": 35.6500158,
    "lng": 139.4908223,
    "category": "temple",
    "prefecture": "tokyo",
    "osm_id": 1271183127,
    "spot_type": "data_spot",
    "data_source": "osm"
  },
  {
    "name": "そしがや温泉21",
    "name_en": "",
    "lat": 35.6456524,
    "lng": 139.6078547,
    "category": "onsen",
    "prefecture": "tokyo",
    "osm_id": 1279212900,
    "spot_type": "data_spot",
    "data_source": "osm"
  },
  {
    "name": "狸穴稲荷大明神",
    "name_en": "",
    "lat": 35.6582009,
    "lng": 139.7388381,
    "category": "shrine",
    "prefecture": "tokyo",
    "osm_id": 1279272173,
    "spot_type": "data_spot",
    "data_source": "osm"
  },
  {
    "name": "西木山 永福寺",
    "name_en": "",
    "lat": 35.6809727,
    "lng": 139.5196393,
    "category": "temple",
    "prefecture": "tokyo",
    "osm_id": 1282827633,
    "spot_type": "data_spot",
    "data_source": "osm"
  },
  {
    "name": "観音院",
    "name_en": "",
    "lat": 35.6660971,
    "lng": 139.5155342,
    "category": "temple",
    "prefecture": "tokyo",
    "osm_id": 1282865881,
    "spot_type": "data_spot",
    "data_source": "osm"
  },
  {
    "name": "名称不明",
    "name_en": "",
    "lat": 35.5061733,
    "lng": 139.4474699,
    "category": "shrine",
    "prefecture": "tokyo",
    "osm_id": 1289165657,
    "spot_type": "data_spot",
    "data_source": "osm"
  },
  {
    "name": "松戸市立博物館",
    "name_en": "Matsudo City Museum",
    "lat": 35.8009982,
    "lng": 139.9395298,
    "category": "museum",
    "prefecture": "tokyo",
    "osm_id": 1302700215,
    "spot_type": "data_spot",
    "data_source": "osm"
  },
  {
    "name": "稲荷神社",
    "name_en": "",
    "lat": 35.641365,
    "lng": 139.6113473,
    "category": "shrine",
    "prefecture": "tokyo",
    "osm_id": 1302807330,
    "spot_type": "data_spot",
    "data_source": "osm"
  },
  {
    "name": "南千住",
    "name_en": "Minami-Senju",
    "lat": 35.7333017,
    "lng": 139.7990144,
    "category": "station",
    "prefecture": "tokyo",
    "osm_id": 1314411833,
    "spot_type": "data_spot",
    "data_source": "osm"
  },
  {
    "name": "久本神社",
    "name_en": "Hisamoto Jinja Shrine",
    "lat": 35.5964344,
    "lng": 139.6123669,
    "category": "shrine",
    "prefecture": "tokyo",
    "osm_id": 1321899977,
    "spot_type": "data_spot",
    "data_source": "osm"
  },
  {
    "name": "龍台寺",
    "name_en": "",
    "lat": 35.593467,
    "lng": 139.6140961,
    "category": "temple",
    "prefecture": "tokyo",
    "osm_id": 1322004500,
    "spot_type": "data_spot",
    "data_source": "osm"
  },
  {
    "name": "明鏡寺",
    "name_en": "",
    "lat": 35.589253,
    "lng": 139.6126423,
    "category": "temple",
    "prefecture": "tokyo",
    "osm_id": 1322004507,
    "spot_type": "data_spot",
    "data_source": "osm"
  },
  {
    "name": "杉山神社",
    "name_en": "",
    "lat": 35.5884765,
    "lng": 139.6121542,
    "category": "shrine",
    "prefecture": "tokyo",
    "osm_id": 1322004516,
    "spot_type": "data_spot",
    "data_source": "osm"
  },
  {
    "name": "あづま稲荷大明神",
    "name_en": "Azuma Inari Daimyojin",
    "lat": 35.6704191,
    "lng": 139.7652756,
    "category": "shrine",
    "prefecture": "tokyo",
    "osm_id": 1327304980,
    "spot_type": "data_spot",
    "data_source": "osm"
  },
  {
    "name": "神明社",
    "name_en": "",
    "lat": 35.5854568,
    "lng": 139.603016,
    "category": "shrine",
    "prefecture": "tokyo",
    "osm_id": 1329625894,
    "spot_type": "data_spot",
    "data_source": "osm"
  },
  {
    "name": "稲成神社",
    "name_en": "Inari-jinja Shrine",
    "lat": 35.7638319,
    "lng": 139.7402057,
    "category": "shrine",
    "prefecture": "tokyo",
    "osm_id": 1330416941,
    "spot_type": "data_spot",
    "data_source": "osm"
  },
  {
    "name": "千歳台稲荷神社",
    "name_en": "",
    "lat": 35.6564923,
    "lng": 139.6104377,
    "category": "shrine",
    "prefecture": "tokyo",
    "osm_id": 1332553595,
    "spot_type": "data_spot",
    "data_source": "osm"
  },
  {
    "name": "名称不明",
    "name_en": "",
    "lat": 35.6427061,
    "lng": 139.5011715,
    "category": "shrine",
    "prefecture": "tokyo",
    "osm_id": 1343513471,
    "spot_type": "data_spot",
    "data_source": "osm"
  },
  {
    "name": "普寛神宮",
    "name_en": "",
    "lat": 35.6356362,
    "lng": 139.4940252,
    "category": "shrine",
    "prefecture": "tokyo",
    "osm_id": 1346358175,
    "spot_type": "data_spot",
    "data_source": "osm"
  },
  {
    "name": "東漸寺",
    "name_en": "",
    "lat": 35.8291742,
    "lng": 139.92905,
    "category": "temple",
    "prefecture": "tokyo",
    "osm_id": 1347577161,
    "spot_type": "data_spot",
    "data_source": "osm"
  },
  {
    "name": "萬福寺",
    "name_en": "",
    "lat": 35.8215706,
    "lng": 139.9437903,
    "category": "temple",
    "prefecture": "tokyo",
    "osm_id": 1347577168,
    "spot_type": "data_spot",
    "data_source": "osm"
  },
  {
    "name": "名称不明",
    "name_en": "",
    "lat": 35.8092824,
    "lng": 139.9420719,
    "category": "shrine",
    "prefecture": "tokyo",
    "osm_id": 1347801743,
    "spot_type": "data_spot",
    "data_source": "osm"
  },
  {
    "name": "日本銀行金融研究所貨幣博物館",
    "name_en": "Bank of Japan Currency Museum",
    "lat": 35.6854395,
    "lng": 139.7716029,
    "category": "museum",
    "prefecture": "tokyo",
    "osm_id": 1350269516,
    "spot_type": "data_spot",
    "data_source": "osm"
  },
  {
    "name": "蘇羽鷹神社",
    "name_en": "Sobataka Shrine",
    "lat": 35.8181524,
    "lng": 139.9268865,
    "category": "shrine",
    "prefecture": "tokyo",
    "osm_id": 1356157013,
    "spot_type": "data_spot",
    "data_source": "osm"
  },
  {
    "name": "八坂神社",
    "name_en": "",
    "lat": 35.8084133,
    "lng": 139.9443111,
    "category": "shrine",
    "prefecture": "tokyo",
    "osm_id": 1356157032,
    "spot_type": "data_spot",
    "data_source": "osm"
  },
  {
    "name": "般舟寺常行院",
    "name_en": "",
    "lat": 35.8222457,
    "lng": 139.9323437,
    "category": "temple",
    "prefecture": "tokyo",
    "osm_id": 1356157039,
    "spot_type": "data_spot",
    "data_source": "osm"
  },
  {
    "name": "一月寺",
    "name_en": "",
    "lat": 35.8253077,
    "lng": 139.9326007,
    "category": "temple",
    "prefecture": "tokyo",
    "osm_id": 1356157059,
    "spot_type": "data_spot",
    "data_source": "osm"
  },
  {
    "name": "淵源山 龍像寺",
    "name_en": "",
    "lat": 35.5616991,
    "lng": 139.415293,
    "category": "temple",
    "prefecture": "tokyo",
    "osm_id": 1364453714,
    "spot_type": "data_spot",
    "data_source": "osm"
  },
  {
    "name": "芝不動尊",
    "name_en": "",
    "lat": 35.6516186,
    "lng": 139.7527904,
    "category": "temple",
    "prefecture": "tokyo",
    "osm_id": 1367525152,
    "spot_type": "data_spot",
    "data_source": "osm"
  },
  {
    "name": "長福寺",
    "name_en": "",
    "lat": 35.5071807,
    "lng": 139.6239312,
    "category": "temple",
    "prefecture": "tokyo",
    "osm_id": 1368657969,
    "spot_type": "data_spot",
    "data_source": "osm"
  },
  {
    "name": "名称不明",
    "name_en": "",
    "lat": 35.5442422,
    "lng": 139.6783842,
    "category": "shrine",
    "prefecture": "tokyo",
    "osm_id": 1375366602,
    "spot_type": "data_spot",
    "data_source": "osm"
  },
  {
    "name": "名称不明",
    "name_en": "",
    "lat": 35.5014206,
    "lng": 139.6171028,
    "category": "temple",
    "prefecture": "tokyo",
    "osm_id": 1377897535,
    "spot_type": "data_spot",
    "data_source": "osm"
  },
  {
    "name": "商和稲荷神社",
    "name_en": "",
    "lat": 35.654269,
    "lng": 139.7079852,
    "category": "shrine",
    "prefecture": "tokyo",
    "osm_id": 1378123985,
    "spot_type": "data_spot",
    "data_source": "osm"
  },
  {
    "name": "大杉神社",
    "name_en": "",
    "lat": 35.8604972,
    "lng": 139.9016986,
    "category": "shrine",
    "prefecture": "tokyo",
    "osm_id": 1379645967,
    "spot_type": "data_spot",
    "data_source": "osm"
  },
  {
    "name": "弁財天神社",
    "name_en": "",
    "lat": 35.8561659,
    "lng": 139.6413309,
    "category": "shrine",
    "prefecture": "tokyo",
    "osm_id": 1379745347,
    "spot_type": "data_spot",
    "data_source": "osm"
  },
  {
    "name": "水神宮",
    "name_en": "",
    "lat": 35.7891442,
    "lng": 139.8991185,
    "category": "shrine",
    "prefecture": "tokyo",
    "osm_id": 1379806326,
    "spot_type": "data_spot",
    "data_source": "osm"
  },
  {
    "name": "小寳稲荷",
    "name_en": "",
    "lat": 35.668933,
    "lng": 139.7520489,
    "category": "shrine",
    "prefecture": "tokyo",
    "osm_id": 1385629844,
    "spot_type": "data_spot",
    "data_source": "osm"
  },
  {
    "name": "弁財天宮",
    "name_en": "",
    "lat": 35.7739537,
    "lng": 139.8969306,
    "category": "shrine",
    "prefecture": "tokyo",
    "osm_id": 1394353691,
    "spot_type": "data_spot",
    "data_source": "osm"
  },
  {
    "name": "甚兵衛稲荷",
    "name_en": "Jinbei Inari Shrine",
    "lat": 35.768942,
    "lng": 139.896812,
    "category": "shrine",
    "prefecture": "tokyo",
    "osm_id": 1394378954,
    "spot_type": "data_spot",
    "data_source": "osm"
  },
  {
    "name": "神明神社",
    "name_en": "Shinmei Shrine",
    "lat": 35.768536,
    "lng": 139.89686,
    "category": "shrine",
    "prefecture": "tokyo",
    "osm_id": 1394378958,
    "spot_type": "data_spot",
    "data_source": "osm"
  },
  {
    "name": "中原寺",
    "name_en": "Chugenji Temple",
    "lat": 35.7551628,
    "lng": 139.9015653,
    "category": "temple",
    "prefecture": "tokyo",
    "osm_id": 1396672296,
    "spot_type": "data_spot",
    "data_source": "osm"
  },
  {
    "name": "根本寺",
    "name_en": "",
    "lat": 35.7526424,
    "lng": 139.9024951,
    "category": "temple",
    "prefecture": "tokyo",
    "osm_id": 1396672297,
    "spot_type": "data_spot",
    "data_source": "osm"
  },
  {
    "name": "回向院別院",
    "name_en": "",
    "lat": 35.7532737,
    "lng": 139.9014597,
    "category": "temple",
    "prefecture": "tokyo",
    "osm_id": 1396724773,
    "spot_type": "data_spot",
    "data_source": "osm"
  },
  {
    "name": "総寧寺",
    "name_en": "",
    "lat": 35.7481299,
    "lng": 139.8997646,
    "category": "temple",
    "prefecture": "tokyo",
    "osm_id": 1396724777,
    "spot_type": "data_spot",
    "data_source": "osm"
  },
  {
    "name": "正真寺",
    "name_en": "",
    "lat": 35.8089312,
    "lng": 139.902721,
    "category": "temple",
    "prefecture": "tokyo",
    "osm_id": 1398245777,
    "spot_type": "data_spot",
    "data_source": "osm"
  },