[
  {
    "name": "岩美",
    "name_en": "Iwami",
    "lat": 35.5743474,
    "lng": 134.3356145,
    "category": "station",
    "prefecture": "tottori",
    "osm_id": 265966955,
    "spot_type": "data_spot",
    "data_source": "osm"
  },
  {
    "name": "浜村",
    "name_en": "Hamamura",
    "lat": 35.5094493,
    "lng": 134.0507709,
    "category": "station",
    "prefecture": "tottori",
    "osm_id": 265967311,
    "spot_type": "data_spot",
    "data_source": "osm"
  },
  {
    "name": "福部",
    "name_en": "Fukube",
    "lat": 35.5453668,
    "lng": 134.2875606,
    "category": "station",
    "prefecture": "tottori",
    "osm_id": 265967497,
    "spot_type": "data_spot",
    "data_source": "osm"
  },
  {
    "name": "泊",
    "name_en": "Tomari",
    "lat": 35.5093299,
    "lng": 133.9364151,
    "category": "station",
    "prefecture": "tottori",
    "osm_id": 265967530,
    "spot_type": "data_spot",
    "data_source": "osm"
  },
  {
    "name": "東浜",
    "name_en": "Higashihama",
    "lat": 35.5996524,
    "lng": 134.3626707,
    "category": "station",
    "prefecture": "tottori",
    "osm_id": 265967534,
    "spot_type": "data_spot",
    "data_source": "osm"
  },
  {
    "name": "宝木",
    "name_en": "Hōgi",
    "lat": 35.5140421,
    "lng": 134.0822813,
    "category": "station",
    "prefecture": "tottori",
    "osm_id": 265967740,
    "spot_type": "data_spot",
    "data_source": "osm"
  },
  {
    "name": "末恒",
    "name_en": "Suetsune",
    "lat": 35.5240896,
    "lng": 134.1361024,
    "category": "station",
    "prefecture": "tottori",
    "osm_id": 265967742,
    "spot_type": "data_spot",
    "data_source": "osm"
  },
  {
    "name": "諸寄",
    "name_en": "Moroyose",
    "lat": 35.6195566,
    "lng": 134.4343476,
    "category": "station",
    "prefecture": "tottori",
    "osm_id": 265967803,
    "spot_type": "data_spot",
    "data_source": "osm"
  },
  {
    "name": "青谷",
    "name_en": "Aoya",
    "lat": 35.5160847,
    "lng": 133.9957574,
    "category": "station",
    "prefecture": "tottori",
    "osm_id": 265968081,
    "spot_type": "data_spot",
    "data_source": "osm"
  },
  {
    "name": "湖山",
    "name_en": "Koyama",
    "lat": 35.5135786,
    "lng": 134.1861452,
    "category": "station",
    "prefecture": "tottori",
    "osm_id": 265968236,
    "spot_type": "data_spot",
    "data_source": "osm"
  },
  {
    "name": "安来",
    "name_en": "Yasugi",
    "lat": 35.4280643,
    "lng": 133.259255,
    "category": "station",
    "prefecture": "tottori",
    "osm_id": 265968755,
    "spot_type": "data_spot",
    "data_source": "osm"
  },
  {
    "name": "赤碕",
    "name_en": "Akasaki",
    "lat": 35.5123671,
    "lng": 133.6346038,
    "category": "station",
    "prefecture": "tottori",
    "osm_id": 265968790,
    "spot_type": "data_spot",
    "data_source": "osm"
  },
  {
    "name": "大岩",
    "name_en": "Ōiwa",
    "lat": 35.5669231,
    "lng": 134.3084831,
    "category": "station",
    "prefecture": "tottori",
    "osm_id": 265968978,
    "spot_type": "data_spot",
    "data_source": "osm"
  },
  {
    "name": "居組",
    "name_en": "Igumi",
    "lat": 35.6068993,
    "lng": 134.3935415,
    "category": "station",
    "prefecture": "tottori",
    "osm_id": 265969026,
    "spot_type": "data_spot",
    "data_source": "osm"
  },
  {
    "name": "淀江",
    "name_en": "Yodoe",
    "lat": 35.4569568,
    "lng": 133.4297461,
    "category": "station",
    "prefecture": "tottori",
    "osm_id": 265969686,
    "spot_type": "data_spot",
    "data_source": "osm"
  },
  {
    "name": "八橋",
    "name_en": "Yabase",
    "lat": 35.5031458,
    "lng": 133.6734517,
    "category": "station",
    "prefecture": "tottori",
    "osm_id": 265969759,
    "spot_type": "data_spot",
    "data_source": "osm"
  },
  {
    "name": "松崎",
    "name_en": "Matsuzaki",
    "lat": 35.4687232,
    "lng": 133.9020574,
    "category": "station",
    "prefecture": "tottori",
    "osm_id": 265969834,
    "spot_type": "data_spot",
    "data_source": "osm"
  },
  {
    "name": "下北条",
    "name_en": "Shimohōjō",
    "lat": 35.4820266,
    "lng": 133.8087031,
    "category": "station",
    "prefecture": "tottori",
    "osm_id": 265969837,
    "spot_type": "data_spot",
    "data_source": "osm"
  },
  {
    "name": "大山口",
    "name_en": "Daisenguchi",
    "lat": 35.4849974,
    "lng": 133.4567678,
    "category": "station",
    "prefecture": "tottori",
    "osm_id": 265970068,
    "spot_type": "data_spot",
    "data_source": "osm"
  },
  {
    "name": "下市",
    "name_en": "Shimoichi",
    "lat": 35.5187494,
    "lng": 133.5662895,
    "category": "station",
    "prefecture": "tottori",
    "osm_id": 265970070,
    "spot_type": "data_spot",
    "data_source": "osm"
  },
  {
    "name": "名和",
    "name_en": "Nawa",
    "lat": 35.5074264,
    "lng": 133.4918969,
    "category": "station",
    "prefecture": "tottori",
    "osm_id": 265970072,
    "spot_type": "data_spot",
    "data_source": "osm"
  },
  {
    "name": "浦安",
    "name_en": "Urayasu",
    "lat": 35.4996863,
    "lng": 133.6933811,
    "category": "station",
    "prefecture": "tottori",
    "osm_id": 265970074,
    "spot_type": "data_spot",
    "data_source": "osm"
  },
  {
    "name": "中山口",
    "name_en": "Nakayamaguchi",
    "lat": 35.5207061,
    "lng": 133.5902338,
    "category": "station",
    "prefecture": "tottori",
    "osm_id": 265970075,
    "spot_type": "data_spot",
    "data_source": "osm"
  },
  {
    "name": "由良",
    "name_en": "Yura",
    "lat": 35.490244,
    "lng": 133.7544842,
    "category": "station",
    "prefecture": "tottori",
    "osm_id": 265970097,
    "spot_type": "data_spot",
    "data_source": "osm"
  },
  {
    "name": "東山公園",
    "name_en": "Higashiyamakōen",
    "lat": 35.4308297,
    "lng": 133.3516092,
    "category": "station",
    "prefecture": "tottori",
    "osm_id": 265970099,
    "spot_type": "data_spot",
    "data_source": "osm"
  },
  {
    "name": "御来屋",
    "name_en": "Mikuriya",
    "lat": 35.5121754,
    "lng": 133.5029816,
    "category": "station",
    "prefecture": "tottori",
    "osm_id": 265970164,
    "spot_type": "data_spot",
    "data_source": "osm"
  },
  {
    "name": "荒島",
    "name_en": "Arashima",
    "lat": 35.4317977,
    "lng": 133.2073805,
    "category": "station",
    "prefecture": "tottori",
    "osm_id": 265971350,
    "spot_type": "data_spot",
    "data_source": "osm"
  },
  {
    "name": "岸本",
    "name_en": "Kishimoto",
    "lat": 35.3874629,
    "lng": 133.4096642,
    "category": "station",
    "prefecture": "tottori",
    "osm_id": 266088570,
    "spot_type": "data_spot",
    "data_source": "osm"
  },
  {
    "name": "上菅",
    "name_en": "Kamisuge",
    "lat": 35.1937828,
    "lng": 133.3415741,
    "category": "station",
    "prefecture": "tottori",
    "osm_id": 266088913,
    "spot_type": "data_spot",
    "data_source": "osm"
  },
  {
    "name": "根雨",
    "name_en": "Neu",
    "lat": 35.24162,
    "lng": 133.4420322,
    "category": "station",
    "prefecture": "tottori",
    "osm_id": 266088938,
    "spot_type": "data_spot",
    "data_source": "osm"
  },
  {
    "name": "武庫",
    "name_en": "Muko",
    "lat": 35.267501,
    "lng": 133.4764904,
    "category": "station",
    "prefecture": "tottori",
    "osm_id": 266089170,
    "spot_type": "data_spot",
    "data_source": "osm"
  },
  {
    "name": "生山",
    "name_en": "Shōyama",
    "lat": 35.1710725,
    "lng": 133.3220379,
    "category": "station",
    "prefecture": "tottori",
    "osm_id": 266090534,
    "spot_type": "data_spot",
    "data_source": "osm"
  },
  {
    "name": "江尾",
    "name_en": "Ebi",
    "lat": 35.2832987,
    "lng": 133.4849214,
    "category": "station",
    "prefecture": "tottori",
    "osm_id": 266090810,
    "spot_type": "data_spot",
    "data_source": "osm"
  },
  {
    "name": "黒坂",
    "name_en": "Kurosaka",
    "lat": 35.2069959,
    "lng": 133.3837022,
    "category": "station",
    "prefecture": "tottori",
    "osm_id": 266108267,
    "spot_type": "data_spot",
    "data_source": "osm"
  },
  {
    "name": "新郷",
    "name_en": "Niizato",
    "lat": 35.0825514,
    "lng": 133.3677881,
    "category": "station",
    "prefecture": "tottori",
    "osm_id": 266108795,
    "spot_type": "data_spot",
    "data_source": "osm"
  },
  {
    "name": "伯耆溝口",
    "name_en": "Hoki-Mizoguchi",
    "lat": 35.3482021,
    "lng": 133.4354226,
    "category": "station",
    "prefecture": "tottori",
    "osm_id": 266108977,
    "spot_type": "data_spot",
    "data_source": "osm"
  },
  {
    "name": "上石見",
    "name_en": "Kamiiwami",
    "lat": 35.1125466,
    "lng": 133.3512379,
    "category": "station",
    "prefecture": "tottori",
    "osm_id": 266110961,
    "spot_type": "data_spot",
    "data_source": "osm"
  },
  {
    "name": "米子",
    "name_en": "Yonago",
    "lat": 35.4233042,
    "lng": 133.3367834,
    "category": "station",
    "prefecture": "tottori",
    "osm_id": 266921280,
    "spot_type": "data_spot",
    "data_source": "osm"
  },
  {
    "name": "中浜",
    "name_en": "Nakahama",
    "lat": 35.5068911,
    "lng": 133.2447123,
    "category": "station",
    "prefecture": "tottori",
    "osm_id": 266921295,
    "spot_type": "data_spot",
    "data_source": "osm"
  },
  {
    "name": "富士見町",
    "name_en": "Fujimichō",
    "lat": 35.4348286,
    "lng": 133.3363951,
    "category": "station",
    "prefecture": "tottori",
    "osm_id": 266921300,
    "spot_type": "data_spot",
    "data_source": "osm"
  },
  {
    "name": "大篠津町",
    "name_en": "Ōshinozuchō",
    "lat": 35.4895238,
    "lng": 133.2556718,
    "category": "station",
    "prefecture": "tottori",
    "osm_id": 266921378,
    "spot_type": "data_spot",
    "data_source": "osm"
  },
  {
    "name": "弓ヶ浜",
    "name_en": "Yumigahama",
    "lat": 35.4670082,
    "lng": 133.2883828,
    "category": "station",
    "prefecture": "tottori",
    "osm_id": 266921404,
    "spot_type": "data_spot",
    "data_source": "osm"
  },
  {
    "name": "河崎口",
    "name_en": "Kawasakiguchi",
    "lat": 35.4567486,
    "lng": 133.3054878,
    "category": "station",
    "prefecture": "tottori",
    "osm_id": 266921426,
    "spot_type": "data_spot",
    "data_source": "osm"
  },
  {
    "name": "高松町",
    "name_en": "Takamatsuchō",
    "lat": 35.5150417,
    "lng": 133.2400617,
    "category": "station",
    "prefecture": "tottori",
    "osm_id": 266921485,
    "spot_type": "data_spot",
    "data_source": "osm"
  },
  {
    "name": "和田浜",
    "name_en": "Wadahama",
    "lat": 35.4807071,
    "lng": 133.2656653,
    "category": "station",
    "prefecture": "tottori",
    "osm_id": 266921487,
    "spot_type": "data_spot",
    "data_source": "osm"
  },
  {
    "name": "余子",
    "name_en": "Amariko",
    "lat": 35.5210938,
    "lng": 133.2366182,
    "category": "station",
    "prefecture": "tottori",
    "osm_id": 266921489,
    "spot_type": "data_spot",
    "data_source": "osm"
  },
  {
    "name": "三本松口",
    "name_en": "Sambommatsuguchi",
    "lat": 35.44626,
    "lng": 133.3228353,
    "category": "station",
    "prefecture": "tottori",
    "osm_id": 266921493,
    "spot_type": "data_spot",
    "data_source": "osm"
  },
  {
    "name": "上道",
    "name_en": "Agarimichi",
    "lat": 35.5314686,
    "lng": 133.2305889,
    "category": "station",
    "prefecture": "tottori",
    "osm_id": 266921557,
    "spot_type": "data_spot",
    "data_source": "osm"
  },
  {
    "name": "馬場崎町",
    "name_en": "Babasakichō",
    "lat": 35.5385539,
    "lng": 133.2264952,
    "category": "station",
    "prefecture": "tottori",
    "osm_id": 266921558,
    "spot_type": "data_spot",
    "data_source": "osm"
  },
  {
    "name": "境港",
    "name_en": "Sakaiminato",
    "lat": 35.5451501,
    "lng": 133.2226806,
    "category": "station",
    "prefecture": "tottori",
    "osm_id": 266921574,
    "spot_type": "data_spot",
    "data_source": "osm"
  },
  {
    "name": "刑部",
    "name_en": "Osakabe",
    "lat": 35.0762602,
    "lng": 133.5659802,
    "category": "station",
    "prefecture": "tottori",
    "osm_id": 266925879,
    "spot_type": "data_spot",
    "data_source": "osm"
  },
  {
    "name": "中国勝山",
    "name_en": "Chugoku-Katsuyama",
    "lat": 35.0804497,
    "lng": 133.6946943,
    "category": "station",
    "prefecture": "tottori",
    "osm_id": 266930260,
    "spot_type": "data_spot",
    "data_source": "osm"
  },
  {
    "name": "久世",
    "name_en": "Kuse",
    "lat": 35.0809912,
    "lng": 133.7452808,
    "category": "station",
    "prefecture": "tottori",
    "osm_id": 266930293,
    "spot_type": "data_spot",
    "data_source": "osm"
  },
  {
    "name": "因幡社",
    "name_en": "Inaba-Yashiro",
    "lat": 35.3124649,
    "lng": 134.1966116,
    "category": "station",
    "prefecture": "tottori",
    "osm_id": 267059422,
    "spot_type": "data_spot",
    "data_source": "osm"
  },
  {
    "name": "津ノ井",
    "name_en": "Tsunoi",
    "lat": 35.4612754,
    "lng": 134.2486406,
    "category": "station",
    "prefecture": "tottori",
    "osm_id": 267059424,
    "spot_type": "data_spot",
    "data_source": "osm"
  },
  {
    "name": "鷹狩",
    "name_en": "Takagari",
    "lat": 35.3542425,
    "lng": 134.206226,
    "category": "station",
    "prefecture": "tottori",
    "osm_id": 267059427,
    "spot_type": "data_spot",
    "data_source": "osm"
  },
  {
    "name": "土師",
    "name_en": "Haji",
    "lat": 35.2328134,
    "lng": 134.2257895,
    "category": "station",
    "prefecture": "tottori",
    "osm_id": 267059656,
    "spot_type": "data_spot",
    "data_source": "osm"
  },
  {
    "name": "河原",
    "name_en": "Kawahara",
    "lat": 35.3975949,
    "lng": 134.2230178,
    "category": "station",
    "prefecture": "tottori",
    "osm_id": 267059657,
    "spot_type": "data_spot",
    "data_source": "osm"
  },
  {
    "name": "用瀬",
    "name_en": "Mochigase",
    "lat": 35.3434833,
    "lng": 134.2048976,
    "category": "station",
    "prefecture": "tottori",
    "osm_id": 267059727,
    "spot_type": "data_spot",
    "data_source": "osm"
  },
  {
    "name": "美作河井",
    "name_en": "Mimasaka-Kawai",
    "lat": 35.2053071,
    "lng": 134.1070101,
    "category": "station",
    "prefecture": "tottori",
    "osm_id": 267059821,
    "spot_type": "data_spot",
    "data_source": "osm"
  },
  {
    "name": "美作滝尾",
    "name_en": "Mimasaka-Takio",
    "lat": 35.1236569,
    "lng": 134.0713819,
    "category": "station",
    "prefecture": "tottori",
    "osm_id": 267059830,
    "spot_type": "data_spot",
    "data_source": "osm"
  },
  {
    "name": "美作加茂",
    "name_en": "Mimasaka-Kamo",
    "lat": 35.1694399,
    "lng": 134.0622633,
    "category": "station",
    "prefecture": "tottori",
    "osm_id": 267059932,
    "spot_type": "data_spot",
    "data_source": "osm"
  },
  {
    "name": "東郡家",
    "name_en": "Higashi-Koge",
    "lat": 35.428834,
    "lng": 134.2600124,
    "category": "station",
    "prefecture": "tottori",
    "osm_id": 267059958,
    "spot_type": "data_spot",
    "data_source": "osm"
  },
  {
    "name": "那岐",
    "name_en": "Nagi",
    "lat": 35.2138216,
    "lng": 134.2103877,
    "category": "station",
    "prefecture": "tottori",
    "osm_id": 267060087,
    "spot_type": "data_spot",
    "data_source": "osm"
  },
  {
    "name": "三浦",
    "name_en": "Miura",
    "lat": 35.141664,
    "lng": 134.0780212,
    "category": "station",
    "prefecture": "tottori",
    "osm_id": 267060565,
    "spot_type": "data_spot",
    "data_source": "osm"
  },
  {
    "name": "国英",
    "name_en": "Kunifusa",
    "lat": 35.3730124,
    "lng": 134.217782,
    "category": "station",
    "prefecture": "tottori",
    "osm_id": 267060736,
    "spot_type": "data_spot",
    "data_source": "osm"
  },
  {
    "name": "知和",
    "name_en": "Chiwa",
    "lat": 35.1928538,
    "lng": 134.077514,
    "category": "station",
    "prefecture": "tottori",
    "osm_id": 267060750,
    "spot_type": "data_spot",
    "data_source": "osm"
  },
  {
    "name": "高野",
    "name_en": "Takano",
    "lat": 35.08042,
    "lng": 134.066007,
    "category": "station",
    "prefecture": "tottori",
    "osm_id": 267060876,
    "spot_type": "data_spot",
    "data_source": "osm"
  },
  {
    "name": "西粟倉",
    "name_en": "Nishi-Awakura",
    "lat": 35.160799,
    "lng": 134.3359427,
    "category": "station",
    "prefecture": "tottori",
    "osm_id": 355837610,
    "spot_type": "data_spot",
    "data_source": "osm"
  },
  {
    "name": "あわくら温泉",
    "name_en": "Awakura Onsen",
    "lat": 35.1886564,
    "lng": 134.3368749,
    "category": "station",
    "prefecture": "tottori",
    "osm_id": 355837825,
    "spot_type": "data_spot",
    "data_source": "osm"
  },
  {
    "name": "宮本武蔵",
    "name_en": "",
    "lat": 35.1016551,
    "lng": 134.3303865,
    "category": "station",
    "prefecture": "tottori",
    "osm_id": 355837872,
    "spot_type": "data_spot",
    "data_source": "osm"
  },
  {
    "name": "石井",
    "name_en": "",
    "lat": 35.0815816,
    "lng": 134.3578751,
    "category": "station",
    "prefecture": "tottori",
    "osm_id": 355838112,
    "spot_type": "data_spot",
    "data_source": "osm"
  },
  {
    "name": "妖怪神社",
    "name_en": "",
    "lat": 35.5458594,
    "lng": 133.2257888,
    "category": "shrine",
    "prefecture": "tottori",
    "osm_id": 1010167817,
    "spot_type": "data_spot",
    "data_source": "osm"
  },
  {
    "name": "たたらの里学習館",
    "name_en": "",
    "lat": 35.213477,
    "lng": 134.418532,
    "category": "museum",
    "prefecture": "tottori",
    "osm_id": 1423044374,
    "spot_type": "data_spot",
    "data_source": "osm"
  },
  {
    "name": "アジア博物館 井上靖記念館",
    "name_en": "",
    "lat": 35.494633,
    "lng": 133.265843,
    "category": "museum",
    "prefecture": "tottori",
    "osm_id": 1423046456,
    "spot_type": "data_spot",
    "data_source": "osm"
  },
  {
    "name": "ハワイ風土記館",
    "name_en": "Hawai Fudokikan",
    "lat": 35.5028749,
    "lng": 133.8812123,
    "category": "museum",
    "prefecture": "tottori",
    "osm_id": 1423047430,
    "spot_type": "data_spot",
    "data_source": "osm"
  },
  {
    "name": "伯耆町立写真美術館（植田正治写真美術館）",
    "name_en": "",
    "lat": 35.389989,
    "lng": 133.4356842,
    "category": "museum",
    "prefecture": "tottori",
    "osm_id": 1423052584,
    "spot_type": "data_spot",
    "data_source": "osm"
  },
  {
    "name": "倉吉博物館",
    "name_en": "",
    "lat": 35.428926,
    "lng": 133.82538,
    "category": "museum",
    "prefecture": "tottori",
    "osm_id": 1423053107,
    "spot_type": "data_spot",
    "data_source": "osm"
  },
  {
    "name": "兵庫県昆虫館",
    "name_en": "",
    "lat": 35.097509,
    "lng": 134.427408,
    "category": "museum",
    "prefecture": "tottori",
    "osm_id": 1423054102,
    "spot_type": "data_spot",
    "data_source": "osm"
  },
  {
    "name": "兵庫県立但馬牧場公園但馬牛博物館",
    "name_en": "",
    "lat": 35.514225,
    "lng": 134.489719,
    "category": "museum",
    "prefecture": "tottori",
    "osm_id": 1423054174,
    "spot_type": "data_spot",
    "data_source": "osm"
  },
  {
    "name": "北栄町歴史民俗資料館",
    "name_en": "",
    "lat": 35.4795111,
    "lng": 133.8214536,
    "category": "museum",
    "prefecture": "tottori",
    "osm_id": 1423055431,
    "spot_type": "data_spot",
    "data_source": "osm"
  },
  {
    "name": "大山寺宝物館霊宝閣",
    "name_en": "",
    "lat": 35.3913899,
    "lng": 133.5331513,
    "category": "museum",
    "prefecture": "tottori",
    "osm_id": 1423057598,
    "spot_type": "data_spot",
    "data_source": "osm"
  },
  {
    "name": "日南町美術館",
    "name_en": "",
    "lat": 35.1636058,
    "lng": 133.3062919,
    "category": "museum",
    "prefecture": "tottori",
    "osm_id": 1423068164,
    "spot_type": "data_spot",
    "data_source": "osm"
  },
  {
    "name": "日吉津村民俗資料館",
    "name_en": "",
    "lat": 35.4418177,
    "lng": 133.3809359,
    "category": "museum",
    "prefecture": "tottori",
    "osm_id": 1423068209,
    "spot_type": "data_spot",
    "data_source": "osm"
  },
  {
    "name": "祐生出会いの館",
    "name_en": "",
    "lat": 35.3040837,
    "lng": 133.3250722,
    "category": "museum",
    "prefecture": "tottori",
    "osm_id": 1423079074,
    "spot_type": "data_spot",
    "data_source": "osm"
  },
  {
    "name": "鳥取砂丘ビジターセンター",
    "name_en": "Tottori Sand Dunes Park Service Center",
    "lat": 35.5439967,
    "lng": 134.2366075,
    "category": "museum",
    "prefecture": "tottori",
    "osm_id": 1423085173,
    "spot_type": "data_spot",
    "data_source": "osm"
  },
  {
    "name": "米子市福市考古資料館",
    "name_en": "",
    "lat": 35.4045595,
    "lng": 133.3672861,
    "category": "museum",
    "prefecture": "tottori",
    "osm_id": 1423087587,
    "spot_type": "data_spot",
    "data_source": "osm"
  },
  {
    "name": "米子市立山陰歴史館",
    "name_en": "",
    "lat": 35.4292598,
    "lng": 133.3303955,
    "category": "museum",
    "prefecture": "tottori",
    "osm_id": 1423087590,
    "spot_type": "data_spot",
    "data_source": "osm"
  },
  {
    "name": "米子市美術館",
    "name_en": "",
    "lat": 35.428733,
    "lng": 133.3310344,
    "category": "museum",
    "prefecture": "tottori",
    "osm_id": 1423087613,
    "spot_type": "data_spot",
    "data_source": "osm"
  },
  {
    "name": "若桜町歴史民俗資料館",
    "name_en": "",
    "lat": 35.345954,
    "lng": 134.403074,
    "category": "museum",
    "prefecture": "tottori",
    "osm_id": 1423090382,
    "spot_type": "data_spot",
    "data_source": "osm"
  },
  {
    "name": "鳥取市こども科学館",
    "name_en": "",
    "lat": 35.492372,
    "lng": 134.234453,
    "category": "museum",
    "prefecture": "tottori",
    "osm_id": 1423095145,
    "spot_type": "data_spot",
    "data_source": "osm"
  },
  {
    "name": "鳥取県立氷ノ山自然ふれあい館響の森",
    "name_en": "",
    "lat": 35.357497,
    "lng": 134.491105,
    "category": "museum",
    "prefecture": "tottori",
    "osm_id": 1423096411,
    "spot_type": "data_spot",
    "data_source": "osm"
  },
  {
    "name": "鳥取県立鳥取二十世紀梨記念館",
    "name_en": "Pear museum",
    "lat": 35.431251,
    "lng": 133.835552,
    "category": "museum",
    "prefecture": "tottori",
    "osm_id": 1423096537,
    "spot_type": "data_spot",
    "data_source": "osm"
  },
  {
    "name": "ビオトープ",
    "name_en": "biotope",
    "lat": 35.1005605,
    "lng": 134.1882974,
    "category": "museum",
    "prefecture": "tottori",
    "osm_id": 1423608050,
    "spot_type": "data_spot",
    "data_source": "osm"
  },
  {
    "name": "人形峠展示館",
    "name_en": "",
    "lat": 35.315766,
    "lng": 133.93708,
    "category": "museum",
    "prefecture": "tottori",
    "osm_id": 1423608617,
    "spot_type": "data_spot",
    "data_source": "osm"
  },
  {
    "name": "佛谷寺大日堂",
    "name_en": "",
    "lat": 35.5640781,
    "lng": 133.3081298,
    "category": "museum",
    "prefecture": "tottori",
    "osm_id": 1423608770,
    "spot_type": "data_spot",
    "data_source": "osm"
  },
  {
    "name": "勝山郷土資料館",
    "name_en": "",
    "lat": 35.0840277,
    "lng": 133.6906575,
    "category": "museum",
    "prefecture": "tottori",
    "osm_id": 1423609259,
    "spot_type": "data_spot",
    "data_source": "osm"
  },
  {
    "name": "新庄村歴史民俗資料館",
    "name_en": "",
    "lat": 35.18038,
    "lng": 133.567049,
    "category": "museum",
    "prefecture": "tottori",
    "osm_id": 1423615674,
    "spot_type": "data_spot",
    "data_source": "osm"
  },
  {
    "name": "津山弥生の里文化財センター",
    "name_en": "",
    "lat": 35.082918,
    "lng": 134.013658,
    "category": "museum",
    "prefecture": "tottori",
    "osm_id": 1423616755,
    "spot_type": "data_spot",
    "data_source": "osm"
  },
  {
    "name": "蒜山郷土博物館",
    "name_en": "",
    "lat": 35.294883,
    "lng": 133.712338,
    "category": "museum",
    "prefecture": "tottori",
    "osm_id": 1423619182,
    "spot_type": "data_spot",
    "data_source": "osm"
  },
  {
    "name": "蒜山郷土館",
    "name_en": "",
    "lat": 35.2802282,
    "lng": 133.6768932,
    "category": "museum",
    "prefecture": "tottori",
    "osm_id": 1423619183,
    "spot_type": "data_spot",
    "data_source": "osm"
  },
  {
    "name": "鏡野郷土博物館",
    "name_en": "",
    "lat": 35.090622,
    "lng": 133.932675,
    "category": "museum",
    "prefecture": "tottori",
    "osm_id": 1423619652,
    "spot_type": "data_spot",
    "data_source": "osm"
  },
  {
    "name": "米子空港",
    "name_en": "Yonago Airport",
    "lat": 35.5019301,
    "lng": 133.2478187,
    "category": "station",
    "prefecture": "tottori",
    "osm_id": 1562495004,
    "spot_type": "data_spot",
    "data_source": "osm"
  },
  {
    "name": "博労町",
    "name_en": "Bakurōmachi",
    "lat": 35.4310576,
    "lng": 133.3401619,
    "category": "station",
    "prefecture": "tottori",
    "osm_id": 1575760121,
    "spot_type": "data_spot",
    "data_source": "osm"
  },
  {
    "name": "後藤",
    "name_en": "Gotō",
    "lat": 35.4395558,
    "lng": 133.3315467,
    "category": "station",
    "prefecture": "tottori",
    "osm_id": 1575760258,
    "spot_type": "data_spot",
    "data_source": "osm"
  },
  {
    "name": "青野神社",
    "name_en": "",
    "lat": 35.1553347,
    "lng": 134.3621321,
    "category": "shrine",
    "prefecture": "tottori",
    "osm_id": 1777909512,
    "spot_type": "data_spot",
    "data_source": "osm"
  },
  {
    "name": "小代神社",
    "name_en": "Ojiro Shrine",
    "lat": 35.4181767,
    "lng": 134.5204481,
    "category": "shrine",
    "prefecture": "tottori",
    "osm_id": 1907437219,
    "spot_type": "data_spot",
    "data_source": "osm"
  },
  {
    "name": "岩屋城跡　Former Iwaya Castle",
    "name_en": "",
    "lat": 35.076084,
    "lng": 133.8352196,
    "category": "castle",
    "prefecture": "tottori",
    "osm_id": 1909480287,
    "spot_type": "data_spot",
    "data_source": "osm"
  },
  {
    "name": "八幡神社",
    "name_en": "",
    "lat": 35.4035542,
    "lng": 133.3901391,
    "category": "shrine",
    "prefecture": "tottori",
    "osm_id": 1946869129,
    "spot_type": "data_spot",
    "data_source": "osm"
  },
  {
    "name": "久岳山 長徳禅寺",
    "name_en": "",
    "lat": 35.4170792,
    "lng": 133.3862234,
    "category": "temple",
    "prefecture": "tottori",
    "osm_id": 1947075844,
    "spot_type": "data_spot",
    "data_source": "osm"
  },
  {
    "name": "江美城跡",
    "name_en": "",
    "lat": 35.2823144,
    "lng": 133.4870668,
    "category": "castle",
    "prefecture": "tottori",
    "osm_id": 1954278684,
    "spot_type": "data_spot",
    "data_source": "osm"
  },
  {
    "name": "赤松日吉神社",
    "name_en": "",
    "lat": 35.4151803,
    "lng": 133.4759317,
    "category": "shrine",
    "prefecture": "tottori",
    "osm_id": 1956074842,
    "spot_type": "data_spot",
    "data_source": "osm"
  },
  {
    "name": "夜見神社",
    "name_en": "",
    "lat": 35.466306,
    "lng": 133.3017117,
    "category": "shrine",
    "prefecture": "tottori",
    "osm_id": 1956075094,
    "spot_type": "data_spot",
    "data_source": "osm"
  },
  {
    "name": "宗形神社",
    "name_en": "",
    "lat": 35.4113849,
    "lng": 133.3545394,
    "category": "shrine",
    "prefecture": "tottori",
    "osm_id": 1966017451,
    "spot_type": "data_spot",
    "data_source": "osm"
  },
  {
    "name": "藤内稲荷",
    "name_en": "",
    "lat": 35.4193315,
    "lng": 133.3631963,
    "category": "shrine",
    "prefecture": "tottori",
    "osm_id": 1969250457,
    "spot_type": "data_spot",
    "data_source": "osm"
  },
  {
    "name": "生山神社",
    "name_en": "",
    "lat": 35.1690559,
    "lng": 133.3213546,
    "category": "shrine",
    "prefecture": "tottori",
    "osm_id": 1971234989,
    "spot_type": "data_spot",
    "data_source": "osm"
  },
  {
    "name": "大山自然歴史観",
    "name_en": "",
    "lat": 35.3940948,
    "lng": 133.5302944,
    "category": "museum",
    "prefecture": "tottori",
    "osm_id": 1978838349,
    "spot_type": "data_spot",
    "data_source": "osm"
  },
  {
    "name": "栄福寺",
    "name_en": "",
    "lat": 35.1478308,
    "lng": 133.3306032,
    "category": "temple",
    "prefecture": "tottori",
    "osm_id": 1982445933,
    "spot_type": "data_spot",
    "data_source": "osm"
  },
  {
    "name": "米子城跡",
    "name_en": "Ruin of Yonago Castle",
    "lat": 35.425009,
    "lng": 133.3244542,
    "category": "castle",
    "prefecture": "tottori",
    "osm_id": 2050792704,
    "spot_type": "data_spot",
    "data_source": "osm"
  },
  {
    "name": "月山富田城",
    "name_en": "",
    "lat": 35.3608474,
    "lng": 133.1852653,
    "category": "castle",
    "prefecture": "tottori",
    "osm_id": 2459202190,
    "spot_type": "data_spot",
    "data_source": "osm"
  },
  {
    "name": "防己尾城",
    "name_en": "",
    "lat": 35.5046491,
    "lng": 134.1328477,
    "category": "castle",
    "prefecture": "tottori",
    "osm_id": 2523355838,
    "spot_type": "data_spot",
    "data_source": "osm"
  },
  {
    "name": "倉吉",
    "name_en": "Kurayoshi",
    "lat": 35.4547913,
    "lng": 133.849401,
    "category": "station",
    "prefecture": "tottori",
    "osm_id": 2565897659,
    "spot_type": "data_spot",
    "data_source": "osm"
  },
  {
    "name": "立見神社",
    "name_en": "",
    "lat": 35.4814721,
    "lng": 134.1844102,
    "category": "shrine",
    "prefecture": "tottori",
    "osm_id": 2607889077,
    "spot_type": "data_spot",
    "data_source": "osm"
  },
  {
    "name": "大宮神社",
    "name_en": "",
    "lat": 35.4115476,
    "lng": 133.8707541,
    "category": "shrine",
    "prefecture": "tottori",
    "osm_id": 3195772247,
    "spot_type": "data_spot",
    "data_source": "osm"
  },
  {
    "name": "徳林寺",
    "name_en": "Tokubayashi-Ji",
    "lat": 35.411108,
    "lng": 133.8735395,
    "category": "temple",
    "prefecture": "tottori",
    "osm_id": 3195772248,
    "spot_type": "data_spot",
    "data_source": "osm"
  },
  {
    "name": "妙寂寺",
    "name_en": "",
    "lat": 35.4334176,
    "lng": 133.8201659,
    "category": "temple",
    "prefecture": "tottori",
    "osm_id": 3518174449,
    "spot_type": "data_spot",
    "data_source": "osm"
  },
  {
    "name": "智頭",
    "name_en": "Chizu",
    "lat": 35.2650948,
    "lng": 134.2255826,
    "category": "station",
    "prefecture": "tottori",
    "osm_id": 3791318501,
    "spot_type": "data_spot",
    "data_source": "osm"
  },
  {
    "name": "恋山形",
    "name_en": "Koi-Yamagata",
    "lat": 35.2560005,
    "lng": 134.2789796,
    "category": "station",
    "prefecture": "tottori",
    "osm_id": 3792537971,
    "spot_type": "data_spot",
    "data_source": "osm"
  },
  {
    "name": "退耕山 玉田寺",
    "name_en": "",
    "lat": 35.6109141,
    "lng": 134.4766364,
    "category": "temple",
    "prefecture": "tottori",
    "osm_id": 3792596262,
    "spot_type": "data_spot",
    "data_source": "osm"
  },
  {
    "name": "山郷",
    "name_en": "Yamasato",
    "lat": 35.2323406,
    "lng": 134.2891718,
    "category": "station",
    "prefecture": "tottori",
    "osm_id": 3801798988,
    "spot_type": "data_spot",
    "data_source": "osm"
  },
  {
    "name": "大平神社",
    "name_en": "",
    "lat": 35.45158,
    "lng": 134.2510502,
    "category": "shrine",
    "prefecture": "tottori",
    "osm_id": 3844151679,
    "spot_type": "data_spot",
    "data_source": "osm"
  },
  {
    "name": "愛宕神社",
    "name_en": "",
    "lat": 35.4214308,
    "lng": 133.3287738,
    "category": "shrine",
    "prefecture": "tottori",
    "osm_id": 3889769770,
    "spot_type": "data_spot",
    "data_source": "osm"
  },
  {
    "name": "常住山 感應寺",
    "name_en": "",
    "lat": 35.4225051,
    "lng": 133.3278249,
    "category": "temple",
    "prefecture": "tottori",
    "osm_id": 3889769771,
    "spot_type": "data_spot",
    "data_source": "osm"
  },
  {
    "name": "月照山 桂住寺",
    "name_en": "",
    "lat": 35.4205317,
    "lng": 133.3288899,
    "category": "temple",
    "prefecture": "tottori",
    "osm_id": 3889769772,
    "spot_type": "data_spot",
    "data_source": "osm"
  },
  {
    "name": "大龍山 総泉寺",
    "name_en": "",
    "lat": 35.4192744,
    "lng": 133.3286918,
    "category": "temple",
    "prefecture": "tottori",
    "osm_id": 3889769773,
    "spot_type": "data_spot",
    "data_source": "osm"
  },
  {
    "name": "粟嶋神社",
    "name_en": "",
    "lat": 35.4439736,
    "lng": 133.2921802,
    "category": "shrine",
    "prefecture": "tottori",
    "osm_id": 3894638212,
    "spot_type": "data_spot",
    "data_source": "osm"
  },
  {
    "name": "谷井山 持雲寺",
    "name_en": "",
    "lat": 35.2457796,
    "lng": 134.231801,
    "category": "temple",
    "prefecture": "tottori",
    "osm_id": 3907481383,
    "spot_type": "data_spot",
    "data_source": "osm"
  },
  {
    "name": "祥光山 了春寺",
    "name_en": "",
    "lat": 35.4318074,
    "lng": 133.3404605,
    "category": "temple",
    "prefecture": "tottori",
    "osm_id": 3908793181,
    "spot_type": "data_spot",
    "data_source": "osm"
  },
  {
    "name": "寶壽山 光西寺",
    "name_en": "",
    "lat": 35.4313634,
    "lng": 133.3391442,
    "category": "temple",
    "prefecture": "tottori",
    "osm_id": 3908793182,
    "spot_type": "data_spot",
    "data_source": "osm"
  },
  {
    "name": "勝田神社",
    "name_en": "",
    "lat": 35.4320838,
    "lng": 133.3412219,
    "category": "shrine",
    "prefecture": "tottori",
    "osm_id": 3908793183,
    "spot_type": "data_spot",
    "data_source": "osm"
  },
  {
    "name": "阿陀萱神社",
    "name_en": "",
    "lat": 35.3994504,
    "lng": 133.3473712,
    "category": "shrine",
    "prefecture": "tottori",
    "osm_id": 3910035326,
    "spot_type": "data_spot",
    "data_source": "osm"
  },
  {
    "name": "専念山 万福寺",
    "name_en": "",
    "lat": 35.4348767,
    "lng": 133.3254387,
    "category": "temple",
    "prefecture": "tottori",
    "osm_id": 3910691778,
    "spot_type": "data_spot",
    "data_source": "osm"
  },
  {
    "name": "本栄山 妙善寺",
    "name_en": "",
    "lat": 35.4344197,
    "lng": 133.3279974,
    "category": "temple",
    "prefecture": "tottori",
    "osm_id": 3910691779,
    "spot_type": "data_spot",
    "data_source": "osm"
  },
  {
    "name": "普平山 妙興寺",
    "name_en": "",
    "lat": 35.4344959,
    "lng": 133.327564,
    "category": "temple",
    "prefecture": "tottori",
    "osm_id": 3910691780,
    "spot_type": "data_spot",
    "data_source": "osm"
  },
  {
    "name": "万福山 安国寺",
    "name_en": "",
    "lat": 35.4343903,
    "lng": 133.3282953,
    "category": "temple",
    "prefecture": "tottori",
    "osm_id": 3910691781,
    "spot_type": "data_spot",
    "data_source": "osm"
  },
  {
    "name": "久遠山 実成寺",
    "name_en": "",
    "lat": 35.4346586,
    "lng": 133.3270139,
    "category": "temple",
    "prefecture": "tottori",
    "osm_id": 3910691782,
    "spot_type": "data_spot",
    "data_source": "osm"
  },
  {
    "name": "見龍山 常照院 心光寺",
    "name_en": "",
    "lat": 35.4347936,
    "lng": 133.326024,
    "category": "temple",
    "prefecture": "tottori",
    "osm_id": 3910691783,
    "spot_type": "data_spot",
    "data_source": "osm"
  },
  {
    "name": "寛龍山 法蔵寺",
    "name_en": "",
    "lat": 35.4347399,
    "lng": 133.3263383,
    "category": "temple",
    "prefecture": "tottori",
    "osm_id": 3910691784,
    "spot_type": "data_spot",
    "data_source": "osm"
  },
  {
    "name": "久坂山 瑞仙寺",
    "name_en": "",
    "lat": 35.4343659,
    "lng": 133.328839,
    "category": "temple",
    "prefecture": "tottori",
    "osm_id": 3910691785,
    "spot_type": "data_spot",
    "data_source": "osm"
  },
  {
    "name": "正覚山 福厳院",
    "name_en": "",
    "lat": 35.4342239,
    "lng": 133.3293708,
    "category": "temple",
    "prefecture": "tottori",
    "osm_id": 3910691786,
    "spot_type": "data_spot",
    "data_source": "osm"
  },
  {
    "name": "鳥居",
    "name_en": "",
    "lat": 35.2134303,
    "lng": 134.1943544,
    "category": "shrine",
    "prefecture": "tottori",
    "osm_id": 3915863519,
    "spot_type": "data_spot",
    "data_source": "osm"
  },
  {
    "name": "八河谷神社",
    "name_en": "",
    "lat": 35.2991243,
    "lng": 134.3131026,
    "category": "shrine",
    "prefecture": "tottori",
    "osm_id": 3919370586,
    "spot_type": "data_spot",
    "data_source": "osm"
  },
  {
    "name": "篠坂神社",
    "name_en": "",
    "lat": 35.2595448,
    "lng": 134.2580031,
    "category": "shrine",
    "prefecture": "tottori",
    "osm_id": 3919531057,
    "spot_type": "data_spot",
    "data_source": "osm"
  },
  {
    "name": "車尾山 梅翁寺",
    "name_en": "",
    "lat": 35.4320491,
    "lng": 133.3586421,
    "category": "temple",
    "prefecture": "tottori",
    "osm_id": 3919601210,
    "spot_type": "data_spot",
    "data_source": "osm"
  },
  {
    "name": "祇園神社",
    "name_en": "",
    "lat": 35.4310939,
    "lng": 133.3575866,
    "category": "shrine",
    "prefecture": "tottori",
    "osm_id": 3919601211,
    "spot_type": "data_spot",
    "data_source": "osm"
  },
  {
    "name": "貴布禰神社",
    "name_en": "",
    "lat": 35.4321805,
    "lng": 133.3591098,
    "category": "shrine",
    "prefecture": "tottori",
    "osm_id": 3919601212,
    "spot_type": "data_spot",
    "data_source": "osm"
  },
  {
    "name": "糺神社前",
    "name_en": "",
    "lat": 35.4377035,
    "lng": 133.3247136,
    "category": "shrine",
    "prefecture": "tottori",
    "osm_id": 3919679634,
    "spot_type": "data_spot",
    "data_source": "osm"
  },
  {
    "name": "惣地神社",
    "name_en": "",
    "lat": 35.2633291,
    "lng": 134.2041269,
    "category": "shrine",
    "prefecture": "tottori",
    "osm_id": 3928921376,
    "spot_type": "data_spot",
    "data_source": "osm"
  },
  {
    "name": "岩神城跡",
    "name_en": "",
    "lat": 35.2723061,
    "lng": 134.2191211,
    "category": "castle",
    "prefecture": "tottori",
    "osm_id": 3935654892,
    "spot_type": "data_spot",
    "data_source": "osm"
  },
  {
    "name": "皆生温泉神社",
    "name_en": "",
    "lat": 35.4568944,
    "lng": 133.3654554,
    "category": "shrine",
    "prefecture": "tottori",
    "osm_id": 3942814726,
    "spot_type": "data_spot",
    "data_source": "osm"
  },
  {
    "name": "勝宿禰神社",
    "name_en": "",
    "lat": 35.4316602,
    "lng": 133.845384,
    "category": "shrine",
    "prefecture": "tottori",
    "osm_id": 3949464196,
    "spot_type": "data_spot",
    "data_source": "osm"
  },
  {
    "name": "妻木晩田遺跡展示施設",
    "name_en": "",
    "lat": 35.4625257,
    "lng": 133.452722,
    "category": "museum",
    "prefecture": "tottori",
    "osm_id": 4006997352,
    "spot_type": "data_spot",
    "data_source": "osm"
  },
  {
    "name": "城南神社",
    "name_en": "",
    "lat": 35.5041726,
    "lng": 134.2368447,
    "category": "shrine",
    "prefecture": "tottori",
    "osm_id": 4008963988,
    "spot_type": "data_spot",
    "data_source": "osm"
  },
  {
    "name": "日吉神社",
    "name_en": "",
    "lat": 35.504361,
    "lng": 134.1763451,
    "category": "shrine",
    "prefecture": "tottori",
    "osm_id": 4014633760,
    "spot_type": "data_spot",
    "data_source": "osm"
  },
  {
    "name": "長通寺",
    "name_en": "",
    "lat": 35.4551847,
    "lng": 134.2933737,
    "category": "temple",
    "prefecture": "tottori",
    "osm_id": 4015487426,
    "spot_type": "data_spot",
    "data_source": "osm"
  },
  {
    "name": "北野神社",
    "name_en": "",
    "lat": 35.4910571,
    "lng": 134.2224589,
    "category": "shrine",
    "prefecture": "tottori",
    "osm_id": 4016741044,
    "spot_type": "data_spot",
    "data_source": "osm"
  },
  {
    "name": "鳥取砂丘情報館 サンドパルとっとり",
    "name_en": "The Sand Museum",
    "lat": 35.5396355,
    "lng": 134.237554,
    "category": "museum",
    "prefecture": "tottori",
    "osm_id": 4017085147,
    "spot_type": "data_spot",
    "data_source": "osm"
  },
  {
    "name": "名称不明",
    "name_en": "",
    "lat": 35.4216789,
    "lng": 134.5206303,
    "category": "temple",
    "prefecture": "tottori",
    "osm_id": 4019942095,
    "spot_type": "data_spot",
    "data_source": "osm"
  },
  {
    "name": "百々温泉",
    "name_en": "",
    "lat": 35.1780276,
    "lng": 134.0499902,
    "category": "onsen",
    "prefecture": "tottori",
    "osm_id": 4020934320,
    "spot_type": "data_spot",
    "data_source": "osm"
  },
  {
    "name": "津山市加茂町歴史民族資料館",
    "name_en": "",
    "lat": 35.1785153,
    "lng": 134.0501986,
    "category": "museum",
    "prefecture": "tottori",
    "osm_id": 4020934337,
    "spot_type": "data_spot",
    "data_source": "osm"
  },
  {
    "name": "尾白稲荷神社",
    "name_en": "",
    "lat": 35.4958367,
    "lng": 134.2267173,
    "category": "shrine",
    "prefecture": "tottori",
    "osm_id": 4031385018,
    "spot_type": "data_spot",
    "data_source": "osm"
  },
  {
    "name": "名称不明",
    "name_en": "",
    "lat": 35.4089893,
    "lng": 134.2133255,
    "category": "temple",
    "prefecture": "tottori",
    "osm_id": 4043311938,
    "spot_type": "data_spot",
    "data_source": "osm"
  },
  {
    "name": "白兎神社",
    "name_en": "",
    "lat": 35.4144554,
    "lng": 134.2482197,
    "category": "shrine",
    "prefecture": "tottori",
    "osm_id": 4043328547,
    "spot_type": "data_spot",
    "data_source": "osm"
  },
  {
    "name": "広徳山 龍峰寺",
    "name_en": "",
    "lat": 35.5037173,
    "lng": 134.243263,
    "category": "temple",
    "prefecture": "tottori",
    "osm_id": 4054521066,
    "spot_type": "data_spot",
    "data_source": "osm"
  },
  {
    "name": "栗溪神社",
    "name_en": "",
    "lat": 35.5053808,
    "lng": 134.2435335,
    "category": "shrine",
    "prefecture": "tottori",
    "osm_id": 4054521079,
    "spot_type": "data_spot",
    "data_source": "osm"
  },
  {
    "name": "円相院",
    "name_en": "",
    "lat": 35.5181181,
    "lng": 134.2355551,
    "category": "temple",
    "prefecture": "tottori",
    "osm_id": 4057365173,
    "spot_type": "data_spot",
    "data_source": "osm"
  },
  {
    "name": "龍峰山 正雲禪寺",
    "name_en": "",
    "lat": 35.4783587,
    "lng": 134.2723897,
    "category": "temple",
    "prefecture": "tottori",
    "osm_id": 4061100315,
    "spot_type": "data_spot",
    "data_source": "osm"
  },
  {
    "name": "岩常山寿蓮院 無量光寺",
    "name_en": "",
    "lat": 35.4802912,
    "lng": 134.2739281,
    "category": "temple",
    "prefecture": "tottori",
    "osm_id": 4061123681,
    "spot_type": "data_spot",
    "data_source": "osm"
  },
  {
    "name": "高宮神社",
    "name_en": "",
    "lat": 35.4887538,
    "lng": 134.262705,
    "category": "shrine",
    "prefecture": "tottori",
    "osm_id": 4063156976,
    "spot_type": "data_spot",
    "data_source": "osm"
  },
  {
    "name": "選択山 本願寺",
    "name_en": "",
    "lat": 35.4974537,
    "lng": 134.2358328,
    "category": "temple",
    "prefecture": "tottori",
    "osm_id": 4069405155,
    "spot_type": "data_spot",
    "data_source": "osm"
  },
  {
    "name": "正栄山 妙要寺",
    "name_en": "",
    "lat": 35.49725,
    "lng": 134.2350859,
    "category": "temple",
    "prefecture": "tottori",
    "osm_id": 4069405156,
    "spot_type": "data_spot",
    "data_source": "osm"
  },
  {
    "name": "智光山 慶安寺",
    "name_en": "",
    "lat": 35.4981272,
    "lng": 134.2355355,
    "category": "temple",
    "prefecture": "tottori",
    "osm_id": 4069515433,
    "spot_type": "data_spot",
    "data_source": "osm"
  },
  {
    "name": "吉方稲荷神社",
    "name_en": "",
    "lat": 35.4925864,
    "lng": 134.2362348,
    "category": "shrine",
    "prefecture": "tottori",
    "osm_id": 4070601064,
    "spot_type": "data_spot",
    "data_source": "osm"
  },
  {
    "name": "金龍山 晴雲寺",
    "name_en": "",
    "lat": 35.5033723,
    "lng": 134.230881,
    "category": "temple",
    "prefecture": "tottori",
    "osm_id": 4070847584,
    "spot_type": "data_spot",
    "data_source": "osm"
  },
  {
    "name": "解脱山 光輪寺",
    "name_en": "",
    "lat": 35.4590425,
    "lng": 134.0626851,
    "category": "temple",
    "prefecture": "tottori",
    "osm_id": 4071108095,
    "spot_type": "data_spot",
    "data_source": "osm"
  },
  {
    "name": "滝山神社",
    "name_en": "",
    "lat": 35.498907,
    "lng": 134.2644792,
    "category": "shrine",
    "prefecture": "tottori",
    "osm_id": 4075420554,
    "spot_type": "data_spot",
    "data_source": "osm"
  },
  {
    "name": "名称不明",
    "name_en": "",
    "lat": 35.4986616,
    "lng": 134.2647289,
    "category": "temple",
    "prefecture": "tottori",
    "osm_id": 4075420555,
    "spot_type": "data_spot",
    "data_source": "osm"
  },
  {
    "name": "祥雲山 浄国寺",
    "name_en": "",
    "lat": 35.4969398,
    "lng": 134.2625024,
    "category": "temple",
    "prefecture": "tottori",
    "osm_id": 4075427064,
    "spot_type": "data_spot",
    "data_source": "osm"
  },
  {
    "name": "康政山 菅能寺",
    "name_en": "",
    "lat": 35.4994767,
    "lng": 134.2275629,
    "category": "temple",
    "prefecture": "tottori",
    "osm_id": 4076747389,
    "spot_type": "data_spot",
    "data_source": "osm"
  },
  {
    "name": "紫雲山 淨宗寺",
    "name_en": "",
    "lat": 35.4988253,
    "lng": 134.2288001,
    "category": "temple",
    "prefecture": "tottori",
    "osm_id": 4076750864,
    "spot_type": "data_spot",
    "data_source": "osm"
  },
  {
    "name": "芳心寺",
    "name_en": "",
    "lat": 35.5005351,
    "lng": 134.2415655,
    "category": "temple",
    "prefecture": "tottori",
    "osm_id": 4077221141,
    "spot_type": "data_spot",
    "data_source": "osm"
  },
  {
    "name": "大隣寺",
    "name_en": "",
    "lat": 35.5011694,
    "lng": 134.2415646,
    "category": "temple",
    "prefecture": "tottori",
    "osm_id": 4077221142,
    "spot_type": "data_spot",
    "data_source": "osm"
  },
  {
    "name": "日香寺",
    "name_en": "",
    "lat": 35.5018556,
    "lng": 134.2414399,
    "category": "temple",
    "prefecture": "tottori",
    "osm_id": 4077221143,
    "spot_type": "data_spot",
    "data_source": "osm"
  },
  {
    "name": "名称不明",
    "name_en": "",
    "lat": 35.4901304,
    "lng": 134.231146,
    "category": "temple",
    "prefecture": "tottori",
    "osm_id": 4077225068,
    "spot_type": "data_spot",
    "data_source": "osm"
  },
  {
    "name": "畢竟院",
    "name_en": "",
    "lat": 35.4801571,
    "lng": 134.2339667,
    "category": "temple",
    "prefecture": "tottori",
    "osm_id": 4078680147,
    "spot_type": "data_spot",
    "data_source": "osm"
  },
  {
    "name": "前田神社",
    "name_en": "",
    "lat": 35.480647,
    "lng": 134.2291727,
    "category": "shrine",
    "prefecture": "tottori",
    "osm_id": 4078690644,
    "spot_type": "data_spot",
    "data_source": "osm"
  },
  {
    "name": "的場神社",
    "name_en": "",
    "lat": 35.4760229,
    "lng": 134.2289609,
    "category": "shrine",
    "prefecture": "tottori",
    "osm_id": 4079180113,
    "spot_type": "data_spot",
    "data_source": "osm"
  },
  {
    "name": "東垣大日堂",
    "name_en": "",
    "lat": 35.4261588,
    "lng": 134.520773,
    "category": "temple",
    "prefecture": "tottori",
    "osm_id": 4086455298,
    "spot_type": "data_spot",
    "data_source": "osm"
  },
  {
    "name": "光明山 弘法寺",
    "name_en": "",
    "lat": 35.5227691,
    "lng": 134.224108,
    "category": "temple",
    "prefecture": "tottori",
    "osm_id": 4113524747,
    "spot_type": "data_spot",
    "data_source": "osm"
  },
  {
    "name": "意上奴神社",
    "name_en": "",
    "lat": 35.4356933,
    "lng": 134.2466866,
    "category": "shrine",
    "prefecture": "tottori",
    "osm_id": 4141108292,
    "spot_type": "data_spot",
    "data_source": "osm"
  },
  {
    "name": "大山鳥居神社",
    "name_en": "",
    "lat": 35.3795896,
    "lng": 133.7513344,
    "category": "shrine",
    "prefecture": "tottori",
    "osm_id": 4141238238,
    "spot_type": "data_spot",
    "data_source": "osm"
  },
  {
    "name": "岩倉山観音堂",
    "name_en": "",
    "lat": 35.488483,
    "lng": 134.2622206,
    "category": "shrine",
    "prefecture": "tottori",
    "osm_id": 4143698114,
    "spot_type": "data_spot",
    "data_source": "osm"
  },
  {
    "name": "法雲山 大善寺",
    "name_en": "",
    "lat": 35.3421086,
    "lng": 134.2059963,
    "category": "temple",
    "prefecture": "tottori",
    "osm_id": 4147013683,
    "spot_type": "data_spot",
    "data_source": "osm"
  },
  {
    "name": "正覚寺",
    "name_en": "",
    "lat": 35.3418419,
    "lng": 134.2053585,
    "category": "temple",
    "prefecture": "tottori",
    "osm_id": 4147021762,
    "spot_type": "data_spot",
    "data_source": "osm"
  },
  {
    "name": "法華山 圓教寺",
    "name_en": "",
    "lat": 35.3410997,
    "lng": 134.2053796,
    "category": "temple",
    "prefecture": "tottori",
    "osm_id": 4147031882,
    "spot_type": "data_spot",
    "data_source": "osm"
  },
  {
    "name": "東井神社",
    "name_en": "",
    "lat": 35.3394183,
    "lng": 134.2034203,
    "category": "shrine",
    "prefecture": "tottori",
    "osm_id": 4147033860,
    "spot_type": "data_spot",
    "data_source": "osm"
  },
  {
    "name": "宗忠神社 用瀬分社",
    "name_en": "",
    "lat": 35.3410405,
    "lng": 134.2036438,
    "category": "shrine",
    "prefecture": "tottori",
    "osm_id": 4147039644,
    "spot_type": "data_spot",
    "data_source": "osm"
  },
  {
    "name": "宮谷神社",
    "name_en": "",
    "lat": 35.3420834,
    "lng": 134.194974,
    "category": "shrine",
    "prefecture": "tottori",
    "osm_id": 4147045265,
    "spot_type": "data_spot",
    "data_source": "osm"
  },
  {
    "name": "曹渓山 殊長寺",
    "name_en": "",
    "lat": 35.3409407,
    "lng": 134.1920299,
    "category": "temple",
    "prefecture": "tottori",
    "osm_id": 4147045266,
    "spot_type": "data_spot",
    "data_source": "osm"
  },
  {
    "name": "宮長神社",
    "name_en": "",
    "lat": 35.47752,
    "lng": 134.222556,
    "category": "shrine",
    "prefecture": "tottori",
    "osm_id": 4216641859,
    "spot_type": "data_spot",
    "data_source": "osm"
  },
  {
    "name": "神宮寺; 毘沙門堂",
    "name_en": "",
    "lat": 35.5110887,
    "lng": 134.21858,
    "category": "temple",
    "prefecture": "tottori",
    "osm_id": 4227101635,
    "spot_type": "data_spot",
    "data_source": "osm"
  },
  {
    "name": "萬田神社",
    "name_en": "",
    "lat": 35.5118094,
    "lng": 134.2196189,
    "category": "shrine",
    "prefecture": "tottori",
    "osm_id": 4227104124,
    "spot_type": "data_spot",
    "data_source": "osm"
  },
  {
    "name": "慈光山 照明寺",
    "name_en": "",
    "lat": 35.509839,
    "lng": 134.2193109,
    "category": "temple",
    "prefecture": "tottori",
    "osm_id": 4227110296,
    "spot_type": "data_spot",
    "data_source": "osm"
  },
  {
    "name": "真如山 慈眼寺",
    "name_en": "",
    "lat": 35.5001606,
    "lng": 134.2210903,
    "category": "temple",
    "prefecture": "tottori",
    "osm_id": 4230148051,
    "spot_type": "data_spot",
    "data_source": "osm"
  },
  {
    "name": "子安稲荷神社",
    "name_en": "",
    "lat": 35.4953395,
    "lng": 134.2417778,
    "category": "shrine",
    "prefecture": "tottori",
    "osm_id": 4230154040,
    "spot_type": "data_spot",
    "data_source": "osm"
  },
  {
    "name": "黒住教 高草中教会所",
    "name_en": "",
    "lat": 35.5011628,
    "lng": 134.2009286,
    "category": "temple",
    "prefecture": "tottori",
    "osm_id": 4249437605,
    "spot_type": "data_spot",
    "data_source": "osm"
  },
  {
    "name": "菖蒲神社",
    "name_en": "",
    "lat": 35.4825937,
    "lng": 134.203062,
    "category": "shrine",
    "prefecture": "tottori",
    "osm_id": 4249844102,
    "spot_type": "data_spot",
    "data_source": "osm"
  },
  {
    "name": "名称不明",
    "name_en": "",
    "lat": 35.5128545,
    "lng": 134.2191802,
    "category": "temple",
    "prefecture": "tottori",
    "osm_id": 4250159689,
    "spot_type": "data_spot",
    "data_source": "osm"
  },
  {
    "name": "大野見宿禰命神社",
    "name_en": "",
    "lat": 35.501361,
    "lng": 134.2022732,
    "category": "shrine",
    "prefecture": "tottori",
    "osm_id": 4252110643,
    "spot_type": "data_spot",
    "data_source": "osm"
  },
  {
    "name": "龍雲山 真宗寺",
    "name_en": "",
    "lat": 35.5012678,
    "lng": 134.2272496,
    "category": "temple",
    "prefecture": "tottori",
    "osm_id": 4252330181,
    "spot_type": "data_spot",
    "data_source": "osm"
  },
  {
    "name": "福聚山 長谷寺",
    "name_en": "",
    "lat": 35.4384964,
    "lng": 134.2003255,
    "category": "temple",
    "prefecture": "tottori",
    "osm_id": 4254018406,
    "spot_type": "data_spot",
    "data_source": "osm"
  },
  {
    "name": "倭文神社",
    "name_en": "",
    "lat": 35.440447,
    "lng": 134.2006023,
    "category": "shrine",
    "prefecture": "tottori",
    "osm_id": 4255704996,
    "spot_type": "data_spot",
    "data_source": "osm"
  },
  {
    "name": "藤森神社",
    "name_en": "",
    "lat": 35.437468,
    "lng": 134.2015179,
    "category": "shrine",
    "prefecture": "tottori",
    "osm_id": 4255704997,
    "spot_type": "data_spot",
    "data_source": "osm"
  },
  {
    "name": "名称不明",
    "name_en": "",
    "lat": 35.4708745,
    "lng": 134.2190183,
    "category": "shrine",
    "prefecture": "tottori",
    "osm_id": 4258045670,
    "spot_type": "data_spot",
    "data_source": "osm"
  },
  {
    "name": "服部神社",
    "name_en": "",
    "lat": 35.4756992,
    "lng": 134.2061086,
    "category": "shrine",
    "prefecture": "tottori",
    "osm_id": 4258610754,
    "spot_type": "data_spot",
    "data_source": "osm"
  },
  {
    "name": "加知弥神社",
    "name_en": "",
    "lat": 35.4785061,
    "lng": 134.0518703,
    "category": "shrine",
    "prefecture": "tottori",
    "osm_id": 4262050148,
    "spot_type": "data_spot",
    "data_source": "osm"
  },
  {
    "name": "少林山 譲傳寺",
    "name_en": "",
    "lat": 35.4603666,
    "lng": 134.0477665,
    "category": "temple",
    "prefecture": "tottori",
    "osm_id": 4262056898,
    "spot_type": "data_spot",
    "data_source": "osm"
  },
  {
    "name": "名称不明",
    "name_en": "",
    "lat": 35.508084,
    "lng": 134.0489978,
    "category": "shrine",
    "prefecture": "tottori",
    "osm_id": 4263964589,
    "spot_type": "data_spot",
    "data_source": "osm"
  },
  {
    "name": "安寧山長泉寺",
    "name_en": "",
    "lat": 35.5048665,
    "lng": 134.0514224,
    "category": "temple",
    "prefecture": "tottori",
    "osm_id": 4263964590,
    "spot_type": "data_spot",
    "data_source": "osm"
  },
  {
    "name": "名称不明",
    "name_en": "",
    "lat": 35.5060891,
    "lng": 134.0507947,
    "category": "shrine",
    "prefecture": "tottori",
    "osm_id": 4263964591,
    "spot_type": "data_spot",
    "data_source": "osm"
  },
  {
    "name": "円光山 松泉寺",
    "name_en": "",
    "lat": 35.4685101,
    "lng": 134.0527255,
    "category": "temple",
    "prefecture": "tottori",
    "osm_id": 4264493554,
    "spot_type": "data_spot",
    "data_source": "osm"
  },
  {
    "name": "西向山 浄徳寺",
    "name_en": "",
    "lat": 35.4619019,
    "lng": 134.0689439,
    "category": "temple",
    "prefecture": "tottori",
    "osm_id": 4264496702,
    "spot_type": "data_spot",
    "data_source": "osm"
  },
  {
    "name": "北頭山 三光院",
    "name_en": "",
    "lat": 35.4617854,
    "lng": 134.0669227,
    "category": "temple",
    "prefecture": "tottori",
    "osm_id": 4264497512,
    "spot_type": "data_spot",
    "data_source": "osm"
  },
  {
    "name": "施無畏山 観世音寺",
    "name_en": "",
    "lat": 35.4609929,
    "lng": 134.0696703,
    "category": "temple",
    "prefecture": "tottori",
    "osm_id": 4264499697,
    "spot_type": "data_spot",
    "data_source": "osm"
  },
  {
    "name": "鹿野山 妙光寺",
    "name_en": "",
    "lat": 35.4624085,
    "lng": 134.0688755,
    "category": "temple",
    "prefecture": "tottori",
    "osm_id": 4264502205,
    "spot_type": "data_spot",
    "data_source": "osm"
  },
  {
    "name": "凌泰山 雲龍寺",
    "name_en": "",
    "lat": 35.4567102,
    "lng": 134.070267,
    "category": "temple",
    "prefecture": "tottori",
    "osm_id": 4264504638,
    "spot_type": "data_spot",
    "data_source": "osm"
  },
  {
    "name": "鹿野山 幸盛寺",
    "name_en": "",
    "lat": 35.4627264,
    "lng": 134.0635728,
    "category": "temple",
    "prefecture": "tottori",
    "osm_id": 4264507245,
    "spot_type": "data_spot",
    "data_source": "osm"
  },
  {
    "name": "久昌山 長安寺",
    "name_en": "",
    "lat": 35.4782351,
    "lng": 134.0478638,
    "category": "temple",
    "prefecture": "tottori",
    "osm_id": 4264513654,
    "spot_type": "data_spot",
    "data_source": "osm"
  },
  {
    "name": "鷲峰神社",
    "name_en": "",
    "lat": 35.4400355,
    "lng": 134.0257446,
    "category": "shrine",
    "prefecture": "tottori",
    "osm_id": 4265552775,
    "spot_type": "data_spot",
    "data_source": "osm"
  },
  {
    "name": "茂宇気神社",
    "name_en": "",
    "lat": 35.4265703,
    "lng": 134.0147209,
    "category": "shrine",
    "prefecture": "tottori",
    "osm_id": 4265567665,
    "spot_type": "data_spot",
    "data_source": "osm"
  },
  {
    "name": "菖蒲山 座光寺",
    "name_en": "",
    "lat": 35.4847312,
    "lng": 134.2033272,
    "category": "temple",
    "prefecture": "tottori",
    "osm_id": 4273132512,
    "spot_type": "data_spot",
    "data_source": "osm"
  },
  {
    "name": "醫王山 最勝院",
    "name_en": "",
    "lat": 35.5120714,
    "lng": 134.2362264,
    "category": "temple",
    "prefecture": "tottori",
    "osm_id": 4285780708,
    "spot_type": "data_spot",
    "data_source": "osm"
  },
  {
    "name": "汲湖山 寶泉寺",
    "name_en": "",
    "lat": 35.483349,
    "lng": 134.12722,
    "category": "temple",
    "prefecture": "tottori",
    "osm_id": 4285784178,
    "spot_type": "data_spot",
    "data_source": "osm"
  },
  {
    "name": "海南山 長楽寺",
    "name_en": "",
    "lat": 35.5407798,
    "lng": 134.2980764,
    "category": "temple",
    "prefecture": "tottori",
    "osm_id": 4285787911,
    "spot_type": "data_spot",
    "data_source": "osm"
  },
  {
    "name": "荘嚴山 極楽寺",
    "name_en": "",
    "lat": 35.5035435,
    "lng": 134.1782113,
    "category": "temple",
    "prefecture": "tottori",
    "osm_id": 4286863473,
    "spot_type": "data_spot",
    "data_source": "osm"
  },
  {
    "name": "名称不明",
    "name_en": "",
    "lat": 35.4941135,
    "lng": 134.1235127,
    "category": "temple",
    "prefecture": "tottori",
    "osm_id": 4289876508,
    "spot_type": "data_spot",
    "data_source": "osm"
  },
  {
    "name": "名称不明",
    "name_en": "",
    "lat": 35.4555685,
    "lng": 134.2043169,
    "category": "shrine",
    "prefecture": "tottori",
    "osm_id": 4294088961,
    "spot_type": "data_spot",
    "data_source": "osm"
  },
  {
    "name": "玉雲山 法清寺",
    "name_en": "",
    "lat": 35.4795804,
    "lng": 134.2409816,
    "category": "temple",
    "prefecture": "tottori",
    "osm_id": 4294267699,
    "spot_type": "data_spot",
    "data_source": "osm"
  },
  {
    "name": "木島温泉",
    "name_en": "",
    "lat": 35.4936785,
    "lng": 134.2354448,
    "category": "onsen",
    "prefecture": "tottori",
    "osm_id": 4299319569,
    "spot_type": "data_spot",
    "data_source": "osm"
  },
  {
    "name": "玉津神社",
    "name_en": "",
    "lat": 35.4465163,
    "lng": 134.1955804,
    "category": "shrine",
    "prefecture": "tottori",
    "osm_id": 4318739298,
    "spot_type": "data_spot",
    "data_source": "osm"
  },
  {
    "name": "玉屋神社",
    "name_en": "",
    "lat": 35.452304,
    "lng": 134.1960695,
    "category": "shrine",
    "prefecture": "tottori",
    "osm_id": 4318748084,
    "spot_type": "data_spot",
    "data_source": "osm"
  },
  {
    "name": "月光山慈眼院 観音寺",
    "name_en": "",
    "lat": 35.3824412,
    "lng": 134.1291734,
    "category": "temple",
    "prefecture": "tottori",
    "osm_id": 4321220805,
    "spot_type": "data_spot",
    "data_source": "osm"
  },
  {
    "name": "隆法山 興宗寺",
    "name_en": "",
    "lat": 35.5174427,
    "lng": 133.9913162,
    "category": "temple",
    "prefecture": "tottori",
    "osm_id": 4328281895,
    "spot_type": "data_spot",
    "data_source": "osm"
  },
  {
    "name": "水中山浄清院 栖岸寺",
    "name_en": "",
    "lat": 35.5176259,
    "lng": 134.1788003,
    "category": "temple",
    "prefecture": "tottori",
    "osm_id": 4333055909,
    "spot_type": "data_spot",
    "data_source": "osm"
  },
  {
    "name": "名称不明",
    "name_en": "",
    "lat": 35.5260081,
    "lng": 134.2002595,
    "category": "shrine",
    "prefecture": "tottori",
    "osm_id": 4336497897,
    "spot_type": "data_spot",
    "data_source": "osm"
  },
  {
    "name": "名称不明",
    "name_en": "",
    "lat": 35.5262138,
    "lng": 134.2010561,
    "category": "temple",
    "prefecture": "tottori",
    "osm_id": 4336497898,
    "spot_type": "data_spot",
    "data_source": "osm"
  },
  {
    "name": "名称不明",
    "name_en": "",
    "lat": 35.5004568,
    "lng": 134.1712694,
    "category": "shrine",
    "prefecture": "tottori",
    "osm_id": 4341559132,
    "spot_type": "data_spot",
    "data_source": "osm"
  },
  {
    "name": "善滝神社",
    "name_en": "Yoshitaki Shrine",
    "lat": 35.4358922,
    "lng": 134.5088164,
    "category": "shrine",
    "prefecture": "tottori",
    "osm_id": 4345422857,
    "spot_type": "data_spot",
    "data_source": "osm"
  },
  {
    "name": "名称不明",
    "name_en": "",
    "lat": 35.5132167,
    "lng": 134.178661,
    "category": "shrine",
    "prefecture": "tottori",
    "osm_id": 4347328975,
    "spot_type": "data_spot",
    "data_source": "osm"
  },
  {
    "name": "名称不明",
    "name_en": "",
    "lat": 35.5124032,
    "lng": 134.1789363,
    "category": "shrine",
    "prefecture": "tottori",
    "osm_id": 4347328976,
    "spot_type": "data_spot",
    "data_source": "osm"
  },
  {
    "name": "松上神社",
    "name_en": "",
    "lat": 35.4950179,
    "lng": 134.1845233,
    "category": "shrine",
    "prefecture": "tottori",
    "osm_id": 4349825560,
    "spot_type": "data_spot",
    "data_source": "osm"
  },
  {
    "name": "荒田神社",
    "name_en": "",
    "lat": 35.4947174,
    "lng": 134.1501225,
    "category": "shrine",
    "prefecture": "tottori",
    "osm_id": 4350594011,
    "spot_type": "data_spot",
    "data_source": "osm"
  },
  {
    "name": "北村神社",
    "name_en": "",
    "lat": 35.4752171,
    "lng": 134.1852031,
    "category": "shrine",
    "prefecture": "tottori",
    "osm_id": 4351413243,
    "spot_type": "data_spot",
    "data_source": "osm"
  },
  {
    "name": "金剛山 龍松寺",
    "name_en": "",
    "lat": 35.475592,
    "lng": 134.1852101,
    "category": "temple",
    "prefecture": "tottori",
    "osm_id": 4351413257,
    "spot_type": "data_spot",
    "data_source": "osm"
  },
  {
    "name": "興長山 大祥寺",
    "name_en": "",
    "lat": 35.5166974,
    "lng": 133.2114302,
    "category": "temple",
    "prefecture": "tottori",
    "osm_id": 4354987174,
    "spot_type": "data_spot",
    "data_source": "osm"
  },
  {
    "name": "日御碕神社",
    "name_en": "",
    "lat": 35.516167,
    "lng": 133.2116346,
    "category": "shrine",
    "prefecture": "tottori",
    "osm_id": 4354987175,
    "spot_type": "data_spot",
    "data_source": "osm"
  },
  {
    "name": "名称不明",
    "name_en": "",
    "lat": 35.4921262,
    "lng": 134.2268574,
    "category": "rest_area",
    "prefecture": "tottori",
    "osm_id": 4355994792,
    "spot_type": "data_spot",
    "data_source": "osm"
  },
  {
    "name": "杉崎神社",
    "name_en": "",
    "lat": 35.4659058,
    "lng": 134.2539359,
    "category": "shrine",
    "prefecture": "tottori",
    "osm_id": 4363596305,
    "spot_type": "data_spot",
    "data_source": "osm"
  },
  {
    "name": "大谷山 深相寺",
    "name_en": "",
    "lat": 35.4652342,
    "lng": 134.253839,
    "category": "temple",
    "prefecture": "tottori",
    "osm_id": 4363596306,
    "spot_type": "data_spot",
    "data_source": "osm"
  },
  {
    "name": "名称不明",
    "name_en": "",
    "lat": 35.4646902,
    "lng": 134.2523807,
    "category": "shrine",
    "prefecture": "tottori",
    "osm_id": 4363639752,
    "spot_type": "data_spot",
    "data_source": "osm"
  },
  {
    "name": "Studio652 (旧岩美病院)",
    "name_en": "",
    "lat": 35.5788217,
    "lng": 134.331518,
    "category": "museum",
    "prefecture": "tottori",
    "osm_id": 4365513235,
    "spot_type": "data_spot",
    "data_source": "osm"
  },
  {
    "name": "名称不明",
    "name_en": "",
    "lat": 35.5478024,
    "lng": 134.2460274,
    "category": "shrine",
    "prefecture": "tottori",
    "osm_id": 4367170941,
    "spot_type": "data_spot",
    "data_source": "osm"
  },
  {
    "name": "名称不明",
    "name_en": "",
    "lat": 35.5429041,
    "lng": 134.259605,
    "category": "shrine",
    "prefecture": "tottori",
    "osm_id": 4368700812,
    "spot_type": "data_spot",
    "data_source": "osm"
  },
  {
    "name": "名称不明",
    "name_en": "",
    "lat": 35.3447158,
    "lng": 134.40374,
    "category": "shrine",
    "prefecture": "tottori",
    "osm_id": 4368962161,
    "spot_type": "data_spot",
    "data_source": "osm"
  },
  {
    "name": "松高神社",
    "name_en": "",
    "lat": 35.5155884,
    "lng": 134.1699648,
    "category": "shrine",
    "prefecture": "tottori",
    "osm_id": 4380162759,
    "spot_type": "data_spot",
    "data_source": "osm"
  },
  {
    "name": "上小路神社",
    "name_en": "",
    "lat": 35.5318976,
    "lng": 134.1919208,
    "category": "shrine",
    "prefecture": "tottori",
    "osm_id": 4393593589,
    "spot_type": "data_spot",
    "data_source": "osm"
  },
  {
    "name": "鳥取港海友館",
    "name_en": "",
    "lat": 35.5346252,
    "lng": 134.1964438,
    "category": "museum",
    "prefecture": "tottori",
    "osm_id": 4393747391,
    "spot_type": "data_spot",
    "data_source": "osm"
  },
  {
    "name": "名称不明",
    "name_en": "",
    "lat": 35.5403783,
    "lng": 134.1841835,
    "category": "lighthouse",
    "prefecture": "tottori",
    "osm_id": 4394710879,
    "spot_type": "data_spot",
    "data_source": "osm"
  },
  {
    "name": "名称不明",
    "name_en": "",
    "lat": 35.547007,
    "lng": 134.191653,
    "category": "lighthouse",
    "prefecture": "tottori",
    "osm_id": 4394710880,
    "spot_type": "data_spot",
    "data_source": "osm"
  },
  {
    "name": "名称不明",
    "name_en": "",
    "lat": 35.5500307,
    "lng": 134.1914655,
    "category": "lighthouse",
    "prefecture": "tottori",
    "osm_id": 4394710881,
    "spot_type": "data_spot",
    "data_source": "osm"
  },
  {
    "name": "中高神社",
    "name_en": "",
    "lat": 35.4672252,
    "lng": 133.476572,
    "category": "shrine",
    "prefecture": "tottori",
    "osm_id": 4403866495,
    "spot_type": "data_spot",
    "data_source": "osm"
  },
  {
    "name": "若桜民工芸館",
    "name_en": "",
    "lat": 35.3430118,
    "lng": 134.3981441,
    "category": "museum",
    "prefecture": "tottori",
    "osm_id": 4406459451,
    "spot_type": "data_spot",
    "data_source": "osm"
  },
  {
    "name": "若桜神社",
    "name_en": "",
    "lat": 35.3430416,
    "lng": 134.3918097,
    "category": "shrine",
    "prefecture": "tottori",
    "osm_id": 4407728655,
    "spot_type": "data_spot",
    "data_source": "osm"
  },
  {
    "name": "大江神社",
    "name_en": "",
    "lat": 35.3529503,
    "lng": 134.2497041,
    "category": "shrine",
    "prefecture": "tottori",
    "osm_id": 4408682932,
    "spot_type": "data_spot",
    "data_source": "osm"
  },
  {
    "name": "利勝山 貞信寺",
    "name_en": "",
    "lat": 35.5287552,
    "lng": 134.3116287,
    "category": "temple",
    "prefecture": "tottori",
    "osm_id": 4425103979,
    "spot_type": "data_spot",
    "data_source": "osm"
  },
  {
    "name": "医王山 東源寺",
    "name_en": "",
    "lat": 35.5544721,
    "lng": 134.361153,
    "category": "temple",
    "prefecture": "tottori",
    "osm_id": 4425173352,
    "spot_type": "data_spot",
    "data_source": "osm"
  },
  {
    "name": "浄教山 西法寺",
    "name_en": "",
    "lat": 35.5542812,
    "lng": 134.3614899,
    "category": "temple",
    "prefecture": "tottori",
    "osm_id": 4425200921,
    "spot_type": "data_spot",
    "data_source": "osm"
  },
  {
    "name": "瑞泉山 定信寺",
    "name_en": "",
    "lat": 35.5548982,
    "lng": 134.3606561,
    "category": "temple",
    "prefecture": "tottori",
    "osm_id": 4425200922,
    "spot_type": "data_spot",
    "data_source": "osm"
  },
  {
    "name": "龍澤山 瑞泉寺",
    "name_en": "",
    "lat": 35.5235355,
    "lng": 134.3388262,
    "category": "temple",
    "prefecture": "tottori",
    "osm_id": 4425254457,
    "spot_type": "data_spot",
    "data_source": "osm"
  },
  {
    "name": "最勝名山 國分寺 (因幡国分寺)",
    "name_en": "",
    "lat": 35.4702707,
    "lng": 134.2619018,
    "category": "temple",
    "prefecture": "tottori",
    "osm_id": 4425265440,
    "spot_type": "data_spot",
    "data_source": "osm"
  },
  {
    "name": "普門山 大樹寺",
    "name_en": "",
    "lat": 35.4123696,
    "lng": 134.3290345,
    "category": "temple",
    "prefecture": "tottori",
    "osm_id": 4425272894,
    "spot_type": "data_spot",
    "data_source": "osm"
  },
  {
    "name": "瑞峰山 祥雲寺",
    "name_en": "",
    "lat": 35.368031,
    "lng": 134.3813499,
    "category": "temple",
    "prefecture": "tottori",
    "osm_id": 4425321118,
    "spot_type": "data_spot",
    "data_source": "osm"
  },
  {
    "name": "遠渓山 吉祥寺",
    "name_en": "",
    "lat": 35.2700036,
    "lng": 134.4148062,
    "category": "temple",
    "prefecture": "tottori",
    "osm_id": 4425329931,
    "spot_type": "data_spot",
    "data_source": "osm"
  },
  {
    "name": "寺前薬師堂",
    "name_en": "",
    "lat": 35.2980253,
    "lng": 134.4566868,
    "category": "temple",
    "prefecture": "tottori",
    "osm_id": 4425334826,
    "spot_type": "data_spot",
    "data_source": "osm"
  },
  {
    "name": "波羅密山 新興寺",
    "name_en": "",
    "lat": 35.3716852,
    "lng": 134.3126824,
    "category": "temple",
    "prefecture": "tottori",
    "osm_id": 4425376793,
    "spot_type": "data_spot",
    "data_source": "osm"
  },
  {
    "name": "東方山 奉安寺",
    "name_en": "",
    "lat": 35.3911011,
    "lng": 134.2442376,
    "category": "temple",
    "prefecture": "tottori",
    "osm_id": 4425378226,
    "spot_type": "data_spot",
    "data_source": "osm"
  },
  {
    "name": "松泉寺薬師堂",
    "name_en": "",
    "lat": 35.4686572,
    "lng": 134.0527702,
    "category": "temple",
    "prefecture": "tottori",
    "osm_id": 4425455055,
    "spot_type": "data_spot",
    "data_source": "osm"
  },
  {
    "name": "医王山 大安興寺",
    "name_en": "",
    "lat": 35.3596267,
    "lng": 134.2113619,
    "category": "temple",
    "prefecture": "tottori",
    "osm_id": 4426007839,
    "spot_type": "data_spot",
    "data_source": "osm"
  },
  {
    "name": "勝見薬師堂",
    "name_en": "",
    "lat": 35.5079862,
    "lng": 134.0512559,
    "category": "temple",
    "prefecture": "tottori",
    "osm_id": 4426017046,
    "spot_type": "data_spot",
    "data_source": "osm"
  },
  {
    "name": "藤森山 福善寺",
    "name_en": "",
    "lat": 35.3318533,
    "lng": 134.12354,
    "category": "temple",
    "prefecture": "tottori",
    "osm_id": 4426025838,
    "spot_type": "data_spot",
    "data_source": "osm"
  },
  {
    "name": "月光山 林泉寺",
    "name_en": "",
    "lat": 35.3343958,
    "lng": 134.115349,
    "category": "temple",
    "prefecture": "tottori",
    "osm_id": 4426032307,
    "spot_type": "data_spot",
    "data_source": "osm"
  },
  {
    "name": "江波薬師堂",
    "name_en": "",
    "lat": 35.3095475,
    "lng": 134.1332033,
    "category": "temple",
    "prefecture": "tottori",
    "osm_id": 4426114579,
    "spot_type": "data_spot",
    "data_source": "osm"
  },
  {
    "name": "紙子谷神社",
    "name_en": "",
    "lat": 35.445446,
    "lng": 134.2498148,
    "category": "shrine",
    "prefecture": "tottori",
    "osm_id": 4446055208,
    "spot_type": "data_spot",
    "data_source": "osm"
  },
  {
    "name": "廣岡神社",
    "name_en": "",
    "lat": 35.4472452,
    "lng": 134.2480711,
    "category": "shrine",
    "prefecture": "tottori",
    "osm_id": 4446055209,
    "spot_type": "data_spot",
    "data_source": "osm"
  },
  {
    "name": "法幢寺",
    "name_en": "",
    "lat": 35.4424608,
    "lng": 133.7892574,
    "category": "temple",
    "prefecture": "tottori",
    "osm_id": 4458603284,
    "spot_type": "data_spot",
    "data_source": "osm"
  },
  {
    "name": "四王寺",
    "name_en": "",
    "lat": 35.4500343,
    "lng": 133.7844662,
    "category": "temple",
    "prefecture": "tottori",
    "osm_id": 4458604484,
    "spot_type": "data_spot",
    "data_source": "osm"
  },
  {
    "name": "名称不明",
    "name_en": "",
    "lat": 35.4301775,
    "lng": 133.8316205,
    "category": "shrine",
    "prefecture": "tottori",
    "osm_id": 4460084508,
    "spot_type": "data_spot",
    "data_source": "osm"
  },
  {
    "name": "名称不明",
    "name_en": "",
    "lat": 35.4311476,
    "lng": 133.8199175,
    "category": "shrine",
    "prefecture": "tottori",
    "osm_id": 4461934258,
    "spot_type": "data_spot",
    "data_source": "osm"
  },
  {
    "name": "名称不明",
    "name_en": "",
    "lat": 35.4295852,
    "lng": 133.8217896,
    "category": "shrine",
    "prefecture": "tottori",
    "osm_id": 4461961057,
    "spot_type": "data_spot",
    "data_source": "osm"
  },
  {
    "name": "不動堂",
    "name_en": "",
    "lat": 35.4274948,
    "lng": 133.8171079,
    "category": "temple",
    "prefecture": "tottori",
    "osm_id": 4462006200,
    "spot_type": "data_spot",
    "data_source": "osm"
  },
  {
    "name": "東山神社",
    "name_en": "",
    "lat": 35.4224739,
    "lng": 133.8446017,
    "category": "shrine",
    "prefecture": "tottori",
    "osm_id": 4464515710,
    "spot_type": "data_spot",
    "data_source": "osm"
  },
  {
    "name": "新宮神社",
    "name_en": "",
    "lat": 35.4269476,
    "lng": 133.8364218,
    "category": "shrine",
    "prefecture": "tottori",
    "osm_id": 4464954210,
    "spot_type": "data_spot",
    "data_source": "osm"
  },
  {
    "name": "名称不明",
    "name_en": "",
    "lat": 35.4487232,
    "lng": 133.855597,
    "category": "shrine",
    "prefecture": "tottori",
    "osm_id": 4476542473,
    "spot_type": "data_spot",
    "data_source": "osm"
  },
  {
    "name": "日照山 極楽寺",
    "name_en": "",
    "lat": 35.4399954,
    "lng": 133.8506617,
    "category": "temple",
    "prefecture": "tottori",
    "osm_id": 4480527847,
    "spot_type": "data_spot",
    "data_source": "osm"
  },
  {
    "name": "天高神社",
    "name_en": "",
    "lat": 35.4411782,
    "lng": 133.8522849,
    "category": "shrine",
    "prefecture": "tottori",
    "osm_id": 4480527848,
    "spot_type": "data_spot",
    "data_source": "osm"
  },
  {
    "name": "新宮山神社",
    "name_en": "",
    "lat": 35.4384533,
    "lng": 133.8513442,
    "category": "shrine",
    "prefecture": "tottori",
    "osm_id": 4480527849,
    "spot_type": "data_spot",
    "data_source": "osm"
  },
  {
    "name": "鹿島神社",
    "name_en": "",
    "lat": 35.4452036,
    "lng": 133.85455,
    "category": "shrine",
    "prefecture": "tottori",
    "osm_id": 4480527853,
    "spot_type": "data_spot",
    "data_source": "osm"
  },
  {
    "name": "名称不明",
    "name_en": "",
    "lat": 35.5653808,
    "lng": 134.2726828,
    "category": "lighthouse",
    "prefecture": "tottori",
    "osm_id": 4491559165,
    "spot_type": "data_spot",
    "data_source": "osm"
  },
  {
    "name": "名称不明",
    "name_en": "",
    "lat": 35.5948157,
    "lng": 134.3186985,
    "category": "lighthouse",
    "prefecture": "tottori",
    "osm_id": 4491559171,
    "spot_type": "data_spot",
    "data_source": "osm"
  },
  {
    "name": "名称不明",
    "name_en": "",
    "lat": 35.5960927,
    "lng": 134.3190743,
    "category": "lighthouse",
    "prefecture": "tottori",
    "osm_id": 4491559172,
    "spot_type": "data_spot",
    "data_source": "osm"
  },
  {
    "name": "名称不明",
    "name_en": "",
    "lat": 35.596226,
    "lng": 134.319854,
    "category": "lighthouse",
    "prefecture": "tottori",
    "osm_id": 4491559173,
    "spot_type": "data_spot",
    "data_source": "osm"
  },
  {
    "name": "大羽尾灯台",
    "name_en": "",
    "lat": 35.6077872,
    "lng": 134.3453061,
    "category": "lighthouse",
    "prefecture": "tottori",
    "osm_id": 4491559176,
    "spot_type": "data_spot",
    "data_source": "osm"
  },
  {
    "name": "名称不明",
    "name_en": "",
    "lat": 35.6064591,
    "lng": 134.3472841,
    "category": "lighthouse",
    "prefecture": "tottori",
    "osm_id": 4491559177,
    "spot_type": "data_spot",
    "data_source": "osm"
  },
  {
    "name": "名称不明",
    "name_en": "",
    "lat": 35.6059733,
    "lng": 134.3465214,
    "category": "lighthouse",
    "prefecture": "tottori",
    "osm_id": 4491559178,
    "spot_type": "data_spot",
    "data_source": "osm"
  },
  {
    "name": "名称不明",
    "name_en": "",
    "lat": 35.5464939,
    "lng": 134.1854686,
    "category": "lighthouse",
    "prefecture": "tottori",
    "osm_id": 4491583353,
    "spot_type": "data_spot",
    "data_source": "osm"
  },
  {
    "name": "名称不明",
    "name_en": "",
    "lat": 35.5261311,
    "lng": 134.0882031,
    "category": "lighthouse",
    "prefecture": "tottori",
    "osm_id": 4491583360,
    "spot_type": "data_spot",
    "data_source": "osm"
  },
  {
    "name": "名称不明",
    "name_en": "",
    "lat": 35.5235374,
    "lng": 134.0206894,
    "category": "lighthouse",
    "prefecture": "tottori",
    "osm_id": 4491583361,
    "spot_type": "data_spot",
    "data_source": "osm"
  },
  {
    "name": "名称不明",
    "name_en": "",
    "lat": 35.536717,
    "lng": 134.0074417,
    "category": "lighthouse",
    "prefecture": "tottori",
    "osm_id": 4491583362,
    "spot_type": "data_spot",
    "data_source": "osm"
  },
  {
    "name": "名称不明",
    "name_en": "",
    "lat": 35.529992,
    "lng": 133.9995003,
    "category": "lighthouse",
    "prefecture": "tottori",
    "osm_id": 4491583363,
    "spot_type": "data_spot",
    "data_source": "osm"
  },
  {
    "name": "名称不明",
    "name_en": "",
    "lat": 35.5235191,
    "lng": 133.9721759,
    "category": "lighthouse",
    "prefecture": "tottori",
    "osm_id": 4491583364,
    "spot_type": "data_spot",
    "data_source": "osm"
  },
  {
    "name": "名称不明",
    "name_en": "",
    "lat": 35.5170301,
    "lng": 133.9375021,
    "category": "lighthouse",
    "prefecture": "tottori",
    "osm_id": 4491583367,
    "spot_type": "data_spot",
    "data_source": "osm"
  },
  {
    "name": "名称不明",
    "name_en": "",
    "lat": 35.5165871,
    "lng": 133.938091,
    "category": "lighthouse",
    "prefecture": "tottori",
    "osm_id": 4491583368,
    "spot_type": "data_spot",
    "data_source": "osm"
  },
  {
    "name": "桂木神社",
    "name_en": "",
    "lat": 35.4554668,
    "lng": 134.2510864,
    "category": "shrine",
    "prefecture": "tottori",
    "osm_id": 4492380329,
    "spot_type": "data_spot",
    "data_source": "osm"
  },
  {
    "name": "風宮神社",
    "name_en": "",
    "lat": 35.4621377,
    "lng": 134.2590783,
    "category": "shrine",
    "prefecture": "tottori",
    "osm_id": 4493236021,
    "spot_type": "data_spot",
    "data_source": "osm"
  },
  {
    "name": "槻折神社",
    "name_en": "",
    "lat": 35.4596147,
    "lng": 134.2595508,
    "category": "shrine",
    "prefecture": "tottori",
    "osm_id": 4493301823,
    "spot_type": "data_spot",
    "data_source": "osm"
  },
  {
    "name": "国庁裏神社",
    "name_en": "",
    "lat": 35.4314681,
    "lng": 133.7864532,
    "category": "shrine",
    "prefecture": "tottori",
    "osm_id": 4496249171,
    "spot_type": "data_spot",
    "data_source": "osm"
  },
  {
    "name": "寿湯",
    "name_en": "",
    "lat": 35.4697475,
    "lng": 133.9024258,
    "category": "onsen",
    "prefecture": "tottori",
    "osm_id": 4501653543,
    "spot_type": "data_spot",
    "data_source": "osm"
  },
  {
    "name": "大黒天の湯 足湯",
    "name_en": "",
    "lat": 35.4704376,
    "lng": 133.9019983,
    "category": "onsen",
    "prefecture": "tottori",
    "osm_id": 4501653544,
    "spot_type": "data_spot",
    "data_source": "osm"
  },
  {
    "name": "八幡神社",
    "name_en": "",
    "lat": 35.423623,
    "lng": 133.8133115,
    "category": "shrine",
    "prefecture": "tottori",
    "osm_id": 4503353554,
    "spot_type": "data_spot",
    "data_source": "osm"
  },
  {
    "name": "清熊稲荷神社",
    "name_en": "",
    "lat": 35.4254419,
    "lng": 133.8131485,
    "category": "shrine",
    "prefecture": "tottori",
    "osm_id": 4503370847,
    "spot_type": "data_spot",
    "data_source": "osm"
  },
  {
    "name": "北野神社",
    "name_en": "",
    "lat": 35.4206528,
    "lng": 133.7969091,
    "category": "shrine",
    "prefecture": "tottori",
    "osm_id": 4503386887,
    "spot_type": "data_spot",
    "data_source": "osm"
  },
  {
    "name": "黒住教倉吉大教会所",
    "name_en": "",
    "lat": 35.4305753,
    "lng": 133.8264776,
    "category": "shrine",
    "prefecture": "tottori",
    "osm_id": 4505562406,
    "spot_type": "data_spot",
    "data_source": "osm"
  },
  {
    "name": "倉吉歴史民俗資料館",
    "name_en": "",
    "lat": 35.4285214,
    "lng": 133.8255684,
    "category": "museum",
    "prefecture": "tottori",
    "osm_id": 4505567369,
    "spot_type": "data_spot",
    "data_source": "osm"
  },
  {
    "name": "鎮霊神社",
    "name_en": "",
    "lat": 35.4293299,
    "lng": 133.8236787,
    "category": "shrine",
    "prefecture": "tottori",
    "osm_id": 4505589849,
    "spot_type": "data_spot",
    "data_source": "osm"
  },
  {
    "name": "三輪神社",
    "name_en": "",
    "lat": 35.2586949,
    "lng": 134.2444978,
    "category": "shrine",
    "prefecture": "tottori",
    "osm_id": 4513196430,
    "spot_type": "data_spot",
    "data_source": "osm"
  },
  {
    "name": "名称不明",
    "name_en": "",
    "lat": 35.4728878,
    "lng": 133.8242849,
    "category": "shrine",
    "prefecture": "tottori",
    "osm_id": 4515654924,
    "spot_type": "data_spot",
    "data_source": "osm"
  },
  {
    "name": "日吉山 養光院",
    "name_en": "",
    "lat": 35.4390149,
    "lng": 133.3810521,
    "category": "temple",
    "prefecture": "tottori",
    "osm_id": 4517196576,
    "spot_type": "data_spot",
    "data_source": "osm"
  },
  {
    "name": "河野神社",
    "name_en": "Kouno Shrine",
    "lat": 35.2278529,
    "lng": 134.228473,
    "category": "shrine",
    "prefecture": "tottori",
    "osm_id": 4524449941,
    "spot_type": "data_spot",
    "data_source": "osm"
  },
  {
    "name": "成田山 青龍寺",
    "name_en": "",
    "lat": 35.4224336,
    "lng": 134.2527406,
    "category": "temple",
    "prefecture": "tottori",
    "osm_id": 4529068808,
    "spot_type": "data_spot",
    "data_source": "osm"
  },
  {
    "name": "隼神社",
    "name_en": "",
    "lat": 35.3864865,
    "lng": 134.2664357,
    "category": "shrine",
    "prefecture": "tottori",
    "osm_id": 4536759515,
    "spot_type": "data_spot",
    "data_source": "osm"
  },
  {
    "name": "名称不明",
    "name_en": "",
    "lat": 35.388758,
    "lng": 134.2662184,
    "category": "temple",
    "prefecture": "tottori",
    "osm_id": 4537163991,
    "spot_type": "data_spot",
    "data_source": "osm"
  },
  {
    "name": "賀茂神社",
    "name_en": "",
    "lat": 35.4140943,
    "lng": 134.2619849,
    "category": "shrine",
    "prefecture": "tottori",
    "osm_id": 4545985407,
    "spot_type": "data_spot",
    "data_source": "osm"
  },
  {
    "name": "不遠山 西橋寺",
    "name_en": "",
    "lat": 35.3933452,
    "lng": 134.2489914,
    "category": "temple",
    "prefecture": "tottori",
    "osm_id": 4549460395,
    "spot_type": "data_spot",
    "data_source": "osm"
  },
  {
    "name": "名称不明",
    "name_en": "",
    "lat": 35.413237,
    "lng": 134.3275885,
    "category": "shrine",
    "prefecture": "tottori",
    "osm_id": 4552808052,
    "spot_type": "data_spot",
    "data_source": "osm"
  },
  {
    "name": "名称不明",
    "name_en": "",
    "lat": 35.4077642,
    "lng": 134.3290297,
    "category": "shrine",
    "prefecture": "tottori",
    "osm_id": 4552808053,
    "spot_type": "data_spot",
    "data_source": "osm"
  },
  {
    "name": "名称不明",
    "name_en": "",
    "lat": 35.4031918,
    "lng": 134.3444602,
    "category": "shrine",
    "prefecture": "tottori",
    "osm_id": 4552808054,
    "spot_type": "data_spot",
    "data_source": "osm"
  },
  {
    "name": "名称不明",
    "name_en": "",
    "lat": 35.399166,
    "lng": 134.3480371,
    "category": "shrine",
    "prefecture": "tottori",
    "osm_id": 4552808055,
    "spot_type": "data_spot",
    "data_source": "osm"
  },
  {
    "name": "名称不明",
    "name_en": "",
    "lat": 35.4066968,
    "lng": 134.3628131,
    "category": "shrine",
    "prefecture": "tottori",
    "osm_id": 4552808056,
    "spot_type": "data_spot",
    "data_source": "osm"
  },
  {
    "name": "名称不明",
    "name_en": "",
    "lat": 35.4159865,
    "lng": 134.3151566,
    "category": "shrine",
    "prefecture": "tottori",
    "osm_id": 4552808057,
    "spot_type": "data_spot",
    "data_source": "osm"
  },
  {
    "name": "名称不明",
    "name_en": "",
    "lat": 35.4164192,
    "lng": 134.3077328,
    "category": "shrine",
    "prefecture": "tottori",
    "osm_id": 4552808059,
    "spot_type": "data_spot",
    "data_source": "osm"
  },
  {
    "name": "名称不明",
    "name_en": "",
    "lat": 35.4315353,
    "lng": 134.30027,
    "category": "shrine",
    "prefecture": "tottori",
    "osm_id": 4552808060,
    "spot_type": "data_spot",
    "data_source": "osm"
  },
  {
    "name": "名称不明",
    "name_en": "",
    "lat": 35.4271305,
    "lng": 134.2946692,
    "category": "shrine",
    "prefecture": "tottori",
    "osm_id": 4552808061,
    "spot_type": "data_spot",
    "data_source": "osm"
  },
  {
    "name": "名称不明",
    "name_en": "",
    "lat": 35.4292075,
    "lng": 134.2874255,
    "category": "shrine",
    "prefecture": "tottori",
    "osm_id": 4552808062,
    "spot_type": "data_spot",
    "data_source": "osm"
  },
  {
    "name": "名称不明",
    "name_en": "",
    "lat": 35.4362653,
    "lng": 134.2883332,
    "category": "shrine",
    "prefecture": "tottori",
    "osm_id": 4552808063,
    "spot_type": "data_spot",
    "data_source": "osm"
  },
  {
    "name": "金剛山 清徳寺",
    "name_en": "",
    "lat": 35.3383495,
    "lng": 134.3431273,
    "category": "temple",
    "prefecture": "tottori",
    "osm_id": 4554337262,
    "spot_type": "data_spot",
    "data_source": "osm"
  },
  {
    "name": "和多理神社",
    "name_en": "",
    "lat": 35.390589,
    "lng": 134.2817505,
    "category": "shrine",
    "prefecture": "tottori",
    "osm_id": 4560357602,
    "spot_type": "data_spot",
    "data_source": "osm"
  },
  {
    "name": "名称不明",
    "name_en": "",
    "lat": 35.3864775,
    "lng": 134.2745935,
    "category": "temple",
    "prefecture": "tottori",
    "osm_id": 4565266488,
    "spot_type": "data_spot",
    "data_source": "osm"
  },
  {
    "name": "丸瀬山霊場",
    "name_en": "",
    "lat": 35.3698884,
    "lng": 134.2627938,
    "category": "temple",
    "prefecture": "tottori",
    "osm_id": 4567329776,
    "spot_type": "data_spot",
    "data_source": "osm"
  },
  {
    "name": "名称不明",
    "name_en": "",
    "lat": 35.3692265,
    "lng": 134.2720624,
    "category": "shrine",
    "prefecture": "tottori",
    "osm_id": 4567329783,
    "spot_type": "data_spot",
    "data_source": "osm"
  },
  {
    "name": "萬照山 多宝寺",
    "name_en": "",
    "lat": 35.3742498,
    "lng": 134.2471965,
    "category": "temple",
    "prefecture": "tottori",
    "osm_id": 4568048876,
    "spot_type": "data_spot",
    "data_source": "osm"
  },
  {
    "name": "名称不明",
    "name_en": "",
    "lat": 35.3829495,
    "lng": 134.2443853,
    "category": "temple",
    "prefecture": "tottori",
    "osm_id": 4569382542,
    "spot_type": "data_spot",
    "data_source": "osm"
  },
  {
    "name": "赤倉神社",
    "name_en": "",
    "lat": 35.3296424,
    "lng": 134.2838735,
    "category": "shrine",
    "prefecture": "tottori",
    "osm_id": 4569766895,
    "spot_type": "data_spot",
    "data_source": "osm"
  },
  {
    "name": "虎石山 能引寺",
    "name_en": "",
    "lat": 35.3313583,
    "lng": 134.2726298,
    "category": "temple",
    "prefecture": "tottori",
    "osm_id": 4569769879,
    "spot_type": "data_spot",
    "data_source": "osm"
  },
  {
    "name": "名称不明",
    "name_en": "",
    "lat": 35.3749616,
    "lng": 134.2839083,
    "category": "shrine",
    "prefecture": "tottori",
    "osm_id": 4573005579,
    "spot_type": "data_spot",
    "data_source": "osm"
  },
  {
    "name": "名称不明",
    "name_en": "",
    "lat": 35.3719154,
    "lng": 134.301255,
    "category": "shrine",
    "prefecture": "tottori",
    "osm_id": 4574381379,
    "spot_type": "data_spot",
    "data_source": "osm"
  },
  {
    "name": "名称不明",
    "name_en": "",
    "lat": 35.3787085,
    "lng": 134.308198,
    "category": "shrine",
    "prefecture": "tottori",
    "osm_id": 4574427438,
    "spot_type": "data_spot",
    "data_source": "osm"
  },
  {
    "name": "名称不明",
    "name_en": "",
    "lat": 35.3681449,
    "lng": 134.3075531,
    "category": "shrine",
    "prefecture": "tottori",
    "osm_id": 4576497322,
    "spot_type": "data_spot",
    "data_source": "osm"
  },
  {
    "name": "白山神社",
    "name_en": "",
    "lat": 35.3683764,
    "lng": 134.3393701,
    "category": "shrine",
    "prefecture": "tottori",
    "osm_id": 4580887295,
    "spot_type": "data_spot",
    "data_source": "osm"
  },
  {
    "name": "名称不明",
    "name_en": "",
    "lat": 35.3697753,
    "lng": 134.3349057,
    "category": "temple",
    "prefecture": "tottori",
    "osm_id": 4580887296,
    "spot_type": "data_spot",
    "data_source": "osm"
  },
  {
    "name": "雲龍山 長源寺",
    "name_en": "",
    "lat": 35.3574398,
    "lng": 134.3239656,
    "category": "temple",
    "prefecture": "tottori",
    "osm_id": 4581106964,
    "spot_type": "data_spot",
    "data_source": "osm"
  },
  {
    "name": "名称不明",
    "name_en": "",
    "lat": 35.3537009,
    "lng": 134.3279577,
    "category": "shrine",
    "prefecture": "tottori",
    "osm_id": 4582185134,
    "spot_type": "data_spot",
    "data_source": "osm"
  },
  {
    "name": "名称不明",
    "name_en": "",
    "lat": 35.3630351,
    "lng": 134.3209557,
    "category": "shrine",
    "prefecture": "tottori",
    "osm_id": 4582595380,
    "spot_type": "data_spot",
    "data_source": "osm"
  },
  {
    "name": "鍛冶屋温泉 久遠の湯",
    "name_en": "",
    "lat": 35.3590266,
    "lng": 134.3277305,
    "category": "onsen",
    "prefecture": "tottori",
    "osm_id": 4583459696,
    "spot_type": "data_spot",
    "data_source": "osm"
  },
  {
    "name": "名称不明",
    "name_en": "",
    "lat": 35.3665761,
    "lng": 134.3544529,
    "category": "shrine",
    "prefecture": "tottori",
    "osm_id": 4586685190,
    "spot_type": "data_spot",
    "data_source": "osm"
  },
  {
    "name": "名称不明",
    "name_en": "",
    "lat": 35.3633571,
    "lng": 134.3617462,
    "category": "shrine",
    "prefecture": "tottori",
    "osm_id": 4586685191,
    "spot_type": "data_spot",
    "data_source": "osm"
  },
  {
    "name": "日野田神社",
    "name_en": "",
    "lat": 35.352589,
    "lng": 134.3534113,
    "category": "shrine",
    "prefecture": "tottori",
    "osm_id": 4586685192,
    "spot_type": "data_spot",
    "data_source": "osm"
  },
  {
    "name": "愛宕神社",
    "name_en": "",
    "lat": 35.1758181,
    "lng": 133.5681613,
    "category": "shrine",
    "prefecture": "tottori",
    "osm_id": 4663300535,
    "spot_type": "data_spot",
    "data_source": "osm"
  },
  {
    "name": "名称不明",
    "name_en": "",
    "lat": 35.178006,
    "lng": 133.5672163,
    "category": "temple",
    "prefecture": "tottori",
    "osm_id": 4785459315,
    "spot_type": "data_spot",
    "data_source": "osm"
  },
  {
    "name": "名称不明",
    "name_en": "",
    "lat": 35.1822394,
    "lng": 133.5685179,
    "category": "temple",
    "prefecture": "tottori",
    "osm_id": 4787498925,
    "spot_type": "data_spot",
    "data_source": "osm"
  },
  {
    "name": "名称不明",
    "name_en": "",
    "lat": 35.1850701,
    "lng": 133.5665381,
    "category": "shrine",
    "prefecture": "tottori",
    "osm_id": 4787498926,
    "spot_type": "data_spot",
    "data_source": "osm"
  },
  {
    "name": "名称不明",
    "name_en": "",
    "lat": 35.1780349,
    "lng": 133.5617774,
    "category": "shrine",
    "prefecture": "tottori",
    "osm_id": 4789314205,
    "spot_type": "data_spot",
    "data_source": "osm"
  },
  {
    "name": "鳥取民藝美術館",
    "name_en": "Tottori Folk Crafts Museum",
    "lat": 35.4961166,
    "lng": 134.22716,
    "category": "museum",
    "prefecture": "tottori",
    "osm_id": 4839361821,
    "spot_type": "data_spot",
    "data_source": "osm"
  },
  {
    "name": "富中山 法泉寺",
    "name_en": "",
    "lat": 35.4954997,
    "lng": 134.2404232,
    "category": "temple",
    "prefecture": "tottori",
    "osm_id": 4839361822,
    "spot_type": "data_spot",
    "data_source": "osm"
  },
  {
    "name": "鳥取大神宮",
    "name_en": "",
    "lat": 35.5050156,
    "lng": 134.2319909,
    "category": "shrine",
    "prefecture": "tottori",
    "osm_id": 4839362221,
    "spot_type": "data_spot",
    "data_source": "osm"
  },
  {
    "name": "名称不明",
    "name_en": "",
    "lat": 35.1923588,
    "lng": 133.5694545,
    "category": "shrine",
    "prefecture": "tottori",
    "osm_id": 4860938367,
    "spot_type": "data_spot",
    "data_source": "osm"
  },
  {
    "name": "真賀温泉館",
    "name_en": "",
    "lat": 35.1381237,
    "lng": 133.7156467,
    "category": "onsen",
    "prefecture": "tottori",
    "osm_id": 4941416721,
    "spot_type": "data_spot",
    "data_source": "osm"
  },
  {
    "name": "本堂",
    "name_en": "",
    "lat": 35.3910722,
    "lng": 133.5348568,
    "category": "temple",
    "prefecture": "tottori",
    "osm_id": 5195055156,
    "spot_type": "data_spot",
    "data_source": "osm"
  },
  {
    "name": "阿弥陀堂",
    "name_en": "",
    "lat": 35.3887202,
    "lng": 133.5308796,
    "category": "temple",
    "prefecture": "tottori",
    "osm_id": 5195055157,
    "spot_type": "data_spot",
    "data_source": "osm"
  },
  {
    "name": "宇都野神社",
    "name_en": "",
    "lat": 35.6191164,
    "lng": 134.4449437,
    "category": "shrine",
    "prefecture": "tottori",
    "osm_id": 5260775174,
    "spot_type": "data_spot",
    "data_source": "osm"
  },
  {
    "name": "高良神社",
    "name_en": "",
    "lat": 35.0703327,
    "lng": 134.0627366,
    "category": "shrine",
    "prefecture": "tottori",
    "osm_id": 5269020477,
    "spot_type": "data_spot",
    "data_source": "osm"
  },
  {
    "name": "山王宮",
    "name_en": "",
    "lat": 35.4573215,
    "lng": 134.2544424,
    "category": "shrine",
    "prefecture": "tottori",
    "osm_id": 5344981322,
    "spot_type": "data_spot",
    "data_source": "osm"
  },
  {
    "name": "生山弁天社",
    "name_en": "",
    "lat": 35.441652,
    "lng": 134.2663367,
    "category": "shrine",
    "prefecture": "tottori",
    "osm_id": 5360878358,
    "spot_type": "data_spot",
    "data_source": "osm"
  },
  {
    "name": "志戸部八幡神社",
    "name_en": "",
    "lat": 35.0779019,
    "lng": 134.0161711,
    "category": "shrine",
    "prefecture": "tottori",
    "osm_id": 5486081485,
    "spot_type": "data_spot",
    "data_source": "osm"
  },
  {
    "name": "名称不明",
    "name_en": "",
    "lat": 35.6152528,
    "lng": 134.3851959,
    "category": "lighthouse",
    "prefecture": "tottori",
    "osm_id": 5528684806,
    "spot_type": "data_spot",
    "data_source": "osm"
  },
  {
    "name": "徳雲寺",
    "name_en": "",
    "lat": 35.16863,
    "lng": 133.3216011,
    "category": "temple",
    "prefecture": "tottori",
    "osm_id": 5552626510,
    "spot_type": "data_spot",
    "data_source": "osm"
  },
  {
    "name": "霞神社",
    "name_en": "",
    "lat": 35.1569235,
    "lng": 133.3065829,
    "category": "shrine",
    "prefecture": "tottori",
    "osm_id": 5554605377,
    "spot_type": "data_spot",
    "data_source": "osm"
  },
  {
    "name": "丸山神社",
    "name_en": "",
    "lat": 35.1577605,
    "lng": 133.286538,
    "category": "shrine",
    "prefecture": "tottori",
    "osm_id": 5554605884,
    "spot_type": "data_spot",
    "data_source": "osm"
  },
  {
    "name": "日韓友好資料館",
    "name_en": "",
    "lat": 35.5066552,
    "lng": 133.6635975,
    "category": "museum",
    "prefecture": "tottori",
    "osm_id": 5559642608,
    "spot_type": "data_spot",
    "data_source": "osm"
  },
  {
    "name": "三角山神社",
    "name_en": "",
    "lat": 35.3380301,
    "lng": 134.2190369,
    "category": "shrine",
    "prefecture": "tottori",
    "osm_id": 5564608960,
    "spot_type": "data_spot",
    "data_source": "osm"
  },
  {
    "name": "多賀神社",
    "name_en": "",
    "lat": 35.4388266,
    "lng": 134.2160601,
    "category": "shrine",
    "prefecture": "tottori",
    "osm_id": 5586235287,
    "spot_type": "data_spot",
    "data_source": "osm"
  },
  {
    "name": "真幡木神社",
    "name_en": "",
    "lat": 35.4374577,
    "lng": 134.2144048,
    "category": "shrine",
    "prefecture": "tottori",
    "osm_id": 5586240722,
    "spot_type": "data_spot",
    "data_source": "osm"
  },
  {
    "name": "観音堂",
    "name_en": "",
    "lat": 35.4372377,
    "lng": 134.2140893,
    "category": "temple",
    "prefecture": "tottori",
    "osm_id": 5586258732,
    "spot_type": "data_spot",
    "data_source": "osm"
  },
  {
    "name": "釜口神社",
    "name_en": "",
    "lat": 35.3792327,
    "lng": 134.216226,
    "category": "shrine",
    "prefecture": "tottori",
    "osm_id": 5600337373,
    "spot_type": "data_spot",
    "data_source": "osm"
  },
  {
    "name": "柏山 善南寺",
    "name_en": "",
    "lat": 35.3800121,
    "lng": 134.2156481,
    "category": "temple",
    "prefecture": "tottori",
    "osm_id": 5600337374,
    "spot_type": "data_spot",
    "data_source": "osm"
  },
  {
    "name": "寶珠山 隣海院",
    "name_en": "",
    "lat": 35.6009588,
    "lng": 134.3677495,
    "category": "temple",
    "prefecture": "tottori",
    "osm_id": 5617848654,
    "spot_type": "data_spot",
    "data_source": "osm"
  },
  {
    "name": "小羽尾神社",
    "name_en": "",
    "lat": 35.5980932,
    "lng": 134.3483907,
    "category": "shrine",
    "prefecture": "tottori",
    "osm_id": 5619286544,
    "spot_type": "data_spot",
    "data_source": "osm"
  },
  {
    "name": "金峯神社",
    "name_en": "",
    "lat": 35.5788777,
    "lng": 134.3599924,
    "category": "shrine",
    "prefecture": "tottori",
    "osm_id": 5619286547,
    "spot_type": "data_spot",
    "data_source": "osm"
  },
  {
    "name": "名称不明",
    "name_en": "",
    "lat": 35.5757382,
    "lng": 134.3305078,
    "category": "shrine",
    "prefecture": "tottori",
    "osm_id": 5619286589,
    "spot_type": "data_spot",
    "data_source": "osm"
  },
  {
    "name": "瑞泉山 吉祥院",
    "name_en": "",
    "lat": 35.5861964,
    "lng": 134.3247877,
    "category": "temple",
    "prefecture": "tottori",
    "osm_id": 5619289327,
    "spot_type": "data_spot",
    "data_source": "osm"
  },
  {
    "name": "誓正山 定善寺",
    "name_en": "",
    "lat": 35.5848219,
    "lng": 134.3280268,
    "category": "temple",
    "prefecture": "tottori",
    "osm_id": 5619289328,
    "spot_type": "data_spot",
    "data_source": "osm"
  },
  {
    "name": "名称不明",
    "name_en": "",
    "lat": 35.5879886,
    "lng": 134.3230723,
    "category": "shrine",
    "prefecture": "tottori",
    "osm_id": 5619289329,
    "spot_type": "data_spot",
    "data_source": "osm"
  },
  {
    "name": "龍華山 妙法華経寺",
    "name_en": "",
    "lat": 35.5885648,
    "lng": 134.3201951,
    "category": "temple",
    "prefecture": "tottori",
    "osm_id": 5619289330,
    "spot_type": "data_spot",
    "data_source": "osm"
  },
  {
    "name": "名称不明",
    "name_en": "",
    "lat": 35.5881873,
    "lng": 134.3361447,
    "category": "shrine",
    "prefecture": "tottori",
    "osm_id": 5619289331,
    "spot_type": "data_spot",
    "data_source": "osm"
  },
  {
    "name": "名称不明",
    "name_en": "",
    "lat": 35.5536399,
    "lng": 134.360684,
    "category": "shrine",
    "prefecture": "tottori",
    "osm_id": 5619724532,
    "spot_type": "data_spot",
    "data_source": "osm"
  },
  {
    "name": "高性山 仙龍寺",
    "name_en": "",
    "lat": 35.5853135,
    "lng": 134.3248157,
    "category": "temple",
    "prefecture": "tottori",
    "osm_id": 5620169001,
    "spot_type": "data_spot",
    "data_source": "osm"
  },
  {
    "name": "海福山 龍岩寺",
    "name_en": "",
    "lat": 35.5721008,
    "lng": 134.2896935,
    "category": "temple",
    "prefecture": "tottori",
    "osm_id": 5620169002,
    "spot_type": "data_spot",
    "data_source": "osm"
  },
  {
    "name": "古海山 観照院 網代寺",
    "name_en": "",
    "lat": 35.58024,
    "lng": 134.3065872,
    "category": "temple",
    "prefecture": "tottori",
    "osm_id": 5620177698,
    "spot_type": "data_spot",
    "data_source": "osm"
  },