[
  {
    "name": "富士山",
    "name_en": "Mt Fuji",
    "lat": 35.4835487,
    "lng": 138.7954457,
    "category": "station",
    "prefecture": "yamanashi",
    "osm_id": 243818949,
    "spot_type": "data_spot",
    "data_source": "osm"
  },
  {
    "name": "梁川",
    "name_en": "Yanagawa",
    "lat": 35.606018,
    "lng": 139.0376821,
    "category": "station",
    "prefecture": "yamanashi",
    "osm_id": 243887757,
    "spot_type": "data_spot",
    "data_source": "osm"
  },
  {
    "name": "猿橋",
    "name_en": "Saruhashi",
    "lat": 35.6128739,
    "lng": 138.9680239,
    "category": "station",
    "prefecture": "yamanashi",
    "osm_id": 243887820,
    "spot_type": "data_spot",
    "data_source": "osm"
  },
  {
    "name": "和田河原",
    "name_en": "Wadagahara",
    "lat": 35.3158517,
    "lng": 139.1180895,
    "category": "station",
    "prefecture": "yamanashi",
    "osm_id": 264199894,
    "spot_type": "data_spot",
    "data_source": "osm"
  },
  {
    "name": "富士フイルム前",
    "name_en": "Fujifilm-mae",
    "lat": 35.3176549,
    "lng": 139.1088944,
    "category": "station",
    "prefecture": "yamanashi",
    "osm_id": 264199904,
    "spot_type": "data_spot",
    "data_source": "osm"
  },
  {
    "name": "塚原",
    "name_en": "Tsukahara",
    "lat": 35.3017259,
    "lng": 139.1263317,
    "category": "station",
    "prefecture": "yamanashi",
    "osm_id": 264199946,
    "spot_type": "data_spot",
    "data_source": "osm"
  },
  {
    "name": "大雄山",
    "name_en": "Daiyuzan",
    "lat": 35.3191857,
    "lng": 139.1031699,
    "category": "station",
    "prefecture": "yamanashi",
    "osm_id": 264199994,
    "spot_type": "data_spot",
    "data_source": "osm"
  },
  {
    "name": "岩原",
    "name_en": "Iwahara",
    "lat": 35.2991273,
    "lng": 139.1284897,
    "category": "station",
    "prefecture": "yamanashi",
    "osm_id": 264199996,
    "spot_type": "data_spot",
    "data_source": "osm"
  },
  {
    "name": "宮ノ下",
    "name_en": "Miyanoshita",
    "lat": 35.2421498,
    "lng": 139.0628686,
    "category": "station",
    "prefecture": "yamanashi",
    "osm_id": 264202768,
    "spot_type": "data_spot",
    "data_source": "osm"
  },
  {
    "name": "中強羅",
    "name_en": "Naka Gōra",
    "lat": 35.2481695,
    "lng": 139.0406145,
    "category": "station",
    "prefecture": "yamanashi",
    "osm_id": 264205533,
    "spot_type": "data_spot",
    "data_source": "osm"
  },
  {
    "name": "公園下",
    "name_en": "Koen-Shimo",
    "lat": 35.2499558,
    "lng": 139.0457134,
    "category": "station",
    "prefecture": "yamanashi",
    "osm_id": 264205538,
    "spot_type": "data_spot",
    "data_source": "osm"
  },
  {
    "name": "早雲山",
    "name_en": "Sōunzan",
    "lat": 35.246524,
    "lng": 139.0359155,
    "category": "station",
    "prefecture": "yamanashi",
    "osm_id": 264205547,
    "spot_type": "data_spot",
    "data_source": "osm"
  },
  {
    "name": "上強羅",
    "name_en": "Kami-Gora",
    "lat": 35.2473203,
    "lng": 139.0381966,
    "category": "station",
    "prefecture": "yamanashi",
    "osm_id": 264205549,
    "spot_type": "data_spot",
    "data_source": "osm"
  },
  {
    "name": "岩波",
    "name_en": "Iwanami",
    "lat": 35.2153522,
    "lng": 138.919285,
    "category": "station",
    "prefecture": "yamanashi",
    "osm_id": 264207212,
    "spot_type": "data_spot",
    "data_source": "osm"
  },
  {
    "name": "甲斐大泉",
    "name_en": "Kai-Oizumi",
    "lat": 35.8962348,
    "lng": 138.4094028,
    "category": "station",
    "prefecture": "yamanashi",
    "osm_id": 264806317,
    "spot_type": "data_spot",
    "data_source": "osm"
  },
  {
    "name": "甲斐小泉",
    "name_en": "Kai-Koizumi",
    "lat": 35.8795415,
    "lng": 138.3595942,
    "category": "station",
    "prefecture": "yamanashi",
    "osm_id": 264808478,
    "spot_type": "data_spot",
    "data_source": "osm"
  },
  {
    "name": "小淵沢",
    "name_en": "Kobuchizawa",
    "lat": 35.8639177,
    "lng": 138.3159619,
    "category": "station",
    "prefecture": "yamanashi",
    "osm_id": 264817302,
    "spot_type": "data_spot",
    "data_source": "osm"
  },
  {
    "name": "竜王",
    "name_en": "Ryuo",
    "lat": 35.6688016,
    "lng": 138.5195034,
    "category": "station",
    "prefecture": "yamanashi",
    "osm_id": 264818386,
    "spot_type": "data_spot",
    "data_source": "osm"
  },
  {
    "name": "塩崎",
    "name_en": "Shiozaki",
    "lat": 35.6878479,
    "lng": 138.4874941,
    "category": "station",
    "prefecture": "yamanashi",
    "osm_id": 264818395,
    "spot_type": "data_spot",
    "data_source": "osm"
  },
  {
    "name": "新府",
    "name_en": "Shimpu",
    "lat": 35.7371514,
    "lng": 138.4332556,
    "category": "station",
    "prefecture": "yamanashi",
    "osm_id": 264818413,
    "spot_type": "data_spot",
    "data_source": "osm"
  },
  {
    "name": "長坂",
    "name_en": "Nagasaka",
    "lat": 35.8275272,
    "lng": 138.3667944,
    "category": "station",
    "prefecture": "yamanashi",
    "osm_id": 264818853,
    "spot_type": "data_spot",
    "data_source": "osm"
  },
  {
    "name": "笹子",
    "name_en": "Sasago",
    "lat": 35.6039397,
    "lng": 138.8253537,
    "category": "station",
    "prefecture": "yamanashi",
    "osm_id": 264820798,
    "spot_type": "data_spot",
    "data_source": "osm"
  },
  {
    "name": "甲斐上野",
    "name_en": "Kai-Ueno",
    "lat": 35.5697368,
    "lng": 138.5202408,
    "category": "station",
    "prefecture": "yamanashi",
    "osm_id": 265832025,
    "spot_type": "data_spot",
    "data_source": "osm"
  },
  {
    "name": "井川展示館",
    "name_en": "",
    "lat": 35.2115409,
    "lng": 138.2225107,
    "category": "museum",
    "prefecture": "yamanashi",
    "osm_id": 839992072,
    "spot_type": "data_spot",
    "data_source": "osm"
  },
  {
    "name": "河口湖自動車博物館 飛行舘",
    "name_en": "",
    "lat": 35.4536743,
    "lng": 138.7410533,
    "category": "museum",
    "prefecture": "yamanashi",
    "osm_id": 859539373,
    "spot_type": "data_spot",
    "data_source": "osm"
  },
  {
    "name": "河口湖自動車博物館 自動車館",
    "name_en": "",
    "lat": 35.4532723,
    "lng": 138.7415146,
    "category": "museum",
    "prefecture": "yamanashi",
    "osm_id": 859540078,
    "spot_type": "data_spot",
    "data_source": "osm"
  },
  {
    "name": "富士山本宮浅間大社奥宮",
    "name_en": "Fujisan Hongu Sengentaisha Okunomiya",
    "lat": 35.3596643,
    "lng": 138.7312117,
    "category": "shrine",
    "prefecture": "yamanashi",
    "osm_id": 888327868,
    "spot_type": "data_spot",
    "data_source": "osm"
  },
  {
    "name": "保雲寺",
    "name_en": "",
    "lat": 35.6673853,
    "lng": 138.6412433,
    "category": "temple",
    "prefecture": "yamanashi",
    "osm_id": 967978091,
    "spot_type": "data_spot",
    "data_source": "osm"
  },
  {
    "name": "名称不明",
    "name_en": "",
    "lat": 35.5000143,
    "lng": 138.5006788,
    "category": "shrine",
    "prefecture": "yamanashi",
    "osm_id": 1078806959,
    "spot_type": "data_spot",
    "data_source": "osm"
  },
  {
    "name": "富士御室浅間神社",
    "name_en": "",
    "lat": 35.5105434,
    "lng": 138.7460046,
    "category": "shrine",
    "prefecture": "yamanashi",
    "osm_id": 1139099874,
    "spot_type": "data_spot",
    "data_source": "osm"
  },
  {
    "name": "妙法寺",
    "name_en": "",
    "lat": 35.509699,
    "lng": 138.7509058,
    "category": "temple",
    "prefecture": "yamanashi",
    "osm_id": 1139099964,
    "spot_type": "data_spot",
    "data_source": "osm"
  },
  {
    "name": "名称不明",
    "name_en": "",
    "lat": 35.5030496,
    "lng": 138.7674188,
    "category": "temple",
    "prefecture": "yamanashi",
    "osm_id": 1139100004,
    "spot_type": "data_spot",
    "data_source": "osm"
  },
  {
    "name": "産屋ヶ崎神社",
    "name_en": "Ubuyagasaki Shrine",
    "lat": 35.5128456,
    "lng": 138.7661291,
    "category": "shrine",
    "prefecture": "yamanashi",
    "osm_id": 1215752577,
    "spot_type": "data_spot",
    "data_source": "osm"
  },
  {
    "name": "久円寺",
    "name_en": "",
    "lat": 35.6193491,
    "lng": 138.4737426,
    "category": "temple",
    "prefecture": "yamanashi",
    "osm_id": 1223906932,
    "spot_type": "data_spot",
    "data_source": "osm"
  },
  {
    "name": "資料館",
    "name_en": "",
    "lat": 35.3567622,
    "lng": 138.8624413,
    "category": "museum",
    "prefecture": "yamanashi",
    "osm_id": 1370878571,
    "spot_type": "data_spot",
    "data_source": "osm"
  },
  {
    "name": "須走護国神社",
    "name_en": "",
    "lat": 35.3619142,
    "lng": 138.864473,
    "category": "shrine",
    "prefecture": "yamanashi",
    "osm_id": 1370957636,
    "spot_type": "data_spot",
    "data_source": "osm"
  },
  {
    "name": "南足柄市郷土資料館",
    "name_en": "",
    "lat": 35.310048,
    "lng": 139.075558,
    "category": "museum",
    "prefecture": "yamanashi",
    "osm_id": 1420814983,
    "spot_type": "data_spot",
    "data_source": "osm"
  },
  {
    "name": "大雄山最乗寺尚宝殿",
    "name_en": "",
    "lat": 35.3021832,
    "lng": 139.0762627,
    "category": "museum",
    "prefecture": "yamanashi",
    "osm_id": 1420816676,
    "spot_type": "data_spot",
    "data_source": "osm"
  },
  {
    "name": "山北町立丹沢森林館薬草園",
    "name_en": "",
    "lat": 35.414248,
    "lng": 139.067622,
    "category": "museum",
    "prefecture": "yamanashi",
    "osm_id": 1420817112,
    "spot_type": "data_spot",
    "data_source": "osm"
  },
  {
    "name": "森のふれあい館",
    "name_en": "Forest touch tone Museum",
    "lat": 35.189084,
    "lng": 139.017122,
    "category": "museum",
    "prefecture": "yamanashi",
    "osm_id": 1420823355,
    "spot_type": "data_spot",
    "data_source": "osm"
  },
  {
    "name": "神奈川県丹沢湖ビジターセンター",
    "name_en": "",
    "lat": 35.4162072,
    "lng": 139.0692704,
    "category": "museum",
    "prefecture": "yamanashi",
    "osm_id": 1420830282,
    "spot_type": "data_spot",
    "data_source": "osm"
  },
  {
    "name": "神奈川県立生命の星・地球博物館",
    "name_en": "",
    "lat": 35.2393863,
    "lng": 139.1215819,
    "category": "museum",
    "prefecture": "yamanashi",
    "osm_id": 1420830429,
    "spot_type": "data_spot",
    "data_source": "osm"
  },
  {
    "name": "神奈川県立２１世紀の森",
    "name_en": "",
    "lat": 35.337781,
    "lng": 139.055466,
    "category": "museum",
    "prefecture": "yamanashi",
    "osm_id": 1420830441,
    "spot_type": "data_spot",
    "data_source": "osm"
  },
  {
    "name": "箱根園水族館",
    "name_en": "",
    "lat": 35.2122439,
    "lng": 139.0093068,
    "category": "zoo",
    "prefecture": "yamanashi",
    "osm_id": 1420831376,
    "spot_type": "data_spot",
    "data_source": "osm"
  },
  {
    "name": "箱根武士の里美術館",
    "name_en": "",
    "lat": 35.2677508,
    "lng": 139.00597,
    "category": "museum",
    "prefecture": "yamanashi",
    "osm_id": 1420831445,
    "spot_type": "data_spot",
    "data_source": "osm"
  },
  {
    "name": "箱根町立旧街道資料館",
    "name_en": "Hakone Municipal Old Road Museum",
    "lat": 35.2023825,
    "lng": 139.0493339,
    "category": "museum",
    "prefecture": "yamanashi",
    "osm_id": 1420831578,
    "spot_type": "data_spot",
    "data_source": "osm"
  },
  {
    "name": "箱根町立郷土資料館",
    "name_en": "",
    "lat": 35.2324689,
    "lng": 139.1077112,
    "category": "museum",
    "prefecture": "yamanashi",
    "osm_id": 1420831587,
    "spot_type": "data_spot",
    "data_source": "osm"
  },
  {
    "name": "箱根関所資料館",
    "name_en": "Hakone Sekisho historical museum",
    "lat": 35.1935501,
    "lng": 139.0262697,
    "category": "museum",
    "prefecture": "yamanashi",
    "osm_id": 1420831634,
    "spot_type": "data_spot",
    "data_source": "osm"
  },
  {
    "name": "足柄森林公園丸太の森（自然植物観察園・山野草園・万葉植物苑）",
    "name_en": "",
    "lat": 35.310048,
    "lng": 139.075558,
    "category": "zoo",
    "prefecture": "yamanashi",
    "osm_id": 1420833325,
    "spot_type": "data_spot",
    "data_source": "osm"
  },
  {
    "name": "なかとみ現代工芸美術館",
    "name_en": "",
    "lat": 35.487844,
    "lng": 138.450612,
    "category": "museum",
    "prefecture": "yamanashi",
    "osm_id": 1420922082,
    "spot_type": "data_spot",
    "data_source": "osm"
  },
  {
    "name": "なるさわ富士山博物館",
    "name_en": "",
    "lat": 35.4784935,
    "lng": 138.6931446,
    "category": "museum",
    "prefecture": "yamanashi",
    "osm_id": 1420922130,
    "spot_type": "data_spot",
    "data_source": "osm"
  },
  {
    "name": "やまなし伝統工芸館",
    "name_en": "",
    "lat": 35.641688,
    "lng": 138.629569,
    "category": "museum",
    "prefecture": "yamanashi",
    "osm_id": 1420922245,
    "spot_type": "data_spot",
    "data_source": "osm"
  },
  {
    "name": "サントリーウイスキー博物館",
    "name_en": "Suntory Museum of Whisky",
    "lat": 35.827328,
    "lng": 138.301176,
    "category": "museum",
    "prefecture": "yamanashi",
    "osm_id": 1420922461,
    "spot_type": "data_spot",
    "data_source": "osm"
  },
  {
    "name": "シャトレーゼローマンガラス美術館",
    "name_en": "",
    "lat": 35.687611,
    "lng": 138.490402,
    "category": "museum",
    "prefecture": "yamanashi",
    "osm_id": 1420922479,
    "spot_type": "data_spot",
    "data_source": "osm"
  },
  {
    "name": "フィリア美術館",
    "name_en": "",
    "lat": 35.868991,
    "lng": 138.330682,
    "category": "museum",
    "prefecture": "yamanashi",
    "osm_id": 1420922556,
    "spot_type": "data_spot",
    "data_source": "osm"
  },
  {
    "name": "フジヤマミュージアム",
    "name_en": "",
    "lat": 35.48445,
    "lng": 138.779343,
    "category": "museum",
    "prefecture": "yamanashi",
    "osm_id": 1420922563,
    "spot_type": "data_spot",
    "data_source": "osm"
  },
  {
    "name": "メルシャンワイン資料館",
    "name_en": "Wine Museum",
    "lat": 35.6591913,
    "lng": 138.7235935,
    "category": "museum",
    "prefecture": "yamanashi",
    "osm_id": 1420922592,
    "spot_type": "data_spot",
    "data_source": "osm"
  },
  {
    "name": "上野原市民俗資料館",
    "name_en": "",
    "lat": 35.567761,
    "lng": 139.073889,
    "category": "museum",
    "prefecture": "yamanashi",
    "osm_id": 1420923614,
    "spot_type": "data_spot",
    "data_source": "osm"
  },
  {
    "name": "中央市豊富郷土資料館",
    "name_en": "",
    "lat": 35.561434,
    "lng": 138.552832,
    "category": "museum",
    "prefecture": "yamanashi",
    "osm_id": 1420924177,
    "spot_type": "data_spot",
    "data_source": "osm"
  },
  {
    "name": "信玄公宝物館",
    "name_en": "",
    "lat": 35.7294079,
    "lng": 138.7143827,
    "category": "museum",
    "prefecture": "yamanashi",
    "osm_id": 1420925275,
    "spot_type": "data_spot",
    "data_source": "osm"
  },
  {
    "name": "八ケ岳泰雲書道美術館",
    "name_en": "",
    "lat": 35.8797348,
    "lng": 138.3577263,
    "category": "museum",
    "prefecture": "yamanashi",
    "osm_id": 1420925577,
    "spot_type": "data_spot",
    "data_source": "osm"
  },
  {
    "name": "写真・絵手紙体験学習館",
    "name_en": "",
    "lat": 35.457379,
    "lng": 138.819615,
    "category": "museum",
    "prefecture": "yamanashi",
    "osm_id": 1420926150,
    "spot_type": "data_spot",
    "data_source": "osm"
  },
  {
    "name": "北杜市小淵沢郷土資料館",
    "name_en": "",
    "lat": 35.8587,
    "lng": 138.317469,
    "category": "museum",
    "prefecture": "yamanashi",
    "osm_id": 1420926778,
    "spot_type": "data_spot",
    "data_source": "osm"
  },
  {
    "name": "北杜市長坂郷土資料館",
    "name_en": "",
    "lat": 35.821523,
    "lng": 138.354859,
    "category": "museum",
    "prefecture": "yamanashi",
    "osm_id": 1420926790,
    "spot_type": "data_spot",
    "data_source": "osm"
  },
  {
    "name": "北杜市須玉歴史資料館",
    "name_en": "",
    "lat": 35.8510516,
    "lng": 138.4444304,
    "category": "museum",
    "prefecture": "yamanashi",
    "osm_id": 1420926792,
    "spot_type": "data_spot",
    "data_source": "osm"
  },
  {
    "name": "南アルプス市立春仙美術館",
    "name_en": "",
    "lat": 35.616968,
    "lng": 138.465363,
    "category": "museum",
    "prefecture": "yamanashi",
    "osm_id": 1420927117,
    "spot_type": "data_spot",
    "data_source": "osm"
  },
  {
    "name": "南アルプス市立白根桃源美術館",
    "name_en": "",
    "lat": 35.641346,
    "lng": 138.46417,
    "category": "museum",
    "prefecture": "yamanashi",
    "osm_id": 1420927148,
    "spot_type": "data_spot",
    "data_source": "osm"
  },
  {
    "name": "嘯月美術館",
    "name_en": "",
    "lat": 35.607636,
    "lng": 138.476973,
    "category": "museum",
    "prefecture": "yamanashi",
    "osm_id": 1420928253,
    "spot_type": "data_spot",
    "data_source": "osm"
  },
  {
    "name": "坂井考古館",
    "name_en": "",
    "lat": 35.727888,
    "lng": 138.43527,
    "category": "museum",
    "prefecture": "yamanashi",
    "osm_id": 1420928506,
    "spot_type": "data_spot",
    "data_source": "osm"
  },
  {
    "name": "富士川町民俗資料館",
    "name_en": "",
    "lat": 35.5637434,
    "lng": 138.4575553,
    "category": "museum",
    "prefecture": "yamanashi",
    "osm_id": 1420928729,
    "spot_type": "data_spot",
    "data_source": "osm"
  },
  {
    "name": "大月市郷土資料館",
    "name_en": "",
    "lat": 35.61463,
    "lng": 138.976882,
    "category": "museum",
    "prefecture": "yamanashi",
    "osm_id": 1420928871,
    "spot_type": "data_spot",
    "data_source": "osm"
  },
  {
    "name": "大泉歴史民俗資料館",
    "name_en": "",
    "lat": 35.860983,
    "lng": 138.388578,
    "category": "museum",
    "prefecture": "yamanashi",
    "osm_id": 1420928935,
    "spot_type": "data_spot",
    "data_source": "osm"
  },
  {
    "name": "富士博物館",
    "name_en": "Fuji Museum",
    "lat": 35.503433,
    "lng": 138.76606,
    "category": "museum",
    "prefecture": "yamanashi",
    "osm_id": 1420929302,
    "spot_type": "data_spot",
    "data_source": "osm"
  },
  {
    "name": "富士吉田市歴史民俗博物館",
    "name_en": "",
    "lat": 35.458077,
    "lng": 138.805113,
    "category": "museum",
    "prefecture": "yamanashi",
    "osm_id": 1420929311,
    "spot_type": "data_spot",
    "data_source": "osm"
  },
  {
    "name": "山梨市立万力動物園",
    "name_en": "",
    "lat": 35.6884956,
    "lng": 138.6799144,
    "category": "zoo",
    "prefecture": "yamanashi",
    "osm_id": 1420930187,
    "spot_type": "data_spot",
    "data_source": "osm"
  },
  {
    "name": "山梨県立博物館",
    "name_en": "",
    "lat": 35.640171,
    "lng": 138.648528,
    "category": "museum",
    "prefecture": "yamanashi",
    "osm_id": 1420930440,
    "spot_type": "data_spot",
    "data_source": "osm"
  },
  {
    "name": "富士ビジターセンター",
    "name_en": "",
    "lat": 35.484348,
    "lng": 138.76499,
    "category": "museum",
    "prefecture": "yamanashi",
    "osm_id": 1420930470,
    "spot_type": "data_spot",
    "data_source": "osm"
  },
  {
    "name": "山梨県立考古博物館",
    "name_en": "",
    "lat": 35.59425,
    "lng": 138.582964,
    "category": "museum",
    "prefecture": "yamanashi",
    "osm_id": 1420930481,
    "spot_type": "data_spot",
    "data_source": "osm"
  },
  {
    "name": "市川三郷町ふるさと会館・文化資料館・民族資料館",
    "name_en": "",
    "lat": 35.5657265,
    "lng": 138.5286694,
    "category": "museum",
    "prefecture": "yamanashi",
    "osm_id": 1420930562,
    "spot_type": "data_spot",
    "data_source": "osm"
  },
  {
    "name": "平山郁夫シルクロード美術館",
    "name_en": "Hirayama Ikuo Silk Road Museum",
    "lat": 35.8792743,
    "lng": 138.3593363,
    "category": "museum",
    "prefecture": "yamanashi",
    "osm_id": 1420931996,
    "spot_type": "data_spot",
    "data_source": "osm"
  },
  {
    "name": "早川町歴史民俗資料館",
    "name_en": "",
    "lat": 35.5773165,
    "lng": 138.301896,
    "category": "museum",
    "prefecture": "yamanashi",
    "osm_id": 1420932134,
    "spot_type": "data_spot",
    "data_source": "osm"
  },
  {
    "name": "早川町郷土資料館",
    "name_en": "",
    "lat": 35.469819,
    "lng": 138.34114,
    "category": "museum",
    "prefecture": "yamanashi",
    "osm_id": 1420932137,
    "spot_type": "data_spot",
    "data_source": "osm"
  },
  {
    "name": "武川民俗資料館",
    "name_en": "",
    "lat": 35.784969,
    "lng": 138.375218,
    "category": "museum",
    "prefecture": "yamanashi",
    "osm_id": 1420932410,
    "spot_type": "data_spot",
    "data_source": "osm"
  },
  {
    "name": "宝物殿",
    "name_en": "",
    "lat": 35.6865683,
    "lng": 138.5778168,
    "category": "museum",
    "prefecture": "yamanashi",
    "osm_id": 1420932412,
    "spot_type": "data_spot",
    "data_source": "osm"
  },
  {
    "name": "清春白樺美術館",
    "name_en": "",
    "lat": 35.822273,
    "lng": 138.353699,
    "category": "museum",
    "prefecture": "yamanashi",
    "osm_id": 1420932688,
    "spot_type": "data_spot",
    "data_source": "osm"
  },
  {
    "name": "甲州市中央公民館歴史民俗資料室",
    "name_en": "",
    "lat": 35.7027585,
    "lng": 138.7206052,
    "category": "museum",
    "prefecture": "yamanashi",
    "osm_id": 1420932806,
    "spot_type": "data_spot",
    "data_source": "osm"
  },
  {
    "name": "甲府市民俗資料館",
    "name_en": "",
    "lat": 35.643919,
    "lng": 138.61301,
    "category": "museum",
    "prefecture": "yamanashi",
    "osm_id": 1420932887,
    "spot_type": "data_spot",
    "data_source": "osm"
  },
  {
    "name": "甲斐黄金村・湯之奥金山博物館",
    "name_en": "Kai Golden Village, Yunooku Kanayama Museum",
    "lat": 35.4238717,
    "lng": 138.4719007,
    "category": "museum",
    "prefecture": "yamanashi",
    "osm_id": 1420933000,
    "spot_type": "data_spot",
    "data_source": "osm"
  },
  {
    "name": "登美の丘ワイナリー資料館",
    "name_en": "",
    "lat": 35.709633,
    "lng": 138.511713,
    "category": "museum",
    "prefecture": "yamanashi",
    "osm_id": 1420933207,
    "spot_type": "data_spot",
    "data_source": "osm"
  },
  {
    "name": "石和写真美術館",
    "name_en": "",
    "lat": 35.658026,
    "lng": 138.657124,
    "category": "museum",
    "prefecture": "yamanashi",
    "osm_id": 1420933379,
    "spot_type": "data_spot",
    "data_source": "osm"
  },
  {
    "name": "笛吹市春日居郷土館",
    "name_en": "",
    "lat": 35.666764,
    "lng": 138.655969,
    "category": "museum",
    "prefecture": "yamanashi",
    "osm_id": 1420934138,
    "spot_type": "data_spot",
    "data_source": "osm"
  },
  {
    "name": "笛吹市青楓美術館",
    "name_en": "",
    "lat": 35.660735,
    "lng": 138.706114,
    "category": "museum",
    "prefecture": "yamanashi",
    "osm_id": 1420934149,
    "spot_type": "data_spot",
    "data_source": "osm"
  },
  {
    "name": "美枝きもの資料館",
    "name_en": "",
    "lat": 35.482345,
    "lng": 138.479863,
    "category": "museum",
    "prefecture": "yamanashi",
    "osm_id": 1420934309,
    "spot_type": "data_spot",
    "data_source": "osm"
  },
  {
    "name": "身延山宝物館",
    "name_en": "",
    "lat": 35.382024,
    "lng": 138.424595,
    "category": "museum",
    "prefecture": "yamanashi",
    "osm_id": 1420934667,
    "spot_type": "data_spot",
    "data_source": "osm"
  },
  {
    "name": "身延町木喰の里微笑館",
    "name_en": "The Village Of The Village of Kiso, Meynobu Town",
    "lat": 35.4706928,
    "lng": 138.5068901,
    "category": "museum",
    "prefecture": "yamanashi",
    "osm_id": 1420934673,
    "spot_type": "data_spot",
    "data_source": "osm"
  },
  {
    "name": "身延町歴史民俗資料館",
    "name_en": "",
    "lat": 35.450803,
    "lng": 138.442672,
    "category": "museum",
    "prefecture": "yamanashi",
    "osm_id": 1420934674,
    "spot_type": "data_spot",
    "data_source": "osm"
  },
  {
    "name": "都留いきものふれあいの里",
    "name_en": "",
    "lat": 35.568193,
    "lng": 138.83353,
    "category": "museum",
    "prefecture": "yamanashi",
    "osm_id": 1420934768,
    "spot_type": "data_spot",
    "data_source": "osm"
  },
  {
    "name": "都留市博物館ミュージアム都留",
    "name_en": "",
    "lat": 35.549761,
    "lng": 138.904934,
    "category": "museum",
    "prefecture": "yamanashi",
    "osm_id": 1420934794,
    "spot_type": "data_spot",
    "data_source": "osm"
  },
  {
    "name": "都留市商家資料館",
    "name_en": "",
    "lat": 35.551025,
    "lng": 138.907828,
    "category": "museum",
    "prefecture": "yamanashi",
    "osm_id": 1420934796,
    "spot_type": "data_spot",
    "data_source": "osm"
  },
  {
    "name": "都留市尾県郷土資料館",
    "name_en": "",
    "lat": 35.5867207,
    "lng": 138.9256243,
    "category": "museum",
    "prefecture": "yamanashi",
    "osm_id": 1420934811,
    "spot_type": "data_spot",
    "data_source": "osm"
  },
  {
    "name": "韮崎市民俗資料館",
    "name_en": "",
    "lat": 35.71937,
    "lng": 138.44353,
    "category": "museum",
    "prefecture": "yamanashi",
    "osm_id": 1420935758,
    "spot_type": "data_spot",
    "data_source": "osm"
  },
  {
    "name": "河口湖オルゴールの森美術館",
    "name_en": "Kawaguchiko Music Forest",
    "lat": 35.522377,
    "lng": 138.768691,
    "category": "museum",
    "prefecture": "yamanashi",
    "osm_id": 1420936032,
    "spot_type": "data_spot",
    "data_source": "osm"
  },
  {
    "name": "奇石博物館",
    "name_en": "",
    "lat": 35.281846,
    "lng": 138.639743,
    "category": "museum",
    "prefecture": "yamanashi",
    "osm_id": 1420981105,
    "spot_type": "data_spot",
    "data_source": "osm"
  },
  {
    "name": "富士市立博物館",
    "name_en": "",
    "lat": 35.185445,
    "lng": 138.6800765,
    "category": "museum",
    "prefecture": "yamanashi",
    "osm_id": 1420981596,
    "spot_type": "data_spot",
    "data_source": "osm"
  },
  {
    "name": "富士自然動物公園富士サファリパーク",
    "name_en": "",
    "lat": 35.259988,
    "lng": 138.810618,
    "category": "zoo",
    "prefecture": "yamanashi",
    "osm_id": 1420981694,
    "spot_type": "data_spot",
    "data_source": "osm"
  },
  {
    "name": "御殿場スポーツカーガーデン",
    "name_en": "",
    "lat": 35.28701,
    "lng": 138.952629,
    "category": "museum",
    "prefecture": "yamanashi",
    "osm_id": 1420988496,
    "spot_type": "data_spot",
    "data_source": "osm"
  },
  {
    "name": "稲荷神社",
    "name_en": "",
    "lat": 35.2627711,
    "lng": 139.002153,
    "category": "shrine",
    "prefecture": "yamanashi",
    "osm_id": 1442567916,
    "spot_type": "data_spot",
    "data_source": "osm"
  },
  {
    "name": "山の神",
    "name_en": "",
    "lat": 35.6325085,
    "lng": 139.0095117,
    "category": "shrine",
    "prefecture": "yamanashi",
    "osm_id": 1738268917,
    "spot_type": "data_spot",
    "data_source": "osm"
  },
  {
    "name": "金比羅神社",
    "name_en": "",
    "lat": 35.6325126,
    "lng": 139.0396432,
    "category": "shrine",
    "prefecture": "yamanashi",
    "osm_id": 1738280227,
    "spot_type": "data_spot",
    "data_source": "osm"
  },
  {
    "name": "富士山レーダードーム館",
    "name_en": "Mount Fuji Radar Dome Museum",
    "lat": 35.4578594,
    "lng": 138.8035184,
    "category": "museum",
    "prefecture": "yamanashi",
    "osm_id": 1797065472,
    "spot_type": "data_spot",
    "data_source": "osm"
  },
  {
    "name": "不動明王",
    "name_en": "",
    "lat": 35.4306061,
    "lng": 138.9047367,
    "category": "shrine",
    "prefecture": "yamanashi",
    "osm_id": 1799565999,
    "spot_type": "data_spot",
    "data_source": "osm"
  },
  {
    "name": "三光寺",
    "name_en": "",
    "lat": 35.677717,
    "lng": 138.747779,
    "category": "temple",
    "prefecture": "yamanashi",
    "osm_id": 1812358718,
    "spot_type": "data_spot",
    "data_source": "osm"
  },
  {
    "name": "石割神社",
    "name_en": "",
    "lat": 35.4486984,
    "lng": 138.902119,
    "category": "shrine",
    "prefecture": "yamanashi",
    "osm_id": 1863871114,
    "spot_type": "data_spot",
    "data_source": "osm"
  },
  {
    "name": "本遠寺",
    "name_en": "",
    "lat": 35.3622681,
    "lng": 138.4457819,
    "category": "temple",
    "prefecture": "yamanashi",
    "osm_id": 1923261787,
    "spot_type": "data_spot",
    "data_source": "osm"
  },
  {
    "name": "冨士御室浅間神社",
    "name_en": "Fuji Omuro Sengen Shrine",
    "lat": 35.4002783,
    "lng": 138.755524,
    "category": "shrine",
    "prefecture": "yamanashi",
    "osm_id": 1964134696,
    "spot_type": "data_spot",
    "data_source": "osm"
  },
  {
    "name": "山中諏訪神社奥宮",
    "name_en": "",
    "lat": 35.4112491,
    "lng": 138.9177457,
    "category": "shrine",
    "prefecture": "yamanashi",
    "osm_id": 2007885626,
    "spot_type": "data_spot",
    "data_source": "osm"
  },
  {
    "name": "かっぱ天国",
    "name_en": "",
    "lat": 35.233489,
    "lng": 139.1033618,
    "category": "onsen",
    "prefecture": "yamanashi",
    "osm_id": 2046570832,
    "spot_type": "data_spot",
    "data_source": "osm"
  },
  {
    "name": "名称不明",
    "name_en": "",
    "lat": 35.6460542,
    "lng": 139.0927236,
    "category": "shrine",
    "prefecture": "yamanashi",
    "osm_id": 2076336219,
    "spot_type": "data_spot",
    "data_source": "osm"
  },
  {
    "name": "西湖コウモリ穴",
    "name_en": "Kunimasu Museum",
    "lat": 35.494172,
    "lng": 138.6717933,
    "category": "museum",
    "prefecture": "yamanashi",
    "osm_id": 2088033602,
    "spot_type": "data_spot",
    "data_source": "osm"
  },
  {
    "name": "無人寺",
    "name_en": "",
    "lat": 35.849083,
    "lng": 138.295783,
    "category": "temple",
    "prefecture": "yamanashi",
    "osm_id": 2146413113,
    "spot_type": "data_spot",
    "data_source": "osm"
  },
  {
    "name": "小山神社",
    "name_en": "",
    "lat": 35.3584008,
    "lng": 138.9977787,
    "category": "shrine",
    "prefecture": "yamanashi",
    "osm_id": 2198938740,
    "spot_type": "data_spot",
    "data_source": "osm"
  },
  {
    "name": "名称不明",
    "name_en": "",
    "lat": 35.3561016,
    "lng": 138.9777748,
    "category": "shrine",
    "prefecture": "yamanashi",
    "osm_id": 2199032455,
    "spot_type": "data_spot",
    "data_source": "osm"
  },
  {
    "name": "産土神社",
    "name_en": "Ubusuna-jinja",
    "lat": 35.7969257,
    "lng": 139.0478287,
    "category": "shrine",
    "prefecture": "yamanashi",
    "osm_id": 2330537304,
    "spot_type": "data_spot",
    "data_source": "osm"
  },
  {
    "name": "名称不明",
    "name_en": "",
    "lat": 35.7489149,
    "lng": 138.5543647,
    "category": "shrine",
    "prefecture": "yamanashi",
    "osm_id": 2331069888,
    "spot_type": "data_spot",
    "data_source": "osm"
  },
  {
    "name": "一石山神社",
    "name_en": "",
    "lat": 35.8522435,
    "lng": 139.0401782,
    "category": "shrine",
    "prefecture": "yamanashi",
    "osm_id": 2337128358,
    "spot_type": "data_spot",
    "data_source": "osm"
  },
  {
    "name": "十三所社 春宮社",
    "name_en": "",
    "lat": 35.6372294,
    "lng": 138.4977799,
    "category": "shrine",
    "prefecture": "yamanashi",
    "osm_id": 2360269935,
    "spot_type": "data_spot",
    "data_source": "osm"
  },
  {
    "name": "名称不明",
    "name_en": "",
    "lat": 35.6702448,
    "lng": 139.1212823,
    "category": "shrine",
    "prefecture": "yamanashi",
    "osm_id": 2418286930,
    "spot_type": "data_spot",
    "data_source": "osm"
  },
  {
    "name": "箱根湯本",
    "name_en": "Hakone-Yumoto",
    "lat": 35.2333709,
    "lng": 139.1036639,
    "category": "station",
    "prefecture": "yamanashi",
    "osm_id": 2440021673,
    "spot_type": "data_spot",
    "data_source": "osm"
  },
  {
    "name": "公園上",
    "name_en": "Koen-Kami",
    "lat": 35.2490792,
    "lng": 139.0432216,
    "category": "station",
    "prefecture": "yamanashi",
    "osm_id": 2440206278,
    "spot_type": "data_spot",
    "data_source": "osm"
  },
  {
    "name": "強羅",
    "name_en": "Gōra",
    "lat": 35.2508461,
    "lng": 139.0482584,
    "category": "station",
    "prefecture": "yamanashi",
    "osm_id": 2440206295,
    "spot_type": "data_spot",
    "data_source": "osm"
  },
  {
    "name": "三輪神社",
    "name_en": "",
    "lat": 35.5189776,
    "lng": 138.9286996,
    "category": "shrine",
    "prefecture": "yamanashi",
    "osm_id": 2441142862,
    "spot_type": "data_spot",
    "data_source": "osm"
  },
  {
    "name": "浅間神社",
    "name_en": "",
    "lat": 35.647769,
    "lng": 138.6974562,
    "category": "shrine",
    "prefecture": "yamanashi",
    "osm_id": 2461655369,
    "spot_type": "data_spot",
    "data_source": "osm"
  },
  {
    "name": "大根山の神",
    "name_en": "",
    "lat": 35.8246521,
    "lng": 139.1232465,
    "category": "shrine",
    "prefecture": "yamanashi",
    "osm_id": 2467225463,
    "spot_type": "data_spot",
    "data_source": "osm"
  },
  {
    "name": "阿字ヶ池弁財天",
    "name_en": "",
    "lat": 35.2222454,
    "lng": 139.0441794,
    "category": "shrine",
    "prefecture": "yamanashi",
    "osm_id": 2474958897,
    "spot_type": "data_spot",
    "data_source": "osm"
  },
  {
    "name": "武田八幡神社",
    "name_en": "",
    "lat": 35.7044309,
    "lng": 138.4200301,
    "category": "shrine",
    "prefecture": "yamanashi",
    "osm_id": 2484958609,
    "spot_type": "data_spot",
    "data_source": "osm"
  },
  {
    "name": "新府城跡",
    "name_en": "",
    "lat": 35.7355996,
    "lng": 138.4253077,
    "category": "castle",
    "prefecture": "yamanashi",
    "osm_id": 2484962810,
    "spot_type": "data_spot",
    "data_source": "osm"
  },
  {
    "name": "北杜市考古資料館",
    "name_en": "",
    "lat": 35.858043,
    "lng": 138.3855523,
    "category": "museum",
    "prefecture": "yamanashi",
    "osm_id": 2484970249,
    "spot_type": "data_spot",
    "data_source": "osm"
  },
  {
    "name": "谷戸城",
    "name_en": "",
    "lat": 35.8565817,
    "lng": 138.3861214,
    "category": "castle",
    "prefecture": "yamanashi",
    "osm_id": 2484970252,
    "spot_type": "data_spot",
    "data_source": "osm"
  },
  {
    "name": "南照院",
    "name_en": "",
    "lat": 35.6344483,
    "lng": 138.6582262,
    "category": "temple",
    "prefecture": "yamanashi",
    "osm_id": 2494753867,
    "spot_type": "data_spot",
    "data_source": "osm"
  },
  {
    "name": "深沢城",
    "name_en": "",
    "lat": 35.3254004,
    "lng": 138.9568077,
    "category": "castle",
    "prefecture": "yamanashi",
    "osm_id": 2497251577,
    "spot_type": "data_spot",
    "data_source": "osm"
  },
  {
    "name": "三条の湯",
    "name_en": "",
    "lat": 35.8352767,
    "lng": 138.9184408,
    "category": "onsen",
    "prefecture": "yamanashi",
    "osm_id": 2520776610,
    "spot_type": "data_spot",
    "data_source": "osm"
  },
  {
    "name": "長安寺",
    "name_en": "Chōan Temple",
    "lat": 35.2734695,
    "lng": 139.0128353,
    "category": "shrine",
    "prefecture": "yamanashi",
    "osm_id": 2525570245,
    "spot_type": "data_spot",
    "data_source": "osm"
  },
  {
    "name": "丸尾組天皇",
    "name_en": "",
    "lat": 35.4309431,
    "lng": 138.8499931,
    "category": "shrine",
    "prefecture": "yamanashi",
    "osm_id": 2577812276,
    "spot_type": "data_spot",
    "data_source": "osm"
  },
  {
    "name": "道祖神",
    "name_en": "",
    "lat": 35.4310012,
    "lng": 138.8500357,
    "category": "shrine",
    "prefecture": "yamanashi",
    "osm_id": 2577812277,
    "spot_type": "data_spot",
    "data_source": "osm"
  },
  {
    "name": "名称不明",
    "name_en": "",
    "lat": 35.434939,
    "lng": 138.848195,
    "category": "shrine",
    "prefecture": "yamanashi",
    "osm_id": 2577817845,
    "spot_type": "data_spot",
    "data_source": "osm"
  },
  {
    "name": "稲荷神社",
    "name_en": "Inari-jinja Shrine",
    "lat": 35.432513,
    "lng": 138.842494,
    "category": "shrine",
    "prefecture": "yamanashi",
    "osm_id": 2577835848,
    "spot_type": "data_spot",
    "data_source": "osm"
  },
  {
    "name": "名称不明",
    "name_en": "",
    "lat": 35.432544,
    "lng": 138.842909,
    "category": "temple",
    "prefecture": "yamanashi",
    "osm_id": 2577838115,
    "spot_type": "data_spot",
    "data_source": "osm"
  },
  {
    "name": "白観音",
    "name_en": "",
    "lat": 35.429394,
    "lng": 138.843885,
    "category": "temple",
    "prefecture": "yamanashi",
    "osm_id": 2577842475,
    "spot_type": "data_spot",
    "data_source": "osm"
  },
  {
    "name": "名称不明",
    "name_en": "",
    "lat": 35.4266431,
    "lng": 138.8479487,
    "category": "shrine",
    "prefecture": "yamanashi",
    "osm_id": 2577852724,
    "spot_type": "data_spot",
    "data_source": "osm"
  },
  {
    "name": "山中諏訪神社本殿",
    "name_en": "",
    "lat": 35.427953,
    "lng": 138.8486366,
    "category": "shrine",
    "prefecture": "yamanashi",
    "osm_id": 2577856161,
    "spot_type": "data_spot",
    "data_source": "osm"
  },
  {
    "name": "馬頭観音",
    "name_en": "",
    "lat": 35.4271102,
    "lng": 138.8470344,
    "category": "temple",
    "prefecture": "yamanashi",
    "osm_id": 2578294805,
    "spot_type": "data_spot",
    "data_source": "osm"
  },
  {
    "name": "長禅寺",
    "name_en": "",
    "lat": 35.6656519,
    "lng": 138.5770916,
    "category": "temple",
    "prefecture": "yamanashi",
    "osm_id": 2619552013,
    "spot_type": "data_spot",
    "data_source": "osm"
  },
  {
    "name": "俳句の館風生庵",
    "name_en": "",
    "lat": 35.4069382,
    "lng": 138.8695472,
    "category": "museum",
    "prefecture": "yamanashi",
    "osm_id": 2623272489,
    "spot_type": "data_spot",
    "data_source": "osm"
  },
  {
    "name": "三島由紀夫文学館",
    "name_en": "",
    "lat": 35.404404,
    "lng": 138.8701454,
    "category": "museum",
    "prefecture": "yamanashi",
    "osm_id": 2623272490,
    "spot_type": "data_spot",
    "data_source": "osm"
  },
  {
    "name": "徳富蘇峰館",
    "name_en": "",
    "lat": 35.4049246,
    "lng": 138.8702077,
    "category": "museum",
    "prefecture": "yamanashi",
    "osm_id": 2623272491,
    "spot_type": "data_spot",
    "data_source": "osm"
  },
  {
    "name": "富向寺",
    "name_en": "",
    "lat": 35.5003074,
    "lng": 138.5011895,
    "category": "temple",
    "prefecture": "yamanashi",
    "osm_id": 2702154990,
    "spot_type": "data_spot",
    "data_source": "osm"
  },
  {
    "name": "甘草屋敷",
    "name_en": "",
    "lat": 35.7063514,
    "lng": 138.7347815,
    "category": "museum",
    "prefecture": "yamanashi",
    "osm_id": 2744225516,
    "spot_type": "data_spot",
    "data_source": "osm"
  },
  {
    "name": "山菅神社",
    "name_en": "",
    "lat": 35.64817,
    "lng": 138.7568697,
    "category": "shrine",
    "prefecture": "yamanashi",
    "osm_id": 2753903560,
    "spot_type": "data_spot",
    "data_source": "osm"
  },
  {
    "name": "上大平台信号場",
    "name_en": "Kami-Ohiradai",
    "lat": 35.2351144,
    "lng": 139.0755008,
    "category": "station",
    "prefecture": "yamanashi",
    "osm_id": 2754278058,
    "spot_type": "data_spot",
    "data_source": "osm"
  },
  {
    "name": "出山信号場",
    "name_en": "Deyama",
    "lat": 35.2324083,
    "lng": 139.0873854,
    "category": "station",
    "prefecture": "yamanashi",
    "osm_id": 2754278066,
    "spot_type": "data_spot",
    "data_source": "osm"
  },
  {
    "name": "名称不明",
    "name_en": "",
    "lat": 35.4467545,
    "lng": 138.5939703,
    "category": "shrine",
    "prefecture": "yamanashi",
    "osm_id": 2803025268,
    "spot_type": "data_spot",
    "data_source": "osm"
  },
  {
    "name": "牛倉神社",
    "name_en": "Ushikura Shrine",
    "lat": 35.6253011,
    "lng": 139.1155738,
    "category": "shrine",
    "prefecture": "yamanashi",
    "osm_id": 2841759167,
    "spot_type": "data_spot",
    "data_source": "osm"
  },
  {
    "name": "外良寺",
    "name_en": "",
    "lat": 35.5782612,
    "lng": 138.3008436,
    "category": "temple",
    "prefecture": "yamanashi",
    "osm_id": 2855280702,
    "spot_type": "data_spot",
    "data_source": "osm"
  },
  {
    "name": "奈良法王神社",
    "name_en": "",
    "lat": 35.5770223,
    "lng": 138.3018609,
    "category": "shrine",
    "prefecture": "yamanashi",
    "osm_id": 2855280703,
    "spot_type": "data_spot",
    "data_source": "osm"
  },
  {
    "name": "諏訪神社",
    "name_en": "",
    "lat": 35.6316872,
    "lng": 139.0649597,
    "category": "shrine",
    "prefecture": "yamanashi",
    "osm_id": 2927573892,
    "spot_type": "data_spot",
    "data_source": "osm"
  },
  {
    "name": "仙人台信号場",
    "name_en": "Sennindai",
    "lat": 35.2382282,
    "lng": 139.0687364,
    "category": "station",
    "prefecture": "yamanashi",
    "osm_id": 2936989929,
    "spot_type": "data_spot",
    "data_source": "osm"
  },
  {
    "name": "氷川神社",
    "name_en": "",
    "lat": 35.650518,
    "lng": 138.7269061,
    "category": "shrine",
    "prefecture": "yamanashi",
    "osm_id": 2962329898,
    "spot_type": "data_spot",
    "data_source": "osm"
  },
  {
    "name": "大善寺",
    "name_en": "",
    "lat": 35.6559111,
    "lng": 138.7431425,
    "category": "temple",
    "prefecture": "yamanashi",
    "osm_id": 2966407993,
    "spot_type": "data_spot",
    "data_source": "osm"
  },
  {
    "name": "行者堂",
    "name_en": "Gyoujado",
    "lat": 35.6569311,
    "lng": 138.7435125,
    "category": "temple",
    "prefecture": "yamanashi",
    "osm_id": 2966407994,
    "spot_type": "data_spot",
    "data_source": "osm"
  },
  {
    "name": "薬師堂",
    "name_en": "",
    "lat": 35.6571927,
    "lng": 138.7429921,
    "category": "temple",
    "prefecture": "yamanashi",
    "osm_id": 2966407995,
    "spot_type": "data_spot",
    "data_source": "osm"
  },
  {
    "name": "大神宮",
    "name_en": "",
    "lat": 35.6482842,
    "lng": 138.7176114,
    "category": "shrine",
    "prefecture": "yamanashi",
    "osm_id": 2966430112,
    "spot_type": "data_spot",
    "data_source": "osm"
  },
  {
    "name": "大宮神社",
    "name_en": "",
    "lat": 35.654286,
    "lng": 138.7121181,
    "category": "shrine",
    "prefecture": "yamanashi",
    "osm_id": 2966443028,
    "spot_type": "data_spot",
    "data_source": "osm"
  },
  {
    "name": "山王神社",
    "name_en": "",
    "lat": 35.5245523,
    "lng": 138.3139264,
    "category": "shrine",
    "prefecture": "yamanashi",
    "osm_id": 3009394899,
    "spot_type": "data_spot",
    "data_source": "osm"
  },
  {
    "name": "蜂城天神社",
    "name_en": "",
    "lat": 35.6363117,
    "lng": 138.7195444,
    "category": "shrine",
    "prefecture": "yamanashi",
    "osm_id": 3054938786,
    "spot_type": "data_spot",
    "data_source": "osm"
  },
  {
    "name": "蓮華寺",
    "name_en": "",
    "lat": 35.6576833,
    "lng": 138.7190327,
    "category": "temple",
    "prefecture": "yamanashi",
    "osm_id": 3060590163,
    "spot_type": "data_spot",
    "data_source": "osm"
  },
  {
    "name": "石和温泉",
    "name_en": "Isawa-Onsen",
    "lat": 35.657604,
    "lng": 138.6353509,
    "category": "station",
    "prefecture": "yamanashi",
    "osm_id": 3064377903,
    "spot_type": "data_spot",
    "data_source": "osm"
  },
  {
    "name": "市立勝沼ぶどうの国文化館",
    "name_en": "",
    "lat": 35.6574056,
    "lng": 138.7215638,
    "category": "museum",
    "prefecture": "yamanashi",
    "osm_id": 3071430924,
    "spot_type": "data_spot",
    "data_source": "osm"
  },
  {
    "name": "専福寺",
    "name_en": "",
    "lat": 35.6596831,
    "lng": 138.7244603,
    "category": "temple",
    "prefecture": "yamanashi",
    "osm_id": 3071436887,
    "spot_type": "data_spot",
    "data_source": "osm"
  },
  {
    "name": "あしゆ",
    "name_en": "foot bath",
    "lat": 35.673506,
    "lng": 138.659353,
    "category": "onsen",
    "prefecture": "yamanashi",
    "osm_id": 3075935490,
    "spot_type": "data_spot",
    "data_source": "osm"
  },
  {
    "name": "駒ケ岳神社",
    "name_en": "",
    "lat": 35.795003,
    "lng": 138.2947196,
    "category": "temple",
    "prefecture": "yamanashi",
    "osm_id": 3076039074,
    "spot_type": "data_spot",
    "data_source": "osm"
  },
  {
    "name": "万葉温泉の足湯",
    "name_en": "foot bath",
    "lat": 35.7045887,
    "lng": 138.6630308,
    "category": "onsen",
    "prefecture": "yamanashi",
    "osm_id": 3077896547,
    "spot_type": "data_spot",
    "data_source": "osm"
  },
  {
    "name": "ほったらかし温泉",
    "name_en": "Hottakarashi Onsen",
    "lat": 35.7062942,
    "lng": 138.6521168,
    "category": "onsen",
    "prefecture": "yamanashi",
    "osm_id": 3078012809,
    "spot_type": "data_spot",
    "data_source": "osm"
  },
  {
    "name": "差出磯大嶽山神社",
    "name_en": "Sashidenoiso Daitakesan Shrine",
    "lat": 35.696913,
    "lng": 138.6845063,
    "category": "shrine",
    "prefecture": "yamanashi",
    "osm_id": 3079313940,
    "spot_type": "data_spot",
    "data_source": "osm"
  },
  {
    "name": "亀甲神社",
    "name_en": "Kikko Shrine",
    "lat": 35.6974101,
    "lng": 138.6849288,
    "category": "shrine",
    "prefecture": "yamanashi",
    "osm_id": 3079313941,
    "spot_type": "data_spot",
    "data_source": "osm"
  },
  {
    "name": "名称不明",
    "name_en": "",
    "lat": 35.7155632,
    "lng": 138.6942625,
    "category": "temple",
    "prefecture": "yamanashi",
    "osm_id": 3079756397,
    "spot_type": "data_spot",
    "data_source": "osm"
  },
  {
    "name": "大井俣窪八幡神社",
    "name_en": "Oimatakubohachiman Shrine",
    "lat": 35.7047379,
    "lng": 138.6900153,
    "category": "shrine",
    "prefecture": "yamanashi",
    "osm_id": 3079805899,
    "spot_type": "data_spot",
    "data_source": "osm"
  },
  {
    "name": "護念寺",
    "name_en": "",
    "lat": 35.6633781,
    "lng": 138.7234749,
    "category": "temple",
    "prefecture": "yamanashi",
    "osm_id": 3103565420,
    "spot_type": "data_spot",
    "data_source": "osm"
  },
  {
    "name": "西山本門寺",
    "name_en": "",
    "lat": 35.2371936,
    "lng": 138.5644815,
    "category": "temple",
    "prefecture": "yamanashi",
    "osm_id": 3123776279,
    "spot_type": "data_spot",
    "data_source": "osm"
  },
  {
    "name": "貴布弥神社",
    "name_en": "",
    "lat": 35.734101,
    "lng": 139.0997641,
    "category": "shrine",
    "prefecture": "yamanashi",
    "osm_id": 3166115360,
    "spot_type": "data_spot",
    "data_source": "osm"
  },
  {
    "name": "春日神社",
    "name_en": "",
    "lat": 35.7413226,
    "lng": 139.0794973,
    "category": "shrine",
    "prefecture": "yamanashi",
    "osm_id": 3166190851,
    "spot_type": "data_spot",
    "data_source": "osm"
  },
  {
    "name": "宝石博物館",
    "name_en": "Yamanashi Gem Museum",
    "lat": 35.5057921,
    "lng": 138.7631208,
    "category": "museum",
    "prefecture": "yamanashi",
    "osm_id": 3176585534,
    "spot_type": "data_spot",
    "data_source": "osm"
  },
  {
    "name": "正眼寺",
    "name_en": "Shogenji Temple",
    "lat": 35.2284832,
    "lng": 139.1001184,
    "category": "temple",
    "prefecture": "yamanashi",
    "osm_id": 3186238404,
    "spot_type": "data_spot",
    "data_source": "osm"
  },
  {
    "name": "鎖雲寺",
    "name_en": "",
    "lat": 35.2204516,
    "lng": 139.0741955,
    "category": "temple",
    "prefecture": "yamanashi",
    "osm_id": 3193210405,
    "spot_type": "data_spot",
    "data_source": "osm"
  },
  {
    "name": "湯之神社",
    "name_en": "",
    "lat": 35.3060435,
    "lng": 138.3371661,
    "category": "shrine",
    "prefecture": "yamanashi",
    "osm_id": 3468598845,
    "spot_type": "data_spot",
    "data_source": "osm"
  },
  {
    "name": "山梨県立リニア見学センター",
    "name_en": "Yamanashi Prefectural Maglev Exhibition Center",
    "lat": 35.5832682,
    "lng": 138.9259169,
    "category": "museum",
    "prefecture": "yamanashi",
    "osm_id": 3556767567,
    "spot_type": "data_spot",
    "data_source": "osm"
  },
  {
    "name": "村山浅間神社",
    "name_en": "Murayama Sengen Shrine",
    "lat": 35.261217,
    "lng": 138.6661331,
    "category": "shrine",
    "prefecture": "yamanashi",
    "osm_id": 3703070730,
    "spot_type": "data_spot",
    "data_source": "osm"
  },
  {
    "name": "松姫神社",
    "name_en": "",
    "lat": 35.6860183,
    "lng": 138.9657012,
    "category": "shrine",
    "prefecture": "yamanashi",
    "osm_id": 3730357647,
    "spot_type": "data_spot",
    "data_source": "osm"
  },
  {
    "name": "大月",
    "name_en": "Otsuki",
    "lat": 35.6129342,
    "lng": 138.942183,
    "category": "station",
    "prefecture": "yamanashi",
    "osm_id": 3730397974,
    "spot_type": "data_spot",
    "data_source": "osm"
  },
  {
    "name": "大月",
    "name_en": "Otsuki",
    "lat": 35.613318,
    "lng": 138.9424992,
    "category": "station",
    "prefecture": "yamanashi",
    "osm_id": 3730397975,
    "spot_type": "data_spot",
    "data_source": "osm"
  },
  {
    "name": "山梨市",
    "name_en": "Yamanashishi",
    "lat": 35.6849247,
    "lng": 138.6830069,
    "category": "station",
    "prefecture": "yamanashi",
    "osm_id": 3730397976,
    "spot_type": "data_spot",
    "data_source": "osm"
  },
  {
    "name": "大山祇神社",
    "name_en": "",
    "lat": 35.8028375,
    "lng": 139.1055286,
    "category": "shrine",
    "prefecture": "yamanashi",
    "osm_id": 3730414588,
    "spot_type": "data_spot",
    "data_source": "osm"
  },
  {
    "name": "光明寺",
    "name_en": "",
    "lat": 35.6875668,
    "lng": 138.6882254,
    "category": "temple",
    "prefecture": "yamanashi",
    "osm_id": 3914572454,
    "spot_type": "data_spot",
    "data_source": "osm"
  },
  {
    "name": "名称不明",
    "name_en": "",
    "lat": 35.7808348,
    "lng": 138.4644782,
    "category": "museum",
    "prefecture": "yamanashi",
    "osm_id": 3916346482,
    "spot_type": "data_spot",
    "data_source": "osm"
  },
  {
    "name": "神明神社",
    "name_en": "",
    "lat": 35.7459888,
    "lng": 138.6472601,
    "category": "shrine",
    "prefecture": "yamanashi",
    "osm_id": 3916605992,
    "spot_type": "data_spot",
    "data_source": "osm"
  },
  {
    "name": "新屋山神社",
    "name_en": "Araya Yama Jinja",
    "lat": 35.466838,
    "lng": 138.797335,
    "category": "shrine",
    "prefecture": "yamanashi",
    "osm_id": 4125177905,
    "spot_type": "data_spot",
    "data_source": "osm"
  },
  {
    "name": "諏訪神社",
    "name_en": "Suwa-jinja Shrine",
    "lat": 35.7722845,
    "lng": 138.4151139,
    "category": "shrine",
    "prefecture": "yamanashi",
    "osm_id": 4149617362,
    "spot_type": "data_spot",
    "data_source": "osm"
  },
  {
    "name": "昇仙峡",
    "name_en": "Shosenkyo Gorge",
    "lat": 35.7458956,
    "lng": 138.5674863,
    "category": "shrine",
    "prefecture": "yamanashi",
    "osm_id": 4159240797,
    "spot_type": "data_spot",
    "data_source": "osm"
  },
  {
    "name": "駒ケ岳神社",
    "name_en": "",
    "lat": 35.7879339,
    "lng": 138.3073458,
    "category": "shrine",
    "prefecture": "yamanashi",
    "osm_id": 4178234313,
    "spot_type": "data_spot",
    "data_source": "osm"
  },
  {
    "name": "三之蔵神社",
    "name_en": "",
    "lat": 35.7468382,
    "lng": 138.4488813,
    "category": "shrine",
    "prefecture": "yamanashi",
    "osm_id": 4188856790,
    "spot_type": "data_spot",
    "data_source": "osm"
  },
  {
    "name": "極楽寺",
    "name_en": "",
    "lat": 35.7355062,
    "lng": 138.4460292,
    "category": "temple",
    "prefecture": "yamanashi",
    "osm_id": 4207151715,
    "spot_type": "data_spot",
    "data_source": "osm"
  },
  {
    "name": "金櫻神社本宮",
    "name_en": "",
    "lat": 35.8709957,
    "lng": 138.6246618,
    "category": "shrine",
    "prefecture": "yamanashi",
    "osm_id": 4226958906,
    "spot_type": "data_spot",
    "data_source": "osm"
  },
  {
    "name": "飛龍権現神社",
    "name_en": "",
    "lat": 35.8358181,
    "lng": 138.8908107,
    "category": "shrine",
    "prefecture": "yamanashi",
    "osm_id": 4318204849,
    "spot_type": "data_spot",
    "data_source": "osm"
  },
  {
    "name": "立石神社",
    "name_en": "",
    "lat": 35.7388884,
    "lng": 138.6902394,
    "category": "shrine",
    "prefecture": "yamanashi",
    "osm_id": 4320468814,
    "spot_type": "data_spot",
    "data_source": "osm"
  },
  {
    "name": "稲荷大明神",
    "name_en": "",
    "lat": 35.2814798,
    "lng": 138.3316434,
    "category": "shrine",
    "prefecture": "yamanashi",
    "osm_id": 4348068104,
    "spot_type": "data_spot",
    "data_source": "osm"
  },
  {
    "name": "鳩ノ巣",
    "name_en": "Hatonosu",
    "lat": 35.8150523,
    "lng": 139.1287096,
    "category": "station",
    "prefecture": "yamanashi",
    "osm_id": 4351266480,
    "spot_type": "data_spot",
    "data_source": "osm"
  },
  {
    "name": "奥多摩",
    "name_en": "Oku-Tama",
    "lat": 35.8092044,
    "lng": 139.0966838,
    "category": "station",
    "prefecture": "yamanashi",
    "osm_id": 4351266697,
    "spot_type": "data_spot",
    "data_source": "osm"
  },
  {
    "name": "白丸",
    "name_en": "Shiromaru",
    "lat": 35.811886,
    "lng": 139.1147877,
    "category": "station",
    "prefecture": "yamanashi",
    "osm_id": 4351266702,
    "spot_type": "data_spot",
    "data_source": "osm"
  },
  {
    "name": "宝珠院",
    "name_en": "",
    "lat": 35.2540015,
    "lng": 139.0522723,
    "category": "temple",
    "prefecture": "yamanashi",
    "osm_id": 4391235390,
    "spot_type": "data_spot",
    "data_source": "osm"
  },
  {
    "name": "諏訪神社",
    "name_en": "",
    "lat": 35.2578321,
    "lng": 139.0493834,
    "category": "shrine",
    "prefecture": "yamanashi",
    "osm_id": 4391239595,
    "spot_type": "data_spot",
    "data_source": "osm"
  },
  {
    "name": "名称不明",
    "name_en": "",
    "lat": 35.3550537,
    "lng": 139.0785461,
    "category": "castle",
    "prefecture": "yamanashi",
    "osm_id": 4391303427,
    "spot_type": "data_spot",
    "data_source": "osm"
  },
  {
    "name": "金剛寺",
    "name_en": "",
    "lat": 35.3126487,
    "lng": 139.104321,
    "category": "temple",
    "prefecture": "yamanashi",
    "osm_id": 4391311640,
    "spot_type": "data_spot",
    "data_source": "osm"
  },
  {
    "name": "狩野厳島神社",
    "name_en": "",
    "lat": 35.3115358,
    "lng": 139.1025936,
    "category": "shrine",
    "prefecture": "yamanashi",
    "osm_id": 4391312330,
    "spot_type": "data_spot",
    "data_source": "osm"
  },
  {
    "name": "観池山弁財寺",
    "name_en": "",
    "lat": 35.3109772,
    "lng": 139.102467,
    "category": "temple",
    "prefecture": "yamanashi",
    "osm_id": 4391313503,
    "spot_type": "data_spot",
    "data_source": "osm"
  },
  {
    "name": "上関山極楽寺",
    "name_en": "",
    "lat": 35.3096469,
    "lng": 139.1053495,
    "category": "temple",
    "prefecture": "yamanashi",
    "osm_id": 4391314725,
    "spot_type": "data_spot",
    "data_source": "osm"
  },
  {
    "name": "長遠寺",
    "name_en": "",
    "lat": 35.615717,
    "lng": 138.4954852,
    "category": "temple",
    "prefecture": "yamanashi",
    "osm_id": 4400657557,
    "spot_type": "data_spot",
    "data_source": "osm"
  },
  {
    "name": "種徳寺",
    "name_en": "",
    "lat": 35.3638893,
    "lng": 139.0895433,
    "category": "temple",
    "prefecture": "yamanashi",
    "osm_id": 4412678864,
    "spot_type": "data_spot",
    "data_source": "osm"
  },
  {
    "name": "成就院",
    "name_en": "",
    "lat": 35.3631681,
    "lng": 139.0846952,
    "category": "temple",
    "prefecture": "yamanashi",
    "osm_id": 4412680905,
    "spot_type": "data_spot",
    "data_source": "osm"
  },
  {
    "name": "八幡神社",
    "name_en": "",
    "lat": 35.3554875,
    "lng": 139.0901277,
    "category": "shrine",
    "prefecture": "yamanashi",
    "osm_id": 4413378385,
    "spot_type": "data_spot",
    "data_source": "osm"
  },
  {
    "name": "法雲閣",
    "name_en": "",
    "lat": 35.3132563,
    "lng": 139.0935645,
    "category": "temple",
    "prefecture": "yamanashi",
    "osm_id": 4413390475,
    "spot_type": "data_spot",
    "data_source": "osm"
  },
  {
    "name": "箱根駅伝ミュージアム",
    "name_en": "Hakone Ekiden museum",
    "lat": 35.1893905,
    "lng": 139.0248679,
    "category": "museum",
    "prefecture": "yamanashi",
    "osm_id": 4434157542,
    "spot_type": "data_spot",
    "data_source": "osm"
  },
  {
    "name": "白山神社",
    "name_en": "",
    "lat": 35.5083179,
    "lng": 138.7755556,
    "category": "shrine",
    "prefecture": "yamanashi",
    "osm_id": 4437688606,
    "spot_type": "data_spot",
    "data_source": "osm"
  },
  {
    "name": "九頭龍神社 本宮",
    "name_en": "",
    "lat": 35.2190331,
    "lng": 139.0025845,
    "category": "shrine",
    "prefecture": "yamanashi",
    "osm_id": 4440020389,
    "spot_type": "data_spot",
    "data_source": "osm"
  },
  {
    "name": "白龍神社",
    "name_en": "白和龍王大神",
    "lat": 35.2157954,
    "lng": 139.0067355,
    "category": "shrine",
    "prefecture": "yamanashi",
    "osm_id": 4440020489,
    "spot_type": "data_spot",
    "data_source": "osm"
  },
  {
    "name": "東口本宮冨士浅間神社",
    "name_en": "Higashiguchi Hongu Fuji Sengen Shrine",
    "lat": 35.362946,
    "lng": 138.8638294,
    "category": "shrine",
    "prefecture": "yamanashi",
    "osm_id": 4452437491,
    "spot_type": "data_spot",
    "data_source": "osm"
  },
  {
    "name": "身曾岐神社",
    "name_en": "",
    "lat": 35.862162,
    "lng": 138.3365381,
    "category": "shrine",
    "prefecture": "yamanashi",
    "osm_id": 4459798089,
    "spot_type": "data_spot",
    "data_source": "osm"
  },
  {
    "name": "うの島神社",
    "name_en": "U Island Shrine",
    "lat": 35.5143048,
    "lng": 138.74398,
    "category": "shrine",
    "prefecture": "yamanashi",
    "osm_id": 4459980040,
    "spot_type": "data_spot",
    "data_source": "osm"
  },
  {
    "name": "新倉富士浅間神社",
    "name_en": "Arakura Fuji Sengen Shrine",
    "lat": 35.5003121,
    "lng": 138.8001336,
    "category": "shrine",
    "prefecture": "yamanashi",
    "osm_id": 4539620102,
    "spot_type": "data_spot",
    "data_source": "osm"
  },
  {
    "name": "Tenseien",
    "name_en": "Tenseien",
    "lat": 35.2290897,
    "lng": 139.0947773,
    "category": "onsen",
    "prefecture": "yamanashi",
    "osm_id": 4585443307,
    "spot_type": "data_spot",
    "data_source": "osm"
  },
  {
    "name": "深澤銭洗弁財天",
    "name_en": "Fukazawa Zeniarai Benzaiten",
    "lat": 35.2347421,
    "lng": 139.0937685,
    "category": "temple",
    "prefecture": "yamanashi",
    "osm_id": 4589283946,
    "spot_type": "data_spot",
    "data_source": "osm"
  },
  {
    "name": "名称不明",
    "name_en": "Shimoyu-Onsen",
    "lat": 35.2533723,
    "lng": 139.0270875,
    "category": "onsen",
    "prefecture": "yamanashi",
    "osm_id": 4605104489,
    "spot_type": "data_spot",
    "data_source": "osm"
  },
  {
    "name": "箱根小涌園ユネッサン",
    "name_en": "Hakone Kowakien Yunessun",
    "lat": 35.2393532,
    "lng": 139.0451608,
    "category": "onsen",
    "prefecture": "yamanashi",
    "osm_id": 4711713689,
    "spot_type": "data_spot",
    "data_source": "osm"
  },
  {
    "name": "岡田美術館",
    "name_en": "Okada Museum of Art",
    "lat": 35.2383202,
    "lng": 139.0463025,
    "category": "museum",
    "prefecture": "yamanashi",
    "osm_id": 4711743189,
    "spot_type": "data_spot",
    "data_source": "osm"
  },
  {
    "name": "名称不明",
    "name_en": "",
    "lat": 35.1985054,
    "lng": 138.8078811,
    "category": "shrine",
    "prefecture": "yamanashi",
    "osm_id": 4750752758,
    "spot_type": "data_spot",
    "data_source": "osm"
  },
  {
    "name": "北原ミュージアム",
    "name_en": "Kitahara Museum",
    "lat": 35.5085623,
    "lng": 138.7622634,
    "category": "museum",
    "prefecture": "yamanashi",
    "osm_id": 4778066576,
    "spot_type": "data_spot",
    "data_source": "osm"
  },
  {
    "name": "鼓楽神社",
    "name_en": "",
    "lat": 35.6149171,
    "lng": 139.0743046,
    "category": "temple",
    "prefecture": "yamanashi",
    "osm_id": 4787750187,
    "spot_type": "data_spot",
    "data_source": "osm"
  },
  {
    "name": "名称不明",
    "name_en": "",
    "lat": 35.4440075,
    "lng": 138.6009204,
    "category": "onsen",
    "prefecture": "yamanashi",
    "osm_id": 4819151812,
    "spot_type": "data_spot",
    "data_source": "osm"
  },
  {
    "name": "天津司神社",
    "name_en": "",
    "lat": 35.6254218,
    "lng": 138.5831117,
    "category": "shrine",
    "prefecture": "yamanashi",
    "osm_id": 4820807594,
    "spot_type": "data_spot",
    "data_source": "osm"
  },
  {
    "name": "鈴宮諏訪神社",
    "name_en": "",
    "lat": 35.6212435,
    "lng": 138.5848791,
    "category": "shrine",
    "prefecture": "yamanashi",
    "osm_id": 4820807743,
    "spot_type": "data_spot",
    "data_source": "osm"
  },
  {
    "name": "生物多様性センター展示室",
    "name_en": "Biodiversity Center Exhibition Room",
    "lat": 35.456023,
    "lng": 138.7627276,
    "category": "museum",
    "prefecture": "yamanashi",
    "osm_id": 4929728621,
    "spot_type": "data_spot",
    "data_source": "osm"
  },
  {
    "name": "阿弥陀寺",
    "name_en": "Amida-ji Temple",
    "lat": 35.2381899,
    "lng": 139.0967513,
    "category": "temple",
    "prefecture": "yamanashi",
    "osm_id": 5006275021,
    "spot_type": "data_spot",
    "data_source": "osm"
  },
  {
    "name": "箱根ジオミュージアム",
    "name_en": "Hakone Geomuseum",
    "lat": 35.2435748,
    "lng": 139.019521,
    "category": "museum",
    "prefecture": "yamanashi",
    "osm_id": 5059644222,
    "spot_type": "data_spot",
    "data_source": "osm"
  },
  {
    "name": "日原森林館",
    "name_en": "Nippara Forest Museum",
    "lat": 35.8415422,
    "lng": 139.0428601,
    "category": "museum",
    "prefecture": "yamanashi",
    "osm_id": 5064279873,
    "spot_type": "data_spot",
    "data_source": "osm"
  },
  {
    "name": "小河内神社",
    "name_en": "",
    "lat": 35.7766045,
    "lng": 139.0207547,
    "category": "shrine",
    "prefecture": "yamanashi",
    "osm_id": 5064281150,
    "spot_type": "data_spot",
    "data_source": "osm"
  },
  {
    "name": "ドールハウス美術館",
    "name_en": "",
    "lat": 35.4341049,
    "lng": 138.911914,
    "category": "museum",
    "prefecture": "yamanashi",
    "osm_id": 5080954321,
    "spot_type": "data_spot",
    "data_source": "osm"
  },
  {
    "name": "名称不明",
    "name_en": "nakamura Keith Haring Collection",
    "lat": 35.8878232,
    "lng": 138.3183744,
    "category": "museum",
    "prefecture": "yamanashi",
    "osm_id": 5181858327,
    "spot_type": "data_spot",
    "data_source": "osm"
  },
  {
    "name": "彫刻の森美術館",
    "name_en": "Hakone Open-Air Museum",
    "lat": 35.2442838,
    "lng": 139.0520834,
    "category": "museum",
    "prefecture": "yamanashi",
    "osm_id": 5182750902,
    "spot_type": "data_spot",
    "data_source": "osm"
  },
  {
    "name": "新橋浅間神社",
    "name_en": "Shinto shrine",
    "lat": 35.3005928,
    "lng": 138.9305101,
    "category": "shrine",
    "prefecture": "yamanashi",
    "osm_id": 5190326422,
    "spot_type": "data_spot",
    "data_source": "osm"
  },
  {
    "name": "八幡神社",
    "name_en": "",
    "lat": 35.4194042,
    "lng": 139.0708282,
    "category": "shrine",
    "prefecture": "yamanashi",
    "osm_id": 5236461807,
    "spot_type": "data_spot",
    "data_source": "osm"
  },
  {
    "name": "神尾田神社",
    "name_en": "",
    "lat": 35.4106887,
    "lng": 139.0449449,
    "category": "shrine",
    "prefecture": "yamanashi",
    "osm_id": 5236527037,
    "spot_type": "data_spot",
    "data_source": "osm"
  },
  {
    "name": "新倉山菖蒲群生地",
    "name_en": "",
    "lat": 35.5039416,
    "lng": 138.801402,
    "category": "rest_area",
    "prefecture": "yamanashi",
    "osm_id": 5249766323,
    "spot_type": "data_spot",
    "data_source": "osm"
  },
  {
    "name": "須山浅間神社",
    "name_en": "Suyama Sengen Shrine",
    "lat": 35.2545395,
    "lng": 138.8489577,
    "category": "shrine",
    "prefecture": "yamanashi",
    "osm_id": 5278804931,
    "spot_type": "data_spot",
    "data_source": "osm"
  },
  {
    "name": "愛鷹水神社",
    "name_en": "",
    "lat": 35.1971861,
    "lng": 138.8332764,
    "category": "shrine",
    "prefecture": "yamanashi",
    "osm_id": 5345898947,
    "spot_type": "data_spot",
    "data_source": "osm"
  },
  {
    "name": "熊野神社",
    "name_en": "",
    "lat": 35.2322038,
    "lng": 139.0920024,
    "category": "shrine",
    "prefecture": "yamanashi",
    "osm_id": 5351009753,
    "spot_type": "data_spot",
    "data_source": "osm"
  },
  {
    "name": "名称不明",
    "name_en": "",
    "lat": 35.2255361,
    "lng": 139.0491824,
    "category": "shrine",
    "prefecture": "yamanashi",
    "osm_id": 5351009767,
    "spot_type": "data_spot",
    "data_source": "osm"
  },
  {
    "name": "諏訪神社",
    "name_en": "suwajinja",
    "lat": 35.5757586,
    "lng": 138.4027023,
    "category": "shrine",
    "prefecture": "yamanashi",
    "osm_id": 5368868790,
    "spot_type": "data_spot",
    "data_source": "osm"
  },
  {
    "name": "上行寺",
    "name_en": "",
    "lat": 35.5747167,
    "lng": 138.4633852,
    "category": "temple",
    "prefecture": "yamanashi",
    "osm_id": 5372207108,
    "spot_type": "data_spot",
    "data_source": "osm"
  },
  {
    "name": "照心明神",
    "name_en": "",
    "lat": 35.213188,
    "lng": 139.0632724,
    "category": "shrine",
    "prefecture": "yamanashi",
    "osm_id": 5419475352,
    "spot_type": "data_spot",
    "data_source": "osm"
  },
  {
    "name": "桔梗信玄餅テーマパーク",
    "name_en": "Shingen-Mochi Factory Theme Park",
    "lat": 35.6479986,
    "lng": 138.663737,
    "category": "museum",
    "prefecture": "yamanashi",
    "osm_id": 5535932390,
    "spot_type": "data_spot",
    "data_source": "osm"
  },
  {
    "name": "酒折",
    "name_en": "Sakaori",
    "lat": 35.6596417,
    "lng": 138.5992422,
    "category": "station",
    "prefecture": "yamanashi",
    "osm_id": 5589913332,
    "spot_type": "data_spot",
    "data_source": "osm"
  },
  {
    "name": "善光寺",
    "name_en": "Zenkoji",
    "lat": 35.6598766,
    "lng": 138.5893576,
    "category": "station",
    "prefecture": "yamanashi",
    "osm_id": 5589913354,
    "spot_type": "data_spot",
    "data_source": "osm"
  },
  {
    "name": "金手",
    "name_en": "Kanente",
    "lat": 35.6621751,
    "lng": 138.5791437,
    "category": "station",
    "prefecture": "yamanashi",
    "osm_id": 5589913392,
    "spot_type": "data_spot",
    "data_source": "osm"
  },
  {
    "name": "甲府",
    "name_en": "Kofu",
    "lat": 35.6670815,
    "lng": 138.5693937,
    "category": "station",
    "prefecture": "yamanashi",
    "osm_id": 5589913394,
    "spot_type": "data_spot",
    "data_source": "osm"
  },
  {
    "name": "里宮神社",
    "name_en": "Satomiya-jinja Shrine",
    "lat": 35.8828514,
    "lng": 138.5829176,
    "category": "shrine",
    "prefecture": "yamanashi",
    "osm_id": 5808550151,
    "spot_type": "data_spot",
    "data_source": "osm"
  },
  {
    "name": "名称不明",
    "name_en": "",
    "lat": 35.7021166,
    "lng": 138.6655681,
    "category": "museum",
    "prefecture": "yamanashi",
    "osm_id": 5839412709,
    "spot_type": "data_spot",
    "data_source": "osm"
  },
  {
    "name": "ヘルシーパーク裾野",
    "name_en": "",
    "lat": 35.2478444,
    "lng": 138.871979,
    "category": "onsen",
    "prefecture": "yamanashi",
    "osm_id": 5842961446,
    "spot_type": "data_spot",
    "data_source": "osm"
  },
  {
    "name": "出口稲荷大明神",
    "name_en": "",
    "lat": 35.4534045,
    "lng": 138.8365879,
    "category": "shrine",
    "prefecture": "yamanashi",
    "osm_id": 5879546791,
    "spot_type": "data_spot",
    "data_source": "osm"
  },
  {
    "name": "淺間神社",
    "name_en": "Sengen Shrine",
    "lat": 35.4622537,
    "lng": 138.8330285,
    "category": "shrine",
    "prefecture": "yamanashi",
    "osm_id": 5879583711,
    "spot_type": "data_spot",
    "data_source": "osm"
  },
  {
    "name": "東円寺",
    "name_en": "Tōenji Temple",
    "lat": 35.4636522,
    "lng": 138.8315113,
    "category": "temple",
    "prefecture": "yamanashi",
    "osm_id": 5879583712,
    "spot_type": "data_spot",
    "data_source": "osm"
  },
  {
    "name": "冒険の丘",
    "name_en": "",
    "lat": 35.2596504,
    "lng": 139.1247097,
    "category": "station",
    "prefecture": "yamanashi",
    "osm_id": 5901902868,
    "spot_type": "data_spot",
    "data_source": "osm"
  },
  {
    "name": "エントランス広場",
    "name_en": "",
    "lat": 35.259505,
    "lng": 139.1280266,
    "category": "station",
    "prefecture": "yamanashi",
    "osm_id": 5901902869,
    "spot_type": "data_spot",
    "data_source": "osm"
  },
  {
    "name": "日野春",
    "name_en": "Hinoharu",
    "lat": 35.790032,
    "lng": 138.39477,
    "category": "station",
    "prefecture": "yamanashi",
    "osm_id": 5969088998,
    "spot_type": "data_spot",
    "data_source": "osm"
  },
  {
    "name": "韮崎",
    "name_en": "Nirasaki",
    "lat": 35.7104219,
    "lng": 138.4508872,
    "category": "station",
    "prefecture": "yamanashi",
    "osm_id": 5972592424,
    "spot_type": "data_spot",
    "data_source": "osm"
  },
  {
    "name": "甲斐岩間",
    "name_en": "Kai-Iwama",
    "lat": 35.4921431,
    "lng": 138.4627326,
    "category": "station",
    "prefecture": "yamanashi",
    "osm_id": 5980724948,
    "spot_type": "data_spot",
    "data_source": "osm"
  },
  {
    "name": "落居",
    "name_en": "Ochii",
    "lat": 35.5038625,
    "lng": 138.4714429,
    "category": "station",
    "prefecture": "yamanashi",
    "osm_id": 5980724949,
    "spot_type": "data_spot",
    "data_source": "osm"
  },
  {
    "name": "市川大門",
    "name_en": "Ichikawa-Daimon",
    "lat": 35.560444,
    "lng": 138.4929475,
    "category": "station",
    "prefecture": "yamanashi",
    "osm_id": 5980724958,
    "spot_type": "data_spot",
    "data_source": "osm"
  },
  {
    "name": "市川本町",
    "name_en": "Ichikawa-Hommachi",
    "lat": 35.5607312,
    "lng": 138.5022368,
    "category": "station",
    "prefecture": "yamanashi",
    "osm_id": 5980724959,
    "spot_type": "data_spot",
    "data_source": "osm"
  },
  {
    "name": "芦川",
    "name_en": "Ashigawa",
    "lat": 35.5628946,
    "lng": 138.5109365,
    "category": "station",
    "prefecture": "yamanashi",
    "osm_id": 5980724960,
    "spot_type": "data_spot",
    "data_source": "osm"
  },
  {
    "name": "東花輪",
    "name_en": "Higashi-Hanawa",
    "lat": 35.5945354,
    "lng": 138.5269006,
    "category": "station",
    "prefecture": "yamanashi",
    "osm_id": 5980724967,
    "spot_type": "data_spot",
    "data_source": "osm"
  },
  {
    "name": "小井川",
    "name_en": "Koikawa",
    "lat": 35.6048909,
    "lng": 138.5285653,
    "category": "station",
    "prefecture": "yamanashi",
    "osm_id": 5980724969,
    "spot_type": "data_spot",
    "data_source": "osm"
  },
  {
    "name": "鰍沢口",
    "name_en": "Kajikazawaguchi",
    "lat": 35.5413802,
    "lng": 138.4708053,
    "category": "station",
    "prefecture": "yamanashi",
    "osm_id": 5980724983,
    "spot_type": "data_spot",
    "data_source": "osm"
  },
  {
    "name": "常永",
    "name_en": "Joei",
    "lat": 35.6167698,
    "lng": 138.5327643,
    "category": "station",
    "prefecture": "yamanashi",
    "osm_id": 5980725186,
    "spot_type": "data_spot",
    "data_source": "osm"
  },
  {
    "name": "国母",
    "name_en": "Kokubo",
    "lat": 35.6303991,
    "lng": 138.5513882,
    "category": "station",
    "prefecture": "yamanashi",
    "osm_id": 5980725195,
    "spot_type": "data_spot",
    "data_source": "osm"
  },
  {
    "name": "甲斐住吉",
    "name_en": "Kai-Sumiyoshi",
    "lat": 35.6369838,
    "lng": 138.5703183,
    "category": "station",
    "prefecture": "yamanashi",
    "osm_id": 5980725199,
    "spot_type": "data_spot",
    "data_source": "osm"
  },
  {
    "name": "南甲府",
    "name_en": "Minami-Kofu",
    "lat": 35.643445,
    "lng": 138.5777369,
    "category": "station",
    "prefecture": "yamanashi",
    "osm_id": 5980725226,
    "spot_type": "data_spot",
    "data_source": "osm"
  },
  {
    "name": "勝沼ぶどう郷",
    "name_en": "Katsunumabudokyo",
    "lat": 35.6723574,
    "lng": 138.7432213,
    "category": "station",
    "prefecture": "yamanashi",
    "osm_id": 5980951958,
    "spot_type": "data_spot",
    "data_source": "osm"
  },
  {
    "name": "塩山",
    "name_en": "Enzan",
    "lat": 35.7054703,
    "lng": 138.7341835,
    "category": "station",
    "prefecture": "yamanashi",
    "osm_id": 5980952096,
    "spot_type": "data_spot",
    "data_source": "osm"
  },
  {
    "name": "東山梨",
    "name_en": "Higashi-Yamanashi",
    "lat": 35.6941802,
    "lng": 138.7027841,
    "category": "station",
    "prefecture": "yamanashi",
    "osm_id": 5980952103,
    "spot_type": "data_spot",
    "data_source": "osm"
  },
  {
    "name": "春日居町",
    "name_en": "Kasugaicho",
    "lat": 35.673473,
    "lng": 138.6590816,
    "category": "station",
    "prefecture": "yamanashi",
    "osm_id": 5980952160,
    "spot_type": "data_spot",
    "data_source": "osm"
  },
  {
    "name": "信濃境",
    "name_en": "Shinano-Sakai",
    "lat": 35.8847391,
    "lng": 138.2758202,
    "category": "station",
    "prefecture": "yamanashi",
    "osm_id": 5981439229,
    "spot_type": "data_spot",
    "data_source": "osm"
  },
  {
    "name": "甲斐大和",
    "name_en": "Kai-Yamato",
    "lat": 35.6395719,
    "lng": 138.7810054,
    "category": "station",
    "prefecture": "yamanashi",
    "osm_id": 5982846425,
    "spot_type": "data_spot",
    "data_source": "osm"
  },
  {
    "name": "初狩",
    "name_en": "Hatsukari",
    "lat": 35.5942257,
    "lng": 138.8843295,
    "category": "station",
    "prefecture": "yamanashi",
    "osm_id": 5991086524,
    "spot_type": "data_spot",
    "data_source": "osm"
  },
  {
    "name": "鳥沢",
    "name_en": "Torisawa",
    "lat": 35.60815,
    "lng": 139.0031178,
    "category": "station",
    "prefecture": "yamanashi",
    "osm_id": 6000923728,
    "spot_type": "data_spot",
    "data_source": "osm"
  },
  {
    "name": "上野原",
    "name_en": "Uenohara",
    "lat": 35.6188935,
    "lng": 139.1160455,
    "category": "station",
    "prefecture": "yamanashi",
    "osm_id": 6002079057,
    "spot_type": "data_spot",
    "data_source": "osm"
  },
  {
    "name": "四方津",
    "name_en": "Shiotsu",
    "lat": 35.6141608,
    "lng": 139.0731591,
    "category": "station",
    "prefecture": "yamanashi",
    "osm_id": 6002079147,
    "spot_type": "data_spot",
    "data_source": "osm"
  },
  {
    "name": "啓慎院",
    "name_en": "",
    "lat": 35.3764764,
    "lng": 138.3577114,
    "category": "temple",
    "prefecture": "yamanashi",
    "osm_id": 6019112571,
    "spot_type": "data_spot",
    "data_source": "osm"
  },
  {
    "name": "名称不明",
    "name_en": "",
    "lat": 35.5246561,
    "lng": 138.5160005,
    "category": "temple",
    "prefecture": "yamanashi",
    "osm_id": 6031794780,
    "spot_type": "data_spot",
    "data_source": "osm"
  },
  {
    "name": "名称不明",
    "name_en": "",
    "lat": 35.5253546,
    "lng": 138.5131144,
    "category": "temple",
    "prefecture": "yamanashi",
    "osm_id": 6031794781,
    "spot_type": "data_spot",
    "data_source": "osm"
  },
  {
    "name": "名称不明",
    "name_en": "",
    "lat": 35.5277034,
    "lng": 138.5140586,
    "category": "shrine",
    "prefecture": "yamanashi",
    "osm_id": 6031794782,
    "spot_type": "data_spot",
    "data_source": "osm"
  },
  {
    "name": "富士宮",
    "name_en": "Fujinomiya",
    "lat": 35.2213204,
    "lng": 138.614907,
    "category": "station",
    "prefecture": "yamanashi",
    "osm_id": 6036084472,
    "spot_type": "data_spot",
    "data_source": "osm"
  },
  {
    "name": "市ノ瀬",
    "name_en": "Ichinose",
    "lat": 35.4621992,
    "lng": 138.4821403,
    "category": "station",
    "prefecture": "yamanashi",
    "osm_id": 6036084477,
    "spot_type": "data_spot",
    "data_source": "osm"
  },
  {
    "name": "久那土",
    "name_en": "Kunado",
    "lat": 35.4813913,
    "lng": 138.4677637,
    "category": "station",
    "prefecture": "yamanashi",
    "osm_id": 6036084478,
    "spot_type": "data_spot",
    "data_source": "osm"
  },
  {
    "name": "入山瀬",
    "name_en": "Iriyamase",
    "lat": 35.188229,
    "lng": 138.6478928,
    "category": "station",
    "prefecture": "yamanashi",
    "osm_id": 6036360477,
    "spot_type": "data_spot",
    "data_source": "osm"
  },
  {
    "name": "富士根",
    "name_en": "Fujine",
    "lat": 35.2055095,
    "lng": 138.6354004,
    "category": "station",
    "prefecture": "yamanashi",
    "osm_id": 6036360479,
    "spot_type": "data_spot",
    "data_source": "osm"
  },
  {
    "name": "源道寺",
    "name_en": "Gendoji",
    "lat": 35.2145395,
    "lng": 138.6270533,
    "category": "station",
    "prefecture": "yamanashi",
    "osm_id": 6036360482,
    "spot_type": "data_spot",
    "data_source": "osm"
  },
  {
    "name": "西富士宮",
    "name_en": "Nishi-Fujinomiya",
    "lat": 35.2255638,
    "lng": 138.6026639,
    "category": "station",
    "prefecture": "yamanashi",
    "osm_id": 6036364656,
    "spot_type": "data_spot",
    "data_source": "osm"
  },
  {
    "name": "身延",
    "name_en": "Minobu",
    "lat": 35.3614072,
    "lng": 138.4531094,
    "category": "station",
    "prefecture": "yamanashi",
    "osm_id": 6036422952,
    "spot_type": "data_spot",
    "data_source": "osm"
  },
  {
    "name": "塩之沢",
    "name_en": "Shionosawa",
    "lat": 35.3799355,
    "lng": 138.4541877,
    "category": "station",
    "prefecture": "yamanashi",
    "osm_id": 6036621596,
    "spot_type": "data_spot",
    "data_source": "osm"
  },
  {
    "name": "波高島",
    "name_en": "Hadakajima",
    "lat": 35.4184801,
    "lng": 138.4595802,
    "category": "station",
    "prefecture": "yamanashi",
    "osm_id": 6036621619,
    "spot_type": "data_spot",
    "data_source": "osm"
  },
  {
    "name": "下部温泉",
    "name_en": "Shimobe-onsen",
    "lat": 35.4255804,
    "lng": 138.4722161,
    "category": "station",
    "prefecture": "yamanashi",
    "osm_id": 6036621631,
    "spot_type": "data_spot",
    "data_source": "osm"
  },
  {
    "name": "甲斐常葉",
    "name_en": "Kai-Tokiwa",
    "lat": 35.4449702,
    "lng": 138.4769006,
    "category": "station",
    "prefecture": "yamanashi",
    "osm_id": 6070965450,
    "spot_type": "data_spot",
    "data_source": "osm"
  },
  {
    "name": "井出",
    "name_en": "Ide",
    "lat": 35.2473649,
    "lng": 138.4908923,
    "category": "station",
    "prefecture": "yamanashi",
    "osm_id": 6074126215,
    "spot_type": "data_spot",
    "data_source": "osm"
  },
  {
    "name": "寄畑",
    "name_en": "Yorihata",
    "lat": 35.2644893,
    "lng": 138.4750888,
    "category": "station",
    "prefecture": "yamanashi",
    "osm_id": 6074126216,
    "spot_type": "data_spot",
    "data_source": "osm"
  },
  {
    "name": "内船",
    "name_en": "Utsubuna",
    "lat": 35.2819671,
    "lng": 138.4649795,
    "category": "station",
    "prefecture": "yamanashi",
    "osm_id": 6074126217,
    "spot_type": "data_spot",
    "data_source": "osm"
  },
  {
    "name": "甲斐大島",
    "name_en": "Kai-Oshima",
    "lat": 35.328396,
    "lng": 138.4520808,
    "category": "station",
    "prefecture": "yamanashi",
    "osm_id": 6074126222,
    "spot_type": "data_spot",
    "data_source": "osm"
  },
  {
    "name": "稲子",
    "name_en": "Inako",
    "lat": 35.2306532,
    "lng": 138.5368694,
    "category": "station",
    "prefecture": "yamanashi",
    "osm_id": 6083859372,
    "spot_type": "data_spot",
    "data_source": "osm"
  },
  {
    "name": "十島",
    "name_en": "Toshima",
    "lat": 35.2301734,
    "lng": 138.5158302,
    "category": "station",
    "prefecture": "yamanashi",
    "osm_id": 6083859795,
    "spot_type": "data_spot",
    "data_source": "osm"
  },
  {
    "name": "芝川",
    "name_en": "Shibakawa",
    "lat": 35.1975349,
    "lng": 138.5637613,
    "category": "station",
    "prefecture": "yamanashi",
    "osm_id": 6085733354,
    "spot_type": "data_spot",
    "data_source": "osm"
  },
  {
    "name": "沼久保",
    "name_en": "Numakubo",
    "lat": 35.1992796,
    "lng": 138.5843123,
    "category": "station",
    "prefecture": "yamanashi",
    "osm_id": 6086087810,
    "spot_type": "data_spot",
    "data_source": "osm"
  },
  {
    "name": "弥坂湯",
    "name_en": "",
    "lat": 35.2288495,
    "lng": 139.1016159,
    "category": "onsen",
    "prefecture": "yamanashi",
    "osm_id": 6134899315,
    "spot_type": "data_spot",
    "data_source": "osm"
  },
  {
    "name": "平賀敬美術館",
    "name_en": "",
    "lat": 35.2308038,
    "lng": 139.0988452,
    "category": "museum",
    "prefecture": "yamanashi",
    "osm_id": 6138382181,
    "spot_type": "data_spot",
    "data_source": "osm"
  },
  {
    "name": "名称不明",
    "name_en": "",
    "lat": 35.2702605,
    "lng": 139.0098665,
    "category": "museum",
    "prefecture": "yamanashi",
    "osm_id": 6138393562,
    "spot_type": "data_spot",
    "data_source": "osm"
  },
  {
    "name": "正法寺",
    "name_en": "",
    "lat": 35.2612751,
    "lng": 138.5520858,
    "category": "temple",
    "prefecture": "yamanashi",
    "osm_id": 6265395048,
    "spot_type": "data_spot",
    "data_source": "osm"
  },
  {
    "name": "ギャラリーアバルト自動車美術館",
    "name_en": "",
    "lat": 35.3957847,
    "lng": 138.8651805,
    "category": "museum",
    "prefecture": "yamanashi",
    "osm_id": 6269204085,
    "spot_type": "data_spot",
    "data_source": "osm"
  },
  {
    "name": "名称不明",
    "name_en": "",
    "lat": 35.5242958,
    "lng": 138.7650465,
    "category": "museum",
    "prefecture": "yamanashi",
    "osm_id": 6291521985,
    "spot_type": "data_spot",
    "data_source": "osm"
  },
  {
    "name": "中村キースへリング美術館",
    "name_en": "",
    "lat": 35.8883076,
    "lng": 138.3178437,
    "category": "museum",
    "prefecture": "yamanashi",
    "osm_id": 6298762086,
    "spot_type": "data_spot",
    "data_source": "osm"
  },
  {
    "name": "須津山 山神社",
    "name_en": "",
    "lat": 35.2030259,
    "lng": 138.7836682,
    "category": "shrine",
    "prefecture": "yamanashi",
    "osm_id": 6311814601,
    "spot_type": "data_spot",
    "data_source": "osm"
  },
  {
    "name": "山梨泊まれる温泉 より道の湯",
    "name_en": "",
    "lat": 35.5581704,
    "lng": 138.9077634,
    "category": "onsen",
    "prefecture": "yamanashi",
    "osm_id": 6318586536,
    "spot_type": "data_spot",
    "data_source": "osm"
  },
  {
    "name": "中畑道祖神",
    "name_en": "",
    "lat": 35.5741961,
    "lng": 138.5947813,
    "category": "temple",
    "prefecture": "yamanashi",
    "osm_id": 6330668517,
    "spot_type": "data_spot",
    "data_source": "osm"
  },
  {
    "name": "名称不明",
    "name_en": "",
    "lat": 35.6607975,
    "lng": 138.6319872,
    "category": "shrine",
    "prefecture": "yamanashi",
    "osm_id": 6372789263,
    "spot_type": "data_spot",
    "data_source": "osm"
  },
  {
    "name": "名称不明",
    "name_en": "",
    "lat": 35.6607474,
    "lng": 138.6333713,
    "category": "temple",
    "prefecture": "yamanashi",
    "osm_id": 6372789273,
    "spot_type": "data_spot",
    "data_source": "osm"
  },
  {
    "name": "かじかの湯",
    "name_en": "",
    "lat": 35.5076311,
    "lng": 138.4283315,
    "category": "onsen",
    "prefecture": "yamanashi",
    "osm_id": 6412920851,
    "spot_type": "data_spot",
    "data_source": "osm"
  },
  {
    "name": "みはらしの丘;みたまの湯",
    "name_en": "",
    "lat": 35.5659324,
    "lng": 138.534012,
    "category": "onsen",
    "prefecture": "yamanashi",
    "osm_id": 6413661854,
    "spot_type": "data_spot",
    "data_source": "osm"
  },
  {
    "name": "はやぶさ温泉",
    "name_en": "",
    "lat": 35.7302205,
    "lng": 138.7097198,
    "category": "onsen",
    "prefecture": "yamanashi",
    "osm_id": 6414451275,
    "spot_type": "data_spot",
    "data_source": "osm"
  },
  {
    "name": "クアハウス石和",
    "name_en": "",
    "lat": 35.6553503,
    "lng": 138.6403937,
    "category": "onsen",
    "prefecture": "yamanashi",
    "osm_id": 6415916754,
    "spot_type": "data_spot",
    "data_source": "osm"
  },
  {
    "name": "なんぶの湯",
    "name_en": "",
    "lat": 35.2801511,
    "lng": 138.4634409,
    "category": "onsen",
    "prefecture": "yamanashi",
    "osm_id": 6416266653,
    "spot_type": "data_spot",
    "data_source": "osm"
  },
  {
    "name": "韮崎旭温泉；韮崎旭の湯",
    "name_en": "",
    "lat": 35.6821542,
    "lng": 138.4445622,
    "category": "onsen",
    "prefecture": "yamanashi",
    "osm_id": 6416325719,
    "spot_type": "data_spot",
    "data_source": "osm"
  },
  {
    "name": "韮崎市健康ふれあいセンター;ゆ～ぷるにらさき",
    "name_en": "",
    "lat": 35.7478588,
    "lng": 138.4379412,
    "category": "onsen",
    "prefecture": "yamanashi",
    "osm_id": 6416399974,
    "spot_type": "data_spot",
    "data_source": "osm"
  },
  {
    "name": "甲斐駒ケ岳；尾白の湯",
    "name_en": "",
    "lat": 35.8020848,
    "lng": 138.3150578,
    "category": "onsen",
    "prefecture": "yamanashi",
    "osm_id": 6416426121,
    "spot_type": "data_spot",
    "data_source": "osm"
  },
  {
    "name": "クリスタルミュージアム",
    "name_en": "",
    "lat": 35.6603091,
    "lng": 138.5436045,
    "category": "museum",
    "prefecture": "yamanashi",
    "osm_id": 6464744043,
    "spot_type": "data_spot",
    "data_source": "osm"
  },
  {
    "name": "一宮浅間神社",
    "name_en": "Ichinomiya Asama Shrine",
    "lat": 35.5542225,
    "lng": 138.4900806,
    "category": "shrine",
    "prefecture": "yamanashi",
    "osm_id": 6484004551,
    "spot_type": "data_spot",
    "data_source": "osm"
  },
  {
    "name": "蹴裂神社",
    "name_en": "",
    "lat": 35.567511,
    "lng": 138.5205213,
    "category": "shrine",
    "prefecture": "yamanashi",
    "osm_id": 6484004554,
    "spot_type": "data_spot",
    "data_source": "osm"
  },
  {
    "name": "市川三郷町ふるさと会館文化資料館",
    "name_en": "",
    "lat": 35.5665475,
    "lng": 138.5209977,
    "category": "museum",
    "prefecture": "yamanashi",
    "osm_id": 6484004555,
    "spot_type": "data_spot",
    "data_source": "osm"
  },
  {
    "name": "市川三郷町民俗資料館",
    "name_en": "Ichikawa Misato Town Folklore Museum",
    "lat": 35.5664652,
    "lng": 138.5216504,
    "category": "museum",
    "prefecture": "yamanashi",
    "osm_id": 6484004557,
    "spot_type": "data_spot",
    "data_source": "osm"
  },
  {
    "name": "不動院",
    "name_en": "Fudo-in",
    "lat": 35.5569272,
    "lng": 138.5152025,
    "category": "temple",
    "prefecture": "yamanashi",
    "osm_id": 6484004559,
    "spot_type": "data_spot",
    "data_source": "osm"
  },
  {
    "name": "熊野神社",
    "name_en": "Kumano Shrine",
    "lat": 35.5581356,
    "lng": 138.5064049,
    "category": "shrine",
    "prefecture": "yamanashi",
    "osm_id": 6484004563,
    "spot_type": "data_spot",
    "data_source": "osm"
  },
  {
    "name": "名称不明",
    "name_en": "",
    "lat": 35.8542999,
    "lng": 139.0958445,
    "category": "shrine",
    "prefecture": "yamanashi",
    "osm_id": 6552267866,
    "spot_type": "data_spot",
    "data_source": "osm"
  },
  {
    "name": "名称不明",
    "name_en": "",
    "lat": 35.8385199,
    "lng": 139.1069194,
    "category": "shrine",
    "prefecture": "yamanashi",
    "osm_id": 6552271102,
    "spot_type": "data_spot",
    "data_source": "osm"
  },
  {
    "name": "名称不明",
    "name_en": "",
    "lat": 35.8213677,
    "lng": 139.083314,
    "category": "temple",
    "prefecture": "yamanashi",
    "osm_id": 6552271120,
    "spot_type": "data_spot",
    "data_source": "osm"
  },
  {
    "name": "あし湯 いさわ湯",
    "name_en": "",
    "lat": 35.649982,
    "lng": 138.6375555,
    "category": "onsen",
    "prefecture": "yamanashi",
    "osm_id": 6634785928,
    "spot_type": "data_spot",
    "data_source": "osm"
  },
  {
    "name": "石和町民俗文化財展示館",
    "name_en": "",
    "lat": 35.6499995,
    "lng": 138.6371358,
    "category": "museum",
    "prefecture": "yamanashi",
    "osm_id": 6634785931,
    "spot_type": "data_spot",
    "data_source": "osm"
  },
  {
    "name": "足柄",
    "name_en": "Ashigara",
    "lat": 35.3332525,
    "lng": 138.981526,
    "category": "station",
    "prefecture": "yamanashi",
    "osm_id": 6652279557,
    "spot_type": "data_spot",
    "data_source": "osm"
  },
  {
    "name": "姥子温泉;秀明館",
    "name_en": "",
    "lat": 35.2433378,
    "lng": 139.0092333,
    "category": "onsen",
    "prefecture": "yamanashi",
    "osm_id": 6683971983,
    "spot_type": "data_spot",
    "data_source": "osm"
  },
  {
    "name": "オアシス御殿場",
    "name_en": "",
    "lat": 35.2986642,
    "lng": 138.9455036,
    "category": "onsen",
    "prefecture": "yamanashi",
    "osm_id": 6684433877,
    "spot_type": "data_spot",
    "data_source": "osm"
  },
  {
    "name": "箱根小涌園;森の湯",
    "name_en": "",
    "lat": 35.2394462,
    "lng": 139.0458629,
    "category": "onsen",
    "prefecture": "yamanashi",
    "osm_id": 6688304555,
    "spot_type": "data_spot",
    "data_source": "osm"
  },
  {
    "name": "河口湖温泉寺",
    "name_en": "",
    "lat": 35.5058558,
    "lng": 138.759934,
    "category": "onsen",
    "prefecture": "yamanashi",
    "osm_id": 6702020505,
    "spot_type": "data_spot",
    "data_source": "osm"
  },
  {
    "name": "本国寺",
    "name_en": "",
    "lat": 35.41384,
    "lng": 138.4407685,
    "category": "temple",
    "prefecture": "yamanashi",
    "osm_id": 6741263762,
    "spot_type": "data_spot",
    "data_source": "osm"
  },
  {
    "name": "円実寺",
    "name_en": "",
    "lat": 35.3792273,
    "lng": 138.4455266,
    "category": "temple",
    "prefecture": "yamanashi",
    "osm_id": 6741264242,
    "spot_type": "data_spot",
    "data_source": "osm"
  },
  {
    "name": "仏乗寺",
    "name_en": "Butsujoji",
    "lat": 35.6224509,
    "lng": 138.5336567,
    "category": "temple",
    "prefecture": "yamanashi",
    "osm_id": 6755680297,
    "spot_type": "data_spot",
    "data_source": "osm"
  },
  {
    "name": "浅間神社",
    "name_en": "",
    "lat": 35.3303327,
    "lng": 138.9430733,
    "category": "shrine",
    "prefecture": "yamanashi",
    "osm_id": 6800753149,
    "spot_type": "data_spot",
    "data_source": "osm"
  },
  {
    "name": "宝持院",
    "name_en": "",
    "lat": 35.313282,
    "lng": 138.9442767,
    "category": "temple",
    "prefecture": "yamanashi",
    "osm_id": 6800800683,
    "spot_type": "data_spot",
    "data_source": "osm"
  },
  {
    "name": "庚申堂",
    "name_en": "",
    "lat": 35.31395,
    "lng": 138.9396935,
    "category": "temple",
    "prefecture": "yamanashi",
    "osm_id": 6800873291,
    "spot_type": "data_spot",
    "data_source": "osm"
  },
  {
    "name": "妙典寺",
    "name_en": "",
    "lat": 35.3244228,
    "lng": 138.9430415,
    "category": "temple",
    "prefecture": "yamanashi",
    "osm_id": 6831933986,
    "spot_type": "data_spot",
    "data_source": "osm"
  },
  {
    "name": "妙典寺",
    "name_en": "",
    "lat": 35.325771,
    "lng": 138.9433759,
    "category": "temple",
    "prefecture": "yamanashi",
    "osm_id": 6831934003,
    "spot_type": "data_spot",
    "data_source": "osm"
  },
  {
    "name": "山神社",
    "name_en": "",
    "lat": 35.4385665,
    "lng": 138.5397434,
    "category": "shrine",
    "prefecture": "yamanashi",
    "osm_id": 6919867949,
    "spot_type": "data_spot",
    "data_source": "osm"
  },
  {
    "name": "名称不明",
    "name_en": "",
    "lat": 35.4483561,
    "lng": 138.5337889,
    "category": "shrine",
    "prefecture": "yamanashi",
    "osm_id": 6919867950,
    "spot_type": "data_spot",
    "data_source": "osm"
  },
  {
    "name": "名称不明",
    "name_en": "",
    "lat": 35.4463546,
    "lng": 138.5345077,
    "category": "shrine",
    "prefecture": "yamanashi",
    "osm_id": 6919867951,
    "spot_type": "data_spot",
    "data_source": "osm"
  },
  {
    "name": "名称不明",
    "name_en": "",
    "lat": 35.2314245,
    "lng": 138.6103564,
    "category": "temple",
    "prefecture": "yamanashi",
    "osm_id": 6938647294,
    "spot_type": "data_spot",
    "data_source": "osm"
  },
  {
    "name": "足湯",
    "name_en": "",
    "lat": 35.6325531,
    "lng": 138.3621845,
    "category": "onsen",
    "prefecture": "yamanashi",
    "osm_id": 7095172118,
    "spot_type": "data_spot",
    "data_source": "osm"
  },
  {
    "name": "名称不明",
    "name_en": "",
    "lat": 35.3505734,
    "lng": 138.2944929,
    "category": "shrine",
    "prefecture": "yamanashi",
    "osm_id": 7126099412,
    "spot_type": "data_spot",
    "data_source": "osm"
  },
  {
    "name": "清水寺",
    "name_en": "",
    "lat": 35.7133932,
    "lng": 138.6848346,
    "category": "temple",
    "prefecture": "yamanashi",
    "osm_id": 7133202005,
    "spot_type": "data_spot",
    "data_source": "osm"
  },
  {
    "name": "箱根ドールハウス美術館",
    "name_en": "",
    "lat": 35.2197822,
    "lng": 139.0433061,
    "category": "museum",
    "prefecture": "yamanashi",
    "osm_id": 7140736861,
    "spot_type": "data_spot",
    "data_source": "osm"
  },
  {
    "name": "大宮神社",
    "name_en": "",
    "lat": 35.8625197,
    "lng": 138.3111982,
    "category": "shrine",
    "prefecture": "yamanashi",
    "osm_id": 7168275530,
    "spot_type": "data_spot",
    "data_source": "osm"
  },
  {
    "name": "本光寺",
    "name_en": "",
    "lat": 35.5622927,
    "lng": 138.9632642,
    "category": "temple",
    "prefecture": "yamanashi",
    "osm_id": 7209712185,
    "spot_type": "data_spot",
    "data_source": "osm"
  },
  {
    "name": "石船神社",
    "name_en": "",
    "lat": 35.5630967,
    "lng": 138.9730472,
    "category": "shrine",
    "prefecture": "yamanashi",
    "osm_id": 7209712186,
    "spot_type": "data_spot",
    "data_source": "osm"
  },
  {
    "name": "箱根九頭龍神社 本宮",
    "name_en": "Kuzuryū Shrine Hongū",
    "lat": 35.223854,
    "lng": 138.9995915,
    "category": "shrine",
    "prefecture": "yamanashi",
    "osm_id": 7274105268,
    "spot_type": "data_spot",
    "data_source": "osm"
  },
  {
    "name": "木の花の湯",
    "name_en": "Konohananoyu",
    "lat": 35.3050617,
    "lng": 138.9666011,
    "category": "onsen",
    "prefecture": "yamanashi",
    "osm_id": 7359576668,
    "spot_type": "data_spot",
    "data_source": "osm"
  },
  {
    "name": "穂見神社",
    "name_en": "",
    "lat": 35.6220705,
    "lng": 138.4050313,
    "category": "shrine",
    "prefecture": "yamanashi",
    "osm_id": 7461799708,
    "spot_type": "data_spot",
    "data_source": "osm"
  },
  {
    "name": "あっちの湯",
    "name_en": "",
    "lat": 35.7060908,
    "lng": 138.6529642,
    "category": "onsen",
    "prefecture": "yamanashi",
    "osm_id": 7738498409,
    "spot_type": "data_spot",
    "data_source": "osm"
  },
  {
    "name": "こっちの湯",
    "name_en": "",
    "lat": 35.7060263,
    "lng": 138.652173,
    "category": "onsen",
    "prefecture": "yamanashi",
    "osm_id": 7738498410,
    "spot_type": "data_spot",
    "data_source": "osm"
  },
  {
    "name": "玉村豊男ライフアートミュージアム",
    "name_en": "",
    "lat": 35.2035378,
    "lng": 139.0308163,
    "category": "museum",
    "prefecture": "yamanashi",
    "osm_id": 7796157196,
    "spot_type": "data_spot",
    "data_source": "osm"
  },
  {
    "name": "伊奈神社",
    "name_en": "",
    "lat": 35.3621181,
    "lng": 138.8720236,
    "category": "shrine",
    "prefecture": "yamanashi",
    "osm_id": 7811391192,
    "spot_type": "data_spot",
    "data_source": "osm"
  },
  {
    "name": "子之神社",
    "name_en": "",
    "lat": 35.5056826,
    "lng": 138.9922049,
    "category": "shrine",
    "prefecture": "yamanashi",
    "osm_id": 7816647979,
    "spot_type": "data_spot",
    "data_source": "osm"
  },
  {
    "name": "大平台",
    "name_en": "Ohiradai",
    "lat": 35.2386538,
    "lng": 139.0740227,
    "category": "station",
    "prefecture": "yamanashi",
    "osm_id": 7843726566,
    "spot_type": "data_spot",
    "data_source": "osm"
  },
  {
    "name": "塔ノ沢",
    "name_en": "Tōnosawa",
    "lat": 35.2345141,
    "lng": 139.0940591,
    "category": "station",
    "prefecture": "yamanashi",
    "osm_id": 7843789528,
    "spot_type": "data_spot",
    "data_source": "osm"
  },
  {
    "name": "金刀比羅神社",
    "name_en": "",
    "lat": 35.5760033,
    "lng": 138.617051,
    "category": "shrine",
    "prefecture": "yamanashi",
    "osm_id": 7855964751,
    "spot_type": "data_spot",
    "data_source": "osm"
  },
  {
    "name": "風祭",
    "name_en": "Kazamatsuri",
    "lat": 35.2462728,
    "lng": 139.129344,
    "category": "station",
    "prefecture": "yamanashi",
    "osm_id": 7880004770,
    "spot_type": "data_spot",
    "data_source": "osm"
  },
  {
    "name": "名称不明",
    "name_en": "Gōra",
    "lat": 35.2507799,
    "lng": 139.0480501,
    "category": "station",
    "prefecture": "yamanashi",
    "osm_id": 7880012700,
    "spot_type": "data_spot",
    "data_source": "osm"
  },
  {
    "name": "小涌谷",
    "name_en": "Kowakidani",
    "lat": 35.2405028,
    "lng": 139.0528473,
    "category": "station",
    "prefecture": "yamanashi",
    "osm_id": 7880040119,
    "spot_type": "data_spot",
    "data_source": "osm"
  },
  {
    "name": "入生田",
    "name_en": "Iriuda",
    "lat": 35.2408643,
    "lng": 139.1212431,
    "category": "station",
    "prefecture": "yamanashi",
    "osm_id": 7880051246,
    "spot_type": "data_spot",
    "data_source": "osm"
  },
  {
    "name": "葛山浅間神社",
    "name_en": "",
    "lat": 35.2054224,
    "lng": 138.9014156,
    "category": "shrine",
    "prefecture": "yamanashi",
    "osm_id": 7908623277,
    "spot_type": "data_spot",
    "data_source": "osm"
  },
  {
    "name": "本栖寺",
    "name_en": "",
    "lat": 35.4641213,
    "lng": 138.5708013,
    "category": "temple",
    "prefecture": "yamanashi",
    "osm_id": 7921773420,
    "spot_type": "data_spot",
    "data_source": "osm"
  },
  {
    "name": "白川稲荷神社",
    "name_en": "",
    "lat": 35.5866664,
    "lng": 138.9312532,
    "category": "shrine",
    "prefecture": "yamanashi",
    "osm_id": 7922093111,
    "spot_type": "data_spot",
    "data_source": "osm"
  },
  {
    "name": "廣徳寺",
    "name_en": "",
    "lat": 35.6049666,
    "lng": 138.7104764,
    "category": "temple",
    "prefecture": "yamanashi",
    "osm_id": 7924550787,
    "spot_type": "data_spot",
    "data_source": "osm"
  },
  {
    "name": "唐士神社",
    "name_en": "",
    "lat": 35.601163,
    "lng": 138.6632191,
    "category": "shrine",
    "prefecture": "yamanashi",
    "osm_id": 7924758229,
    "spot_type": "data_spot",
    "data_source": "osm"
  },
  {
    "name": "石尊寺",
    "name_en": "",
    "lat": 35.601568,
    "lng": 138.6276394,
    "category": "temple",
    "prefecture": "yamanashi",
    "osm_id": 7924763110,
    "spot_type": "data_spot",
    "data_source": "osm"
  },
  {
    "name": "若宮神社",
    "name_en": "",
    "lat": 35.600394,
    "lng": 138.6265144,
    "category": "shrine",
    "prefecture": "yamanashi",
    "osm_id": 7924763111,
    "spot_type": "data_spot",
    "data_source": "osm"
  },
  {
    "name": "王子稲荷大明社",
    "name_en": "",
    "lat": 35.5997476,
    "lng": 138.627676,
    "category": "shrine",
    "prefecture": "yamanashi",
    "osm_id": 7924763112,
    "spot_type": "data_spot",
    "data_source": "osm"
  },
  {
    "name": "光照寺",
    "name_en": "",
    "lat": 35.6009144,
    "lng": 138.630153,
    "category": "temple",
    "prefecture": "yamanashi",
    "osm_id": 7924763113,
    "spot_type": "data_spot",
    "data_source": "osm"
  },
  {
    "name": "八幡神社",
    "name_en": "",
    "lat": 35.6025981,
    "lng": 138.6223476,
    "category": "shrine",
    "prefecture": "yamanashi",
    "osm_id": 7924766348,
    "spot_type": "data_spot",
    "data_source": "osm"
  },
  {
    "name": "彫刻の森",
    "name_en": "Chōkokunomori",
    "lat": 35.2465901,
    "lng": 139.050778,
    "category": "station",
    "prefecture": "yamanashi",
    "osm_id": 8076209964,
    "spot_type": "data_spot",
    "data_source": "osm"
  },
  {
    "name": "名称不明",
    "name_en": "",
    "lat": 35.8934861,
    "lng": 138.4255068,
    "category": "rest_area",
    "prefecture": "yamanashi",
    "osm_id": 8099071908,
    "spot_type": "data_spot",
    "data_source": "osm"
  },
  {
    "name": "禾生",
    "name_en": "Kasei",
    "lat": 35.575108,
    "lng": 138.929062,
    "category": "station",
    "prefecture": "yamanashi",
    "osm_id": 8228782082,
    "spot_type": "data_spot",
    "data_source": "osm"
  },
  {
    "name": "東桂",
    "name_en": "Higashikatsura",
    "lat": 35.5364296,
    "lng": 138.8708959,
    "category": "station",
    "prefecture": "yamanashi",
    "osm_id": 8228791734,
    "spot_type": "data_spot",
    "data_source": "osm"
  },
  {
    "name": "西光寺",
    "name_en": "",
    "lat": 35.6337439,
    "lng": 139.0604716,
    "category": "temple",
    "prefecture": "yamanashi",
    "osm_id": 8230159287,
    "spot_type": "data_spot",
    "data_source": "osm"
  },
  {
    "name": "谷村町",
    "name_en": "Yamuramachi",
    "lat": 35.5505912,
    "lng": 138.9046798,
    "category": "station",
    "prefecture": "yamanashi",
    "osm_id": 8237778233,
    "spot_type": "data_spot",
    "data_source": "osm"
  },
  {
    "name": "富士岡",
    "name_en": "Fujioka",
    "lat": 35.2556995,
    "lng": 138.9199431,
    "category": "station",
    "prefecture": "yamanashi",
    "osm_id": 8238082565,
    "spot_type": "data_spot",
    "data_source": "osm"
  },
  {
    "name": "山北",
    "name_en": "Yamakita",
    "lat": 35.3607725,
    "lng": 139.0801532,
    "category": "station",
    "prefecture": "yamanashi",
    "osm_id": 8238086588,
    "spot_type": "data_spot",
    "data_source": "osm"
  },